{"meta": {"code": 200, "requestId": "5d1fe81a89b06a003418c70a"}, "response": {"suggestedFilters": {"header": "Tap to show:", "filters": [{"name": "Open now", "key": "openNow"}, {"name": "$-$$$$", "key": "price"}]}, "geocode": {"what": "", "where": "bronx ny", "center": {"lat": 40.84985, "lng": -73.86641}, "displayString": "Bronx, NY, United States", "cc": "US", "geometry": {"bounds": {"ne": {"lat": 40.917577, "lng": -73.74806}, "sw": {"lat": 40.785743, "lng": -73.933808}}}, "slug": "bronx-new-york", "longId": "72057594043038202"}, "headerLocation": "Bronx", "headerFullLocation": "Bronx", "headerLocationGranularity": "city", "query": "starbucks", "totalResults": 45, "suggestedBounds": {"ne": {"lat": 40.95989126384447, "lng": -73.7793254818911}, "sw": {"lat": 40.75256927315026, "lng": -73.99447488028719}}, "groups": [{"type": "Recommended Places", "name": "recommended", "items": [{"reasons": {"count": 0, "items": [{"summary": "This spot is popular", "type": "general", "reasonName": "globalInteractionReason"}]}, "venue": {"id": "55d89b7f498ebd939ba7d33e", "name": "Starbucks", "location": {"address": "815 Hutchinson River Pkwy", "crossStreet": "at Lafayette Ave", "lat": 40.824314, "lng": -73.8381, "labeledLatLngs": [{"label": "display", "lat": 40.824314, "lng": -73.8381}], "postalCode": "10465", "cc": "US", "city": "Bronx", "state": "NY", "country": "United States", "formattedAddress": ["815 Hutchinson River Pkwy (at Lafayette Ave)", "Bronx, NY 10465", "United States"]}, "categories": [{"id": "4bf58dd8d48988d1e0931735", "name": "Coffee Shop", "pluralName": "Coffee Shops", "shortName": "Coffee Shop", "icon": {"prefix": "https://ss3.4sqi.net/img/categories_v2/food/coffeeshop_", "suffix": ".png"}, "primary": true}], "photos": {"count": 0, "groups": []}}, "referralId": "e-0-55d89b7f498ebd939ba7d33e-0"}, {"reasons": {"count": 0, "items": [{"summary": "This spot is popular", "type": "general", "reasonName": "globalInteractionReason"}]}, "venue": {"id": "57b25375498e76f51c083656", "name": "Starbucks", "location": {"address": "1886 Eastchester Rd", "crossStreet": "at Morris Park Ave", "lat": 40.85137110429627, "lng": -73.84408747022273, "labeledLatLngs": [{"label": "display", "lat": 40.85137110429627, "lng": -73.84408747022273}], "postalCode": "10461", "cc": "US", "city": "Bronx", "state": "NY", "country": "United States", "formattedAddress": ["1886 Eastchester Rd (at Morris Park Ave)", "Bronx, NY 10461", "United States"]}, "categories": [{"id": "4bf58dd8d48988d1e0931735", "name": "Coffee Shop", "pluralName": "Coffee Shops", "shortName": "Coffee Shop", "icon": {"prefix": "https://ss3.4sqi.net/img/categories_v2/food/coffeeshop_", "suffix": ".png"}, "primary": true}], "photos": {"count": 0, "groups": []}}, "referralId": "e-0-57b25375498e76f51c083656-1"}, {"reasons": {"count": 0, "items": [{"summary": "This spot is popular", "type": "general", "reasonName": "globalInteractionReason"}]}, "venue": {"id": "4b44d981f964a5201efe25e3", "name": "Starbucks", "location": {"address": "841-851 Bronx River Rd", "crossStreet": "at Midland Ave", "lat": 40.92783654, "lng": -73.84297093, "labeledLatLngs": [{"label": "display", "lat": 40.92783654, "lng": -73.84297093}], "postalCode": "10708", "cc": "US", "city": "Yonkers", "state": "NY", "country": "United States", "formattedAddress": ["841-851 Bronx River Rd (at Midland Ave)", "Yonkers, NY 10708", "United States"]}, "categories": [{"id": "4bf58dd8d48988d1e0931735", "name": "Coffee Shop", "pluralName": "Coffee Shops", "shortName": "Coffee Shop", "icon": {"prefix": "https://ss3.4sqi.net/img/categories_v2/food/coffeeshop_", "suffix": ".png"}, "primary": true}], "photos": {"count": 0, "groups": []}}, "flags": {"outsideRadius": true}, "referralId": "e-0-4b44d981f964a5201efe25e3-2"}, {"reasons": {"count": 0, "items": [{"summary": "This spot is popular", "type": "general", "reasonName": "globalInteractionReason"}]}, "venue": {"id": "59a9a3da2619ee5cdd0d46d5", "name": "Starbucks", "location": {"lat": 40.85612716867315, "lng": -73.86742823061535, "labeledLatLngs": [{"label": "display", "lat": 40.85612716867315, "lng": -73.86742823061535}], "postalCode": "10462", "cc": "US", "city": "Bronx", "state": "NY", "country": "United States", "formattedAddress": ["Bronx, NY 10462", "United States"]}, "categories": [{"id": "4bf58dd8d48988d1e0931735", "name": "Coffee Shop", "pluralName": "Coffee Shops", "shortName": "Coffee Shop", "icon": {"prefix": "https://ss3.4sqi.net/img/categories_v2/food/coffeeshop_", "suffix": ".png"}, "primary": true}], "photos": {"count": 0, "groups": []}}, "referralId": "e-0-59a9a3da2619ee5cdd0d46d5-3"}, {"reasons": {"count": 0, "items": [{"summary": "This spot is popular", "type": "general", "reasonName": "globalInteractionReason"}]}, "venue": {"id": "55f81cd2498ee903149fcc64", "name": "Starbucks", "location": {"address": "171 W 230th St", "crossStreet": "Kimberly Pl", "lat": 40.87753134921497, "lng": -73.90558216359267, "labeledLatLngs": [{"label": "display", "lat": 40.87753134921497, "lng": -73.90558216359267}], "postalCode": "10463", "cc": "US", "city": "Bronx", "state": "NY", "country": "United States", "formattedAddress": ["171 W 230th St (Kimberly Pl)", "Bronx, NY 10463", "United States"]}, "categories": [{"id": "4bf58dd8d48988d1e0931735", "name": "Coffee Shop", "pluralName": "Coffee Shops", "shortName": "Coffee Shop", "icon": {"prefix": "https://ss3.4sqi.net/img/categories_v2/food/coffeeshop_", "suffix": ".png"}, "primary": true}], "photos": {"count": 0, "groups": []}}, "referralId": "e-0-55f81cd2498ee903149fcc64-4"}, {"reasons": {"count": 0, "items": [{"summary": "This spot is popular", "type": "general", "reasonName": "globalInteractionReason"}]}, "venue": {"id": "4b5225d3f964a520756b27e3", "name": "Starbucks", "location": {"address": "1278-80 North Ave", "crossStreet": "at Wykagyl Shopping Ctr", "lat": 40.94592, "lng": -73.795685, "labeledLatLngs": [{"label": "display", "lat": 40.94592, "lng": -73.795685}], "postalCode": "10804", "cc": "US", "city": "New Rochelle", "state": "NY", "country": "United States", "formattedAddress": ["1278-80 North Ave (at Wykagyl Shopping Ctr)", "New Rochelle, NY 10804", "United States"]}, "categories": [{"id": "4bf58dd8d48988d1e0931735", "name": "Coffee Shop", "pluralName": "Coffee Shops", "shortName": "Coffee Shop", "icon": {"prefix": "https://ss3.4sqi.net/img/categories_v2/food/coffeeshop_", "suffix": ".png"}, "primary": true}], "photos": {"count": 0, "groups": []}}, "flags": {"outsideRadius": true}, "referralId": "e-0-4b5225d3f964a520756b27e3-5"}, {"reasons": {"count": 0, "items": [{"summary": "This spot is popular", "type": "general", "reasonName": "globalInteractionReason"}]}, "venue": {"id": "4b916bd8f964a5202fbb33e3", "name": "Starbucks", "location": {"address": "29 Park Pl", "crossStreet": "at Kraft Ave", "lat": 40.93945662, "lng": -73.83442836, "labeledLatLngs": [{"label": "display", "lat": 40.93945662, "lng": -73.83442836}], "postalCode": "10708", "cc": "US", "city": "Bronxville", "state": "NY", "country": "United States", "formattedAddress": ["29 Park Pl (at Kraft Ave)", "Bronxville, NY 10708", "United States"]}, "categories": [{"id": "4bf58dd8d48988d1e0931735", "name": "Coffee Shop", "pluralName": "Coffee Shops", "shortName": "Coffee Shop", "icon": {"prefix": "https://ss3.4sqi.net/img/categories_v2/food/coffeeshop_", "suffix": ".png"}, "primary": true}], "photos": {"count": 0, "groups": []}}, "flags": {"outsideRadius": true}, "referralId": "e-0-4b916bd8f964a5202fbb33e3-6"}, {"reasons": {"count": 0, "items": [{"summary": "This spot is popular", "type": "general", "reasonName": "globalInteractionReason"}]}, "venue": {"id": "4b4f2c9ff964a52035fc26e3", "name": "Starbucks", "location": {"address": "2215 State Rt 4", "lat": 40.863815, "lng": -73.975194, "labeledLatLngs": [{"label": "display", "lat": 40.863815, "lng": -73.975194}], "postalCode": "07024", "cc": "US", "city": "Fort Lee", "state": "NJ", "country": "United States", "formattedAddress": ["2215 State Rt 4", "Fort Lee, NJ 07024", "United States"]}, "categories": [{"id": "4bf58dd8d48988d1e0931735", "name": "Coffee Shop", "pluralName": "Coffee Shops", "shortName": "Coffee Shop", "icon": {"prefix": "https://ss3.4sqi.net/img/categories_v2/food/coffeeshop_", "suffix": ".png"}, "primary": true}], "photos": {"count": 0, "groups": []}}, "flags": {"outsideRadius": true}, "referralId": "e-0-4b4f2c9ff964a52035fc26e3-7"}, {"reasons": {"count": 0, "items": [{"summary": "This spot is popular", "type": "general", "reasonName": "globalInteractionReason"}]}, "venue": {"id": "4bc8e36bfb84c9b613f8193e", "name": "Starbucks", "location": {"address": "138-11 20th Ave", "lat": 40.78196653110998, "lng": -73.8297175532178, "labeledLatLngs": [{"label": "display", "lat": 40.78196653110998, "lng": -73.8297175532178}], "postalCode": "11356", "cc": "US", "city": "College Point", "state": "NY", "country": "United States", "formattedAddress": ["138-11 20th Ave", "College Point, NY 11356", "United States"]}, "categories": [{"id": "4bf58dd8d48988d1e0931735", "name": "Coffee Shop", "pluralName": "Coffee Shops", "shortName": "Coffee Shop", "icon": {"prefix": "https://ss3.4sqi.net/img/categories_v2/food/coffeeshop_", "suffix": ".png"}, "primary": true}], "photos": {"count": 0, "groups": []}}, "flags": {"outsideRadius": true}, "referralId": "e-0-4bc8e36bfb84c9b613f8193e-8"}, {"reasons": {"count": 0, "items": [{"summary": "This spot is popular", "type": "general", "reasonName": "globalInteractionReason"}]}, "venue": {"id": "4fdc9a79e4b0735a6deafc25", "name": "Starbucks", "location": {"address": "805 Columbus Ave", "crossStreet": "at W 100th St", "lat": 40.79536902, "lng": -73.96558901, "labeledLatLngs": [{"label": "display", "lat": 40.79536902, "lng": -73.96558901}], "postalCode": "10025", "cc": "US", "city": "New York", "state": "NY", "country": "United States", "formattedAddress": ["805 Columbus Ave (at W 100th St)", "New York, NY 10025", "United States"]}, "categories": [{"id": "4bf58dd8d48988d1e0931735", "name": "Coffee Shop", "pluralName": "Coffee Shops", "shortName": "Coffee Shop", "icon": {"prefix": "https://ss3.4sqi.net/img/categories_v2/food/coffeeshop_", "suffix": ".png"}, "primary": true}], "photos": {"count": 0, "groups": []}}, "flags": {"outsideRadius": true}, "referralId": "e-0-4fdc9a79e4b0735a6deafc25-9"}, {"reasons": {"count": 0, "items": [{"summary": "This spot is popular", "type": "general", "reasonName": "globalInteractionReason"}]}, "venue": {"id": "4b4b8ac4f964a520ab9f26e3", "name": "Starbucks", "location": {"address": "1728 Eastchester Rd", "crossStreet": "btwn Waters Pl & Bassett Ave", "lat": 40.84713195, "lng": -73.84444944, "labeledLatLngs": [{"label": "display", "lat": 40.84713195, "lng": -73.84444944}], "postalCode": "10461", "cc": "US", "city": "Bronx", "state": "NY", "country": "United States", "formattedAddress": ["1728 Eastchester Rd (btwn Waters Pl & Bassett Ave)", "Bronx, NY 10461", "United States"]}, "categories": [{"id": "4bf58dd8d48988d1e0931735", "name": "Coffee Shop", "pluralName": "Coffee Shops", "shortName": "Coffee Shop", "icon": {"prefix": "https://ss3.4sqi.net/img/categories_v2/food/coffeeshop_", "suffix": ".png"}, "primary": true}], "photos": {"count": 0, "groups": []}}, "referralId": "e-0-4b4b8ac4f964a520ab9f26e3-10"}, {"reasons": {"count": 0, "items": [{"summary": "This spot is popular", "type": "general", "reasonName": "globalInteractionReason"}]}, "venue": {"id": "4b105663f964a5202f6e23e3", "name": "Starbucks", "location": {"address": "1 Depot Square", "crossStreet": "at Tuckahoe Train Sta", "lat": 40.95046753699473, "lng": -73.82836659298846, "labeledLatLngs": [{"label": "display", "lat": 40.95046753699473, "lng": -73.82836659298846}], "postalCode": "10707", "cc": "US", "city": "Tuckahoe", "state": "NY", "country": "United States", "formattedAddress": ["1 Depot Square (at Tuckahoe Train Sta)", "Tuckahoe, NY 10707", "United States"]}, "categories": [{"id": "4bf58dd8d48988d1e0931735", "name": "Coffee Shop", "pluralName": "Coffee Shops", "shortName": "Coffee Shop", "icon": {"prefix": "https://ss3.4sqi.net/img/categories_v2/food/coffeeshop_", "suffix": ".png"}, "primary": true}], "photos": {"count": 0, "groups": []}}, "flags": {"outsideRadius": true}, "referralId": "e-0-4b105663f964a5202f6e23e3-11"}, {"reasons": {"count": 0, "items": [{"summary": "This spot is popular", "type": "general", "reasonName": "globalInteractionReason"}]}, "venue": {"id": "4a785251f964a52063e51fe3", "name": "Starbucks", "location": {"address": "543 River Rd", "crossStreet": "at Target", "lat": 40.81376051063583, "lng": -73.9820408821106, "labeledLatLngs": [{"label": "display", "lat": 40.81376051063583, "lng": -73.9820408821106}], "postalCode": "07020", "cc": "US", "city": "Edgewater", "state": "NJ", "country": "United States", "formattedAddress": ["543 River Rd (at Target)", "Edgewater, NJ 07020", "United States"]}, "categories": [{"id": "4bf58dd8d48988d1e0931735", "name": "Coffee Shop", "pluralName": "Coffee Shops", "shortName": "Coffee Shop", "icon": {"prefix": "https://ss3.4sqi.net/img/categories_v2/food/coffeeshop_", "suffix": ".png"}, "primary": true}], "photos": {"count": 0, "groups": []}}, "flags": {"outsideRadius": true}, "referralId": "e-0-4a785251f964a52063e51fe3-12"}, {"reasons": {"count": 0, "items": [{"summary": "This spot is popular", "type": "general", "reasonName": "globalInteractionReason"}]}, "venue": {"id": "4d68e1a467a8f04dc75006be", "name": "Starbucks", "location": {"address": "31-01 Broadway", "crossStreet": "at 31st St", "lat": 40.761993, "lng": -73.92507, "labeledLatLngs": [{"label": "display", "lat": 40.761993, "lng": -73.92507}], "postalCode": "11106", "cc": "US", "city": "Astoria", "state": "NY", "country": "United States", "formattedAddress": ["31-01 Broadway (at 31st St)", "Astoria, NY 11106", "United States"]}, "categories": [{"id": "4bf58dd8d48988d1e0931735", "name": "Coffee Shop", "pluralName": "Coffee Shops", "shortName": "Coffee Shop", "icon": {"prefix": "https://ss3.4sqi.net/img/categories_v2/food/coffeeshop_", "suffix": ".png"}, "primary": true}], "photos": {"count": 0, "groups": []}}, "flags": {"outsideRadius": true}, "referralId": "e-0-4d68e1a467a8f04dc75006be-13"}, {"reasons": {"count": 0, "items": [{"summary": "This spot is popular", "type": "general", "reasonName": "globalInteractionReason"}]}, "venue": {"id": "4ad60ec2f964a520dd0421e3", "name": "Starbucks", "location": {"address": "2690 Broadway", "lat": 40.79888, "lng": -73.96837, "labeledLatLngs": [{"label": "display", "lat": 40.79888, "lng": -73.96837}], "postalCode": "10025", "cc": "US", "city": "New York", "state": "NY", "country": "United States", "formattedAddress": ["2690 Broadway", "New York, NY 10025", "United States"]}, "categories": [{"id": "4bf58dd8d48988d1e0931735", "name": "Coffee Shop", "pluralName": "Coffee Shops", "shortName": "Coffee Shop", "icon": {"prefix": "https://ss3.4sqi.net/img/categories_v2/food/coffeeshop_", "suffix": ".png"}, "primary": true}], "photos": {"count": 0, "groups": []}}, "flags": {"outsideRadius": true}, "referralId": "e-0-4ad60ec2f964a520dd0421e3-14"}, {"reasons": {"count": 0, "items": [{"summary": "This spot is popular", "type": "general", "reasonName": "globalInteractionReason"}]}, "venue": {"id": "49c9660bf964a5205d581fe3", "name": "Starbucks", "location": {"address": "22-04 31st St", "crossStreet": "at Ditmars Blvd", "lat": 40.776211994463324, "lng": -73.91088914659068, "labeledLatLngs": [{"label": "display", "lat": 40.776211994463324, "lng": -73.91088914659068}], "postalCode": "11105", "cc": "US", "city": "Astoria", "state": "NY", "country": "United States", "formattedAddress": ["22-04 31st St (at Ditmars Blvd)", "Astoria, NY 11105", "United States"]}, "categories": [{"id": "4bf58dd8d48988d1e0931735", "name": "Coffee Shop", "pluralName": "Coffee Shops", "shortName": "Coffee Shop", "icon": {"prefix": "https://ss3.4sqi.net/img/categories_v2/food/coffeeshop_", "suffix": ".png"}, "primary": true}], "photos": {"count": 0, "groups": []}}, "flags": {"outsideRadius": true}, "referralId": "e-0-49c9660bf964a5205d581fe3-15"}, {"reasons": {"count": 0, "items": [{"summary": "This spot is popular", "type": "general", "reasonName": "globalInteractionReason"}]}, "venue": {"id": "4eb4295c469073bbc596ef81", "name": "Starbucks", "location": {"address": "290 Baychester Ave", "lat": 40.86561735082342, "lng": -73.82726323730006, "labeledLatLngs": [{"label": "display", "lat": 40.86561735082342, "lng": -73.82726323730006}], "postalCode": "10475", "cc": "US", "city": "Bronx", "state": "NY", "country": "United States", "formattedAddress": ["290 Baychester Ave", "Bronx, NY 10475", "United States"]}, "categories": [{"id": "4bf58dd8d48988d1e0931735", "name": "Coffee Shop", "pluralName": "Coffee Shops", "shortName": "Coffee Shop", "icon": {"prefix": "https://ss3.4sqi.net/img/categories_v2/food/coffeeshop_", "suffix": ".png"}, "primary": true}], "photos": {"count": 0, "groups": []}}, "referralId": "e-0-4eb4295c469073bbc596ef81-16"}, {"reasons": {"count": 0, "items": [{"summary": "This spot is popular", "type": "general", "reasonName": "globalInteractionReason"}]}, "venue": {"id": "53a0be61498eeec38e5112e0", "name": "Starbucks", "location": {"address": "440 E Fordham Rd", "crossStreet": "at 3rd Ave", "lat": 40.86063643, "lng": -73.89027008, "labeledLatLngs": [{"label": "display", "lat": 40.86063643, "lng": -73.89027008}], "postalCode": "10458", "cc": "US", "city": "Bronx", "state": "NY", "country": "United States", "formattedAddress": ["440 E Fordham Rd (at 3rd Ave)", "Bronx, NY 10458", "United States"]}, "categories": [{"id": "4bf58dd8d48988d1e0931735", "name": "Coffee Shop", "pluralName": "Coffee Shops", "shortName": "Coffee Shop", "icon": {"prefix": "https://ss3.4sqi.net/img/categories_v2/food/coffeeshop_", "suffix": ".png"}, "primary": true}], "photos": {"count": 0, "groups": []}}, "referralId": "e-0-53a0be61498eeec38e5112e0-17"}, {"reasons": {"count": 0, "items": [{"summary": "This spot is popular", "type": "general", "reasonName": "globalInteractionReason"}]}, "venue": {"id": "4ae60577f964a52024a421e3", "name": "Starbucks", "location": {"address": "136-38 Linwood Plz", "crossStreet": "at Linwood Plz", "lat": 40.86109168265603, "lng": -73.97030446811752, "labeledLatLngs": [{"label": "display", "lat": 40.86109168265603, "lng": -73.97030446811752}], "postalCode": "07024", "cc": "US", "city": "Fort Lee", "state": "NJ", "country": "United States", "formattedAddress": ["136-38 Linwood Plz (at Linwood Plz)", "Fort Lee, NJ 07024", "United States"]}, "categories": [{"id": "4bf58dd8d48988d1e0931735", "name": "Coffee Shop", "pluralName": "Coffee Shops", "shortName": "Coffee Shop", "icon": {"prefix": "https://ss3.4sqi.net/img/categories_v2/food/coffeeshop_", "suffix": ".png"}, "primary": true}], "photos": {"count": 0, "groups": []}}, "flags": {"outsideRadius": true}, "referralId": "e-0-4ae60577f964a52024a421e3-18"}, {"reasons": {"count": 0, "items": [{"summary": "This spot is popular", "type": "general", "reasonName": "globalInteractionReason"}]}, "venue": {"id": "4b675748f964a52028492be3", "name": "Starbucks", "location": {"address": "17 E Palisade Ave", "crossStreet": "at N Dean St", "lat": 40.893769, "lng": -73.974102, "labeledLatLngs": [{"label": "display", "lat": 40.893769, "lng": -73.974102}], "postalCode": "07631", "cc": "US", "city": "Englewood", "state": "NJ", "country": "United States", "formattedAddress": ["17 E Palisade Ave (at N Dean St)", "Englewood, NJ 07631", "United States"]}, "categories": [{"id": "4bf58dd8d48988d1e0931735", "name": "Coffee Shop", "pluralName": "Coffee Shops", "shortName": "Coffee Shop", "icon": {"prefix": "https://ss3.4sqi.net/img/categories_v2/food/coffeeshop_", "suffix": ".png"}, "primary": true}], "photos": {"count": 0, "groups": []}}, "flags": {"outsideRadius": true}, "referralId": "e-0-4b675748f964a52028492be3-19"}, {"reasons": {"count": 0, "items": [{"summary": "This spot is popular", "type": "general", "reasonName": "globalInteractionReason"}]}, "venue": {"id": "582f088d92789f1ed07c0b40", "name": "Starbucks", "location": {"address": "457 River Rd", "lat": 40.813064180233866, "lng": -73.98469536217827, "labeledLatLngs": [{"label": "display", "lat": 40.813064180233866, "lng": -73.98469536217827}], "postalCode": "07020", "cc": "US", "city": "Edgewater", "state": "NJ", "country": "United States", "formattedAddress": ["457 River Rd", "Edgewater, NJ 07020", "United States"]}, "categories": [{"id": "4bf58dd8d48988d1e0931735", "name": "Coffee Shop", "pluralName": "Coffee Shops", "shortName": "Coffee Shop", "icon": {"prefix": "https://ss3.4sqi.net/img/categories_v2/food/coffeeshop_", "suffix": ".png"}, "primary": true}], "photos": {"count": 0, "groups": []}}, "flags": {"outsideRadius": true}, "referralId": "e-0-582f088d92789f1ed07c0b40-20"}, {"reasons": {"count": 0, "items": [{"summary": "This spot is popular", "type": "general", "reasonName": "globalInteractionReason"}]}, "venue": {"id": "55f96d71498e452a8e98af29", "name": "Starbucks", "location": {"address": "260 E 161st St", "crossStreet": "at Morris Ave", "lat": 40.82555649, "lng": -73.91886538, "labeledLatLngs": [{"label": "display", "lat": 40.82555649, "lng": -73.91886538}], "postalCode": "10451", "cc": "US", "city": "Bronx", "state": "NY", "country": "United States", "formattedAddress": ["260 E 161st St (at Morris Ave)", "Bronx, NY 10451", "United States"]}, "categories": [{"id": "4bf58dd8d48988d1e0931735", "name": "Coffee Shop", "pluralName": "Coffee Shops", "shortName": "Coffee Shop", "icon": {"prefix": "https://ss3.4sqi.net/img/categories_v2/food/coffeeshop_", "suffix": ".png"}, "primary": true}], "photos": {"count": 0, "groups": []}}, "referralId": "e-0-55f96d71498e452a8e98af29-21"}, {"reasons": {"count": 0, "items": [{"summary": "This spot is popular", "type": "general", "reasonName": "globalInteractionReason"}]}, "venue": {"id": "4b217496f964a5201c3c24e3", "name": "Starbucks", "location": {"address": "1385 Metropolitan Ave", "crossStreet": "at Wood Ave", "lat": 40.835396, "lng": -73.86151, "labeledLatLngs": [{"label": "display", "lat": 40.835396, "lng": -73.86151}], "postalCode": "10462", "cc": "US", "city": "Bronx", "state": "NY", "country": "United States", "formattedAddress": ["1385 Metropolitan Ave (at Wood Ave)", "Bronx, NY 10462", "United States"]}, "categories": [{"id": "4bf58dd8d48988d1e0931735", "name": "Coffee Shop", "pluralName": "Coffee Shops", "shortName": "Coffee Shop", "icon": {"prefix": "https://ss3.4sqi.net/img/categories_v2/food/coffeeshop_", "suffix": ".png"}, "primary": true}], "photos": {"count": 0, "groups": []}}, "referralId": "e-0-4b217496f964a5201c3c24e3-22"}, {"reasons": {"count": 0, "items": [{"summary": "This spot is popular", "type": "general", "reasonName": "globalInteractionReason"}]}, "venue": {"id": "5a6dfc7d2d2fd973167f4af4", "name": "Starbucks, North Ave", "location": {"address": "726 North Ave", "crossStreet": "Beechmont Drive", "lat": 40.926602, "lng": -73.789105, "labeledLatLngs": [{"label": "display", "lat": 40.926602, "lng": -73.789105}], "postalCode": "10801", "cc": "US", "city": "New Rochelle", "state": "NY", "country": "United States", "formattedAddress": ["726 North Ave (Beechmont Drive)", "New Rochelle, NY 10801", "United States"]}, "categories": [{"id": "4bf58dd8d48988d1e0931735", "name": "Coffee Shop", "pluralName": "Coffee Shops", "shortName": "Coffee Shop", "icon": {"prefix": "https://ss3.4sqi.net/img/categories_v2/food/coffeeshop_", "suffix": ".png"}, "primary": true}], "photos": {"count": 0, "groups": []}}, "flags": {"outsideRadius": true}, "referralId": "e-0-5a6dfc7d2d2fd973167f4af4-23"}, {"reasons": {"count": 0, "items": [{"summary": "This spot is popular", "type": "general", "reasonName": "globalInteractionReason"}]}, "venue": {"id": "4fc94580d4f24895b4467d5c", "name": "Starbucks", "location": {"address": "700 Exterior St", "crossStreet": "at Target", "lat": 40.81963, "lng": -73.93039, "labeledLatLngs": [{"label": "display", "lat": 40.81963, "lng": -73.93039}], "postalCode": "10451", "cc": "US", "city": "Bronx", "state": "NY", "country": "United States", "formattedAddress": ["700 Exterior St (at Target)", "Bronx, NY 10451", "United States"]}, "categories": [{"id": "4bf58dd8d48988d1e0931735", "name": "Coffee Shop", "pluralName": "Coffee Shops", "shortName": "Coffee Shop", "icon": {"prefix": "https://ss3.4sqi.net/img/categories_v2/food/coffeeshop_", "suffix": ".png"}, "primary": true}], "photos": {"count": 0, "groups": []}}, "referralId": "e-0-4fc94580d4f24895b4467d5c-24"}, {"reasons": {"count": 0, "items": [{"summary": "This spot is popular", "type": "general", "reasonName": "globalInteractionReason"}]}, "venue": {"id": "53c91530498e10c40af10721", "name": "Starbucks", "location": {"address": "30-18 Astoria Blvd", "crossStreet": "at 31st St", "lat": 40.77003, "lng": -73.91851, "labeledLatLngs": [{"label": "display", "lat": 40.77003, "lng": -73.91851}], "postalCode": "11102", "cc": "US", "city": "Astoria", "state": "NY", "country": "United States", "formattedAddress": ["30-18 Astoria Blvd (at 31st St)", "Astoria, NY 11102", "United States"]}, "categories": [{"id": "4bf58dd8d48988d1e0931735", "name": "Coffee Shop", "pluralName": "Coffee Shops", "shortName": "Coffee Shop", "icon": {"prefix": "https://ss3.4sqi.net/img/categories_v2/food/coffeeshop_", "suffix": ".png"}, "primary": true}], "photos": {"count": 0, "groups": []}}, "flags": {"outsideRadius": true}, "referralId": "e-0-53c91530498e10c40af10721-25"}, {"reasons": {"count": 0, "items": [{"summary": "This spot is popular", "type": "general", "reasonName": "globalInteractionReason"}]}, "venue": {"id": "5262903e11d249f91ea7b043", "name": "Starbucks", "location": {"address": "250 Bedford Park Blvd", "lat": 40.8734946516303, "lng": -73.89265626629285, "labeledLatLngs": [{"label": "display", "lat": 40.8734946516303, "lng": -73.89265626629285}], "postalCode": "10458", "cc": "US", "city": "Bronx", "state": "NY", "country": "United States", "formattedAddress": ["250 Bedford Park Blvd", "Bronx, NY 10458", "United States"]}, "categories": [{"id": "4bf58dd8d48988d1e0931735", "name": "Coffee Shop", "pluralName": "Coffee Shops", "shortName": "Coffee Shop", "icon": {"prefix": "https://ss3.4sqi.net/img/categories_v2/food/coffeeshop_", "suffix": ".png"}, "primary": true}], "photos": {"count": 0, "groups": []}}, "referralId": "e-0-5262903e11d249f91ea7b043-26"}, {"reasons": {"count": 0, "items": [{"summary": "This spot is popular", "type": "general", "reasonName": "globalInteractionReason"}]}, "venue": {"id": "540f32c0498e2c760a13542b", "name": "Starbucks", "location": {"address": "6301 Riverdale Ave", "lat": 40.91428953591295, "lng": -73.90892217209293, "labeledLatLngs": [{"label": "display", "lat": 40.91428953591295, "lng": -73.90892217209293}], "postalCode": "10471", "cc": "US", "city": "Bronx", "state": "NY", "country": "United States", "formattedAddress": ["6301 Riverdale Ave", "Bronx, NY 10471", "United States"]}, "categories": [{"id": "4bf58dd8d48988d1e0931735", "name": "Coffee Shop", "pluralName": "Coffee Shops", "shortName": "Coffee Shop", "icon": {"prefix": "https://ss3.4sqi.net/img/categories_v2/food/coffeeshop_", "suffix": ".png"}, "primary": true}], "photos": {"count": 0, "groups": []}}, "referralId": "e-0-540f32c0498e2c760a13542b-27"}, {"reasons": {"count": 0, "items": [{"summary": "This spot is popular", "type": "general", "reasonName": "globalInteractionReason"}]}, "venue": {"id": "49d73e8ff964a5201f5d1fe3", "name": "Starbucks", "location": {"address": "3503 Johnson Ave", "crossStreet": "at W 235th St", "lat": 40.88580402, "lng": -73.91015796, "labeledLatLngs": [{"label": "display", "lat": 40.88580402, "lng": -73.91015796}], "postalCode": "10463", "cc": "US", "city": "Bronx", "state": "NY", "country": "United States", "formattedAddress": ["3503 Johnson Ave (at W 235th St)", "Bronx, NY 10463", "United States"]}, "categories": [{"id": "4bf58dd8d48988d1e0931735", "name": "Coffee Shop", "pluralName": "Coffee Shops", "shortName": "Coffee Shop", "icon": {"prefix": "https://ss3.4sqi.net/img/categories_v2/food/coffeeshop_", "suffix": ".png"}, "primary": true}], "photos": {"count": 0, "groups": []}}, "referralId": "e-0-49d73e8ff964a5201f5d1fe3-28"}, {"reasons": {"count": 0, "items": [{"summary": "This spot is popular", "type": "general", "reasonName": "globalInteractionReason"}]}, "venue": {"id": "57655be738faa66160da7527", "name": "Starbucks", "location": {"address": "50 W 225th St", "lat": 40.873754554218515, "lng": -73.90861305343668, "labeledLatLngs": [{"label": "display", "lat": 40.873754554218515, "lng": -73.90861305343668}], "postalCode": "10463", "cc": "US", "city": "New York", "state": "NY", "country": "United States", "formattedAddress": ["50 W 225th St", "New York, NY 10463", "United States"]}, "categories": [{"id": "4bf58dd8d48988d1e0931735", "name": "Coffee Shop", "pluralName": "Coffee Shops", "shortName": "Coffee Shop", "icon": {"prefix": "https://ss3.4sqi.net/img/categories_v2/food/coffeeshop_", "suffix": ".png"}, "primary": true}], "photos": {"count": 0, "groups": []}}, "referralId": "e-0-57655be738faa66160da7527-29"}, {"reasons": {"count": 0, "items": [{"summary": "This spot is popular", "type": "general", "reasonName": "globalInteractionReason"}]}, "venue": {"id": "5820d0801dbf6c6cf42e0bf1", "name": "Starbucks", "location": {"address": "815 Hutchinson River Pkwy", "lat": 40.825765, "lng": -73.835425, "labeledLatLngs": [{"label": "display", "lat": 40.825765, "lng": -73.835425}], "cc": "US", "city": "Bronx", "state": "NY", "country": "United States", "formattedAddress": ["815 Hutchinson River Pkwy", "Bronx, NY", "United States"]}, "categories": [{"id": "4bf58dd8d48988d1e0931735", "name": "Coffee Shop", "pluralName": "Coffee Shops", "shortName": "Coffee Shop", "icon": {"prefix": "https://ss3.4sqi.net/img/categories_v2/food/coffeeshop_", "suffix": ".png"}, "primary": true}], "photos": {"count": 0, "groups": []}}, "referralId": "e-0-5820d0801dbf6c6cf42e0bf1-30"}, {"reasons": {"count": 0, "items": [{"summary": "This spot is popular", "type": "general", "reasonName": "globalInteractionReason"}]}, "venue": {"id": "4c483d70c047be9a430c3379", "name": "Starbucks", "location": {"address": "130 W Kingsbridge Rd", "crossStreet": "at James J Peters VA Medical Ctr", "lat": 40.86715025009173, "lng": -73.90408790050748, "labeledLatLngs": [{"label": "display", "lat": 40.86715025009173, "lng": -73.90408790050748}], "postalCode": "10468", "cc": "US", "city": "Bronx", "state": "NY", "country": "United States", "formattedAddress": ["130 W Kingsbridge Rd (at James J Peters VA Medical Ctr)", "Bronx, NY 10468", "United States"]}, "categories": [{"id": "4bf58dd8d48988d1e0931735", "name": "Coffee Shop", "pluralName": "Coffee Shops", "shortName": "Coffee Shop", "icon": {"prefix": "https://ss3.4sqi.net/img/categories_v2/food/coffeeshop_", "suffix": ".png"}, "primary": true}], "photos": {"count": 0, "groups": []}}, "referralId": "e-0-4c483d70c047be9a430c3379-31"}, {"reasons": {"count": 0, "items": [{"summary": "This spot is popular", "type": "general", "reasonName": "globalInteractionReason"}]}, "venue": {"id": "4aafdf93f964a520f66420e3", "name": "Starbucks", "location": {"address": "803 W 181st St", "crossStreet": "at Fort Washington Ave", "lat": 40.85096145, "lng": -73.93833015, "labeledLatLngs": [{"label": "display", "lat": 40.85096145, "lng": -73.93833015}], "postalCode": "10033", "cc": "US", "city": "New York", "state": "NY", "country": "United States", "formattedAddress": ["803 W 181st St (at Fort Washington Ave)", "New York, NY 10033", "United States"]}, "categories": [{"id": "4bf58dd8d48988d1e0931735", "name": "Coffee Shop", "pluralName": "Coffee Shops", "shortName": "Coffee Shop", "icon": {"prefix": "https://ss3.4sqi.net/img/categories_v2/food/coffeeshop_", "suffix": ".png"}, "primary": true}], "photos": {"count": 0, "groups": []}}, "flags": {"outsideRadius": true}, "referralId": "e-0-4aafdf93f964a520f66420e3-32"}, {"reasons": {"count": 0, "items": [{"summary": "This spot is popular", "type": "general", "reasonName": "globalInteractionReason"}]}, "venue": {"id": "4d949586cf46224b5fe49794", "name": "Starbucks NAC Rotunda", "location": {"address": "CIty College of New York", "crossStreet": "at North Academic Center", "lat": 40.81992301549787, "lng": -73.9501539067642, "labeledLatLngs": [{"label": "display", "lat": 40.81992301549787, "lng": -73.9501539067642}], "postalCode": "10031", "cc": "US", "city": "New York", "state": "NY", "country": "United States", "formattedAddress": ["CIty College of New York (at North Academic Center)", "New York, NY 10031", "United States"]}, "categories": [{"id": "4bf58dd8d48988d1e0931735", "name": "Coffee Shop", "pluralName": "Coffee Shops", "shortName": "Coffee Shop", "icon": {"prefix": "https://ss3.4sqi.net/img/categories_v2/food/coffeeshop_", "suffix": ".png"}, "primary": true}], "photos": {"count": 0, "groups": []}}, "flags": {"outsideRadius": true}, "referralId": "e-0-4d949586cf46224b5fe49794-33"}, {"reasons": {"count": 0, "items": [{"summary": "This spot is popular", "type": "general", "reasonName": "globalInteractionReason"}]}, "venue": {"id": "591bd098be5763698f35cb01", "name": "Starbucks", "location": {"address": "1616 Bergen Blvd.", "lat": 40.855761497925755, "lng": -73.98279236219794, "labeledLatLngs": [{"label": "display", "lat": 40.855761497925755, "lng": -73.98279236219794}], "postalCode": "07024", "cc": "US", "city": "Fort Lee", "state": "NJ", "country": "United States", "formattedAddress": ["1616 Bergen Blvd.", "Fort Lee, NJ 07024", "United States"]}, "categories": [{"id": "4bf58dd8d48988d1e0931735", "name": "Coffee Shop", "pluralName": "Coffee Shops", "shortName": "Coffee Shop", "icon": {"prefix": "https://ss3.4sqi.net/img/categories_v2/food/coffeeshop_", "suffix": ".png"}, "primary": true}], "photos": {"count": 0, "groups": []}}, "flags": {"outsideRadius": true}, "referralId": "e-0-591bd098be5763698f35cb01-34"}, {"reasons": {"count": 0, "items": [{"summary": "This spot is popular", "type": "general", "reasonName": "globalInteractionReason"}]}, "venue": {"id": "4eb177bc9adf1abeffc8ebdd", "name": "Starbucks", "location": {"address": "137-138th st and Convent Ave", "crossStreet": "at CCNY Marshak", "lat": 40.819019627131254, "lng": -73.9487599241403, "labeledLatLngs": [{"label": "display", "lat": 40.819019627131254, "lng": -73.9487599241403}], "postalCode": "10031", "cc": "US", "city": "New York", "state": "NY", "country": "United States", "formattedAddress": ["137-138th st and Convent Ave (at CCNY Marshak)", "New York, NY 10031", "United States"]}, "categories": [{"id": "4bf58dd8d48988d1e0931735", "name": "Coffee Shop", "pluralName": "Coffee Shops", "shortName": "Coffee Shop", "icon": {"prefix": "https://ss3.4sqi.net/img/categories_v2/food/coffeeshop_", "suffix": ".png"}, "primary": true}], "photos": {"count": 0, "groups": []}}, "flags": {"outsideRadius": true}, "referralId": "e-0-4eb177bc9adf1abeffc8ebdd-35"}, {"reasons": {"count": 0, "items": [{"summary": "This spot is popular", "type": "general", "reasonName": "globalInteractionReason"}]}, "venue": {"id": "4b25a38bf964a520dc7424e3", "name": "Starbucks", "location": {"address": "4001 Broadway", "crossStreet": "at W 168th St", "lat": 40.84118767, "lng": -73.9398428, "labeledLatLngs": [{"label": "display", "lat": 40.84118767, "lng": -73.9398428}], "postalCode": "10032", "cc": "US", "city": "New York", "state": "NY", "country": "United States", "formattedAddress": ["4001 Broadway (at W 168th St)", "New York, NY 10032", "United States"]}, "categories": [{"id": "4bf58dd8d48988d1e0931735", "name": "Coffee Shop", "pluralName": "Coffee Shops", "shortName": "Coffee Shop", "icon": {"prefix": "https://ss3.4sqi.net/img/categories_v2/food/coffeeshop_", "suffix": ".png"}, "primary": true}], "photos": {"count": 0, "groups": []}}, "flags": {"outsideRadius": true}, "referralId": "e-0-4b25a38bf964a520dc7424e3-36"}, {"reasons": {"count": 0, "items": [{"summary": "This spot is popular", "type": "general", "reasonName": "globalInteractionReason"}]}, "venue": {"id": "4e7ba557dab43826d2a85f72", "name": "Starbucks", "location": {"address": "4513 Manhattan College Pkwy", "crossStreet": "at Cafe 1853", "lat": 40.890105, "lng": -73.900758, "labeledLatLngs": [{"label": "display", "lat": 40.890105, "lng": -73.900758}], "postalCode": "10471", "cc": "US", "city": "Bronx", "state": "NY", "country": "United States", "formattedAddress": ["4513 Manhattan College Pkwy (at Cafe 1853)", "Bronx, NY 10471", "United States"]}, "categories": [{"id": "4bf58dd8d48988d1e0931735", "name": "Coffee Shop", "pluralName": "Coffee Shops", "shortName": "Coffee Shop", "icon": {"prefix": "https://ss3.4sqi.net/img/categories_v2/food/coffeeshop_", "suffix": ".png"}, "primary": true}], "photos": {"count": 0, "groups": []}}, "referralId": "e-0-4e7ba557dab43826d2a85f72-37"}, {"reasons": {"count": 0, "items": [{"summary": "This spot is popular", "type": "general", "reasonName": "globalInteractionReason"}]}, "venue": {"id": "4b2a41ebf964a52095a624e3", "name": "Starbucks", "location": {"address": "1605 Lemoine Ave", "crossStreet": "btwn Whiteman & Hoym St", "lat": 40.849514, "lng": -73.970764, "labeledLatLngs": [{"label": "display", "lat": 40.849514, "lng": -73.970764}], "postalCode": "07024", "cc": "US", "city": "Fort Lee", "state": "NJ", "country": "United States", "formattedAddress": ["1605 Lemoine Ave (btwn Whiteman & Hoym St)", "Fort Lee, NJ 07024", "United States"]}, "categories": [{"id": "4bf58dd8d48988d1e0931735", "name": "Coffee Shop", "pluralName": "Coffee Shops", "shortName": "Coffee Shop", "icon": {"prefix": "https://ss3.4sqi.net/img/categories_v2/food/coffeeshop_", "suffix": ".png"}, "primary": true}], "photos": {"count": 0, "groups": []}}, "flags": {"outsideRadius": true}, "referralId": "e-0-4b2a41ebf964a52095a624e3-38"}, {"reasons": {"count": 0, "items": [{"summary": "This spot is popular", "type": "general", "reasonName": "globalInteractionReason"}]}, "venue": {"id": "4a25743af964a520547e1fe3", "name": "Starbucks", "location": {"address": "301 W 145th St", "crossStreet": "at Bradhurst Ave", "lat": 40.82327035, "lng": -73.94283396, "labeledLatLngs": [{"label": "display", "lat": 40.82327035, "lng": -73.94283396}], "postalCode": "10039", "cc": "US", "city": "New York", "state": "NY", "country": "United States", "formattedAddress": ["301 W 145th St (at Bradhurst Ave)", "New York, NY 10039", "United States"]}, "categories": [{"id": "4bf58dd8d48988d1e0931735", "name": "Coffee Shop", "pluralName": "Coffee Shops", "shortName": "Coffee Shop", "icon": {"prefix": "https://ss3.4sqi.net/img/categories_v2/food/coffeeshop_", "suffix": ".png"}, "primary": true}], "photos": {"count": 0, "groups": []}}, "flags": {"outsideRadius": true}, "referralId": "e-0-4a25743af964a520547e1fe3-39"}, {"reasons": {"count": 0, "items": [{"summary": "This spot is popular", "type": "general", "reasonName": "globalInteractionReason"}]}, "venue": {"id": "4b292e73f964a5207b9a24e3", "name": "Starbucks", "location": {"address": "50 W. 225th Street", "crossStreet": "at Target", "lat": 40.873234, "lng": -73.90873, "labeledLatLngs": [{"label": "display", "lat": 40.873234, "lng": -73.90873}], "postalCode": "10468", "cc": "US", "city": "Bronx", "state": "NY", "country": "United States", "formattedAddress": ["50 W. 225th Street (at Target)", "Bronx, NY 10468", "United States"]}, "categories": [{"id": "4bf58dd8d48988d1e0931735", "name": "Coffee Shop", "pluralName": "Coffee Shops", "shortName": "Coffee Shop", "icon": {"prefix": "https://ss3.4sqi.net/img/categories_v2/food/coffeeshop_", "suffix": ".png"}, "primary": true}], "photos": {"count": 0, "groups": []}}, "referralId": "e-0-4b292e73f964a5207b9a24e3-40"}, {"reasons": {"count": 0, "items": [{"summary": "This spot is popular", "type": "general", "reasonName": "globalInteractionReason"}]}, "venue": {"id": "4a32c7d0f964a520919a1fe3", "name": "Starbucks", "location": {"address": "2195 Frederick Douglas Boulevard", "crossStreet": "at W 118th St", "lat": 40.8058588054395, "lng": -73.95437109714017, "labeledLatLngs": [{"label": "display", "lat": 40.8058588054395, "lng": -73.95437109714017}], "postalCode": "10026", "cc": "US", "city": "New York", "state": "NY", "country": "United States", "formattedAddress": ["2195 Frederick Douglas Boulevard (at W 118th St)", "New York, NY 10026", "United States"]}, "categories": [{"id": "4bf58dd8d48988d1e0931735", "name": "Coffee Shop", "pluralName": "Coffee Shops", "shortName": "Coffee Shop", "icon": {"prefix": "https://ss3.4sqi.net/img/categories_v2/food/coffeeshop_", "suffix": ".png"}, "primary": true}], "photos": {"count": 0, "groups": []}}, "flags": {"outsideRadius": true}, "referralId": "e-0-4a32c7d0f964a520919a1fe3-41"}, {"reasons": {"count": 0, "items": [{"summary": "This spot is popular", "type": "general", "reasonName": "globalInteractionReason"}]}, "venue": {"id": "4bc11683b492d13a8989a560", "name": "Starbucks", "location": {"address": "600 Garden Ave", "crossStreet": "at Target", "lat": 40.900616, "lng": -73.81908, "labeledLatLngs": [{"label": "display", "lat": 40.900616, "lng": -73.81908}], "postalCode": "10550", "cc": "US", "city": "Mount Vernon", "state": "NY", "country": "United States", "formattedAddress": ["600 Garden Ave (at Target)", "Mount Vernon, NY 10550", "United States"]}, "categories": [{"id": "4bf58dd8d48988d1e0931735", "name": "Coffee Shop", "pluralName": "Coffee Shops", "shortName": "Coffee Shop", "icon": {"prefix": "https://ss3.4sqi.net/img/categories_v2/food/coffeeshop_", "suffix": ".png"}, "primary": true}], "photos": {"count": 0, "groups": []}}, "flags": {"outsideRadius": true}, "referralId": "e-0-4bc11683b492d13a8989a560-42"}, {"reasons": {"count": 0, "items": [{"summary": "This spot is popular", "type": "general", "reasonName": "globalInteractionReason"}]}, "venue": {"id": "4ac9784ef964a520f9bf20e3", "name": "Starbucks", "location": {"address": "201 W. 125th Street", "crossStreet": "at Adam Clayton Powell Jr Blvd", "lat": 40.809155492394076, "lng": -73.94851570126119, "labeledLatLngs": [{"label": "display", "lat": 40.809155492394076, "lng": -73.94851570126119}], "postalCode": "10027", "cc": "US", "city": "New York", "state": "NY", "country": "United States", "formattedAddress": ["201 W. 125th Street (at Adam Clayton Powell Jr Blvd)", "New York, NY 10027", "United States"]}, "categories": [{"id": "4bf58dd8d48988d1e0931735", "name": "Coffee Shop", "pluralName": "Coffee Shops", "shortName": "Coffee Shop", "icon": {"prefix": "https://ss3.4sqi.net/img/categories_v2/food/coffeeshop_", "suffix": ".png"}, "primary": true}], "photos": {"count": 0, "groups": []}}, "flags": {"outsideRadius": true}, "referralId": "e-0-4ac9784ef964a520f9bf20e3-43"}, {"reasons": {"count": 0, "items": [{"summary": "This spot is popular", "type": "general", "reasonName": "globalInteractionReason"}]}, "venue": {"id": "54636ccb498ec5113126882f", "name": "Starbucks @ BN Bookstore", "location": {"address": "3954 Broadway", "crossStreet": "Columbia Medical Center", "lat": 40.842929, "lng": -73.942952, "labeledLatLngs": [{"label": "display", "lat": 40.842929, "lng": -73.942952}], "postalCode": "10032", "cc": "US", "city": "New York", "state": "NY", "country": "United States", "formattedAddress": ["3954 Broadway (Columbia Medical Center)", "New York, NY 10032", "United States"]}, "categories": [{"id": "4bf58dd8d48988d1e0931735", "name": "Coffee Shop", "pluralName": "Coffee Shops", "shortName": "Coffee Shop", "icon": {"prefix": "https://ss3.4sqi.net/img/categories_v2/food/coffeeshop_", "suffix": ".png"}, "primary": true}], "photos": {"count": 0, "groups": []}}, "flags": {"outsideRadius": true}, "referralId": "e-0-54636ccb498ec5113126882f-44"}]}]}}