{"meta": {"code": 200, "requestId": "5d1fe7f29df1dc7a949a37f6"}, "response": {"suggestedFilters": {"header": "Tap to show:", "filters": [{"name": "$-$$$$", "key": "price"}, {"name": "Open now", "key": "openNow"}]}, "geocode": {"what": "", "where": "manhattan ny", "center": {"lat": 40.78343, "lng": -73.96625}, "displayString": "Manhattan, NY, United States", "cc": "US", "geometry": {"bounds": {"ne": {"lat": 40.882214, "lng": -73.907}, "sw": {"lat": 40.679548, "lng": -74.047285}}}, "slug": "manhattan-manhattan-new-york-united-states", "longId": "72057594043053707"}, "headerLocation": "Manhattan", "headerFullLocation": "Manhattan", "headerLocationGranularity": "city", "query": "starbucks", "totalResults": 106, "suggestedBounds": {"ne": {"lat": 40.81817676101653, "lng": -73.9444950863892}, "sw": {"lat": 40.749917852332544, "lng": -74.00994318582667}}, "groups": [{"type": "Recommended Places", "name": "recommended", "items": [{"reasons": {"count": 0, "items": [{"summary": "This spot is popular", "type": "general", "reasonName": "globalInteractionReason"}]}, "venue": {"id": "57eeb8e3498e1dd086ebf03f", "name": "Starbucks Reserve", "location": {"address": "1142 Madison Ave", "crossStreet": "84th & 85th St", "lat": 40.77984961470853, "lng": -73.95958442027471, "labeledLatLngs": [{"label": "display", "lat": 40.77984961470853, "lng": -73.95958442027471}], "postalCode": "10028", "cc": "US", "city": "New York", "state": "NY", "country": "United States", "formattedAddress": ["1142 Madison Ave (84th & 85th St)", "New York, NY 10028", "United States"]}, "categories": [{"id": "4bf58dd8d48988d1e0931735", "name": "Coffee Shop", "pluralName": "Coffee Shops", "shortName": "Coffee Shop", "icon": {"prefix": "https://ss3.4sqi.net/img/categories_v2/food/coffeeshop_", "suffix": ".png"}, "primary": true}], "photos": {"count": 0, "groups": []}}, "referralId": "e-0-57eeb8e3498e1dd086ebf03f-0"}, {"reasons": {"count": 0, "items": [{"summary": "This spot is popular", "type": "general", "reasonName": "globalInteractionReason"}]}, "venue": {"id": "4b108b71f964a520887223e3", "name": "Starbucks", "location": {"address": "55-1 Riverwalk Pl", "crossStreet": "at Port Imperial Blvd", "lat": 40.78309227524006, "lng": -74.00696827221587, "labeledLatLngs": [{"label": "display", "lat": 40.78309227524006, "lng": -74.00696827221587}], "postalCode": "07093", "cc": "US", "city": "West New York", "state": "NJ", "country": "United States", "formattedAddress": ["55-1 Riverwalk Pl (at Port Imperial Blvd)", "West New York, NJ 07093", "United States"]}, "categories": [{"id": "4bf58dd8d48988d1e0931735", "name": "Coffee Shop", "pluralName": "Coffee Shops", "shortName": "Coffee Shop", "icon": {"prefix": "https://ss3.4sqi.net/img/categories_v2/food/coffeeshop_", "suffix": ".png"}, "primary": true}], "photos": {"count": 0, "groups": []}}, "flags": {"outsideRadius": true}, "referralId": "e-0-4b108b71f964a520887223e3-1"}, {"reasons": {"count": 0, "items": [{"summary": "This spot is popular", "type": "general", "reasonName": "globalInteractionReason"}]}, "venue": {"id": "4b5f42a1f964a52094b029e3", "name": "Starbucks", "location": {"address": "1585 Broadway", "crossStreet": "at W 47th St", "lat": 40.75956289539102, "lng": -73.98512676844317, "labeledLatLngs": [{"label": "display", "lat": 40.75956289539102, "lng": -73.98512676844317}], "postalCode": "10036", "cc": "US", "city": "New York", "state": "NY", "country": "United States", "formattedAddress": ["1585 Broadway (at W 47th St)", "New York, NY 10036", "United States"]}, "categories": [{"id": "4bf58dd8d48988d1e0931735", "name": "Coffee Shop", "pluralName": "Coffee Shops", "shortName": "Coffee Shop", "icon": {"prefix": "https://ss3.4sqi.net/img/categories_v2/food/coffeeshop_", "suffix": ".png"}, "primary": true}], "photos": {"count": 0, "groups": []}}, "referralId": "e-0-4b5f42a1f964a52094b029e3-2"}, {"reasons": {"count": 0, "items": [{"summary": "This spot is popular", "type": "general", "reasonName": "globalInteractionReason"}]}, "venue": {"id": "57fd457a498e39cd34012586", "name": "Starbucks", "location": {"address": "245 E 93rd St", "crossStreet": "at 2nd Ave", "lat": 40.78271518758087, "lng": -73.94816913233733, "labeledLatLngs": [{"label": "display", "lat": 40.78271518758087, "lng": -73.94816913233733}], "postalCode": "10128", "cc": "US", "city": "New York", "state": "NY", "country": "United States", "formattedAddress": ["245 E 93rd St (at 2nd Ave)", "New York, NY 10128", "United States"]}, "categories": [{"id": "4bf58dd8d48988d1e0931735", "name": "Coffee Shop", "pluralName": "Coffee Shops", "shortName": "Coffee Shop", "icon": {"prefix": "https://ss3.4sqi.net/img/categories_v2/food/coffeeshop_", "suffix": ".png"}, "primary": true}], "photos": {"count": 0, "groups": []}}, "referralId": "e-0-57fd457a498e39cd34012586-3"}, {"reasons": {"count": 0, "items": [{"summary": "This spot is popular", "type": "general", "reasonName": "globalInteractionReason"}]}, "venue": {"id": "4fdc9a79e4b0735a6deafc25", "name": "Starbucks", "location": {"address": "805 Columbus Ave", "crossStreet": "at W 100th St", "lat": 40.79536902, "lng": -73.96558901, "labeledLatLngs": [{"label": "display", "lat": 40.79536902, "lng": -73.96558901}], "postalCode": "10025", "cc": "US", "city": "New York", "state": "NY", "country": "United States", "formattedAddress": ["805 Columbus Ave (at W 100th St)", "New York, NY 10025", "United States"]}, "categories": [{"id": "4bf58dd8d48988d1e0931735", "name": "Coffee Shop", "pluralName": "Coffee Shops", "shortName": "Coffee Shop", "icon": {"prefix": "https://ss3.4sqi.net/img/categories_v2/food/coffeeshop_", "suffix": ".png"}, "primary": true}], "photos": {"count": 0, "groups": []}}, "referralId": "e-0-4fdc9a79e4b0735a6deafc25-4"}, {"reasons": {"count": 0, "items": [{"summary": "This spot is popular", "type": "general", "reasonName": "globalInteractionReason"}]}, "venue": {"id": "5506d5e4498e2f599c7a3a82", "name": "Starbucks", "location": {"address": "475 West 57th st", "crossStreet": "at 10th Ave", "lat": 40.769371183187374, "lng": -73.98836833368998, "labeledLatLngs": [{"label": "display", "lat": 40.769371183187374, "lng": -73.98836833368998}], "postalCode": "10019", "cc": "US", "city": "New York", "state": "NY", "country": "United States", "formattedAddress": ["475 West 57th st (at 10th Ave)", "New York, NY 10019", "United States"]}, "categories": [{"id": "4bf58dd8d48988d1e0931735", "name": "Coffee Shop", "pluralName": "Coffee Shops", "shortName": "Coffee Shop", "icon": {"prefix": "https://ss3.4sqi.net/img/categories_v2/food/coffeeshop_", "suffix": ".png"}, "primary": true}], "photos": {"count": 0, "groups": []}}, "referralId": "e-0-5506d5e4498e2f599c7a3a82-5"}, {"reasons": {"count": 0, "items": [{"summary": "This spot is popular", "type": "general", "reasonName": "globalInteractionReason"}]}, "venue": {"id": "52869069498e3289da675012", "name": "Starbucks", "location": {"address": "1700 Broadway", "crossStreet": "at W 54th St", "lat": 40.76399216, "lng": -73.98258137, "labeledLatLngs": [{"label": "display", "lat": 40.76399216, "lng": -73.98258137}], "postalCode": "10019", "cc": "US", "city": "New York", "state": "NY", "country": "United States", "formattedAddress": ["1700 Broadway (at W 54th St)", "New York, NY 10019", "United States"]}, "categories": [{"id": "4bf58dd8d48988d1e0931735", "name": "Coffee Shop", "pluralName": "Coffee Shops", "shortName": "Coffee Shop", "icon": {"prefix": "https://ss3.4sqi.net/img/categories_v2/food/coffeeshop_", "suffix": ".png"}, "primary": true}], "photos": {"count": 0, "groups": []}}, "referralId": "e-0-52869069498e3289da675012-6"}, {"reasons": {"count": 0, "items": [{"summary": "This spot is popular", "type": "general", "reasonName": "globalInteractionReason"}]}, "venue": {"id": "4ad60ec2f964a520dd0421e3", "name": "Starbucks", "location": {"address": "2690 Broadway", "lat": 40.79888, "lng": -73.96837, "labeledLatLngs": [{"label": "display", "lat": 40.79888, "lng": -73.96837}], "postalCode": "10025", "cc": "US", "city": "New York", "state": "NY", "country": "United States", "formattedAddress": ["2690 Broadway", "New York, NY 10025", "United States"]}, "categories": [{"id": "4bf58dd8d48988d1e0931735", "name": "Coffee Shop", "pluralName": "Coffee Shops", "shortName": "Coffee Shop", "icon": {"prefix": "https://ss3.4sqi.net/img/categories_v2/food/coffeeshop_", "suffix": ".png"}, "primary": true}], "photos": {"count": 0, "groups": []}}, "referralId": "e-0-4ad60ec2f964a520dd0421e3-7"}, {"reasons": {"count": 0, "items": [{"summary": "This spot is popular", "type": "general", "reasonName": "globalInteractionReason"}]}, "venue": {"id": "4b4bc134f964a52093a626e3", "name": "Starbucks", "location": {"address": "750 Seventh Ave", "crossStreet": "at W 49th St", "lat": 40.76056698741214, "lng": -73.98380932982371, "labeledLatLngs": [{"label": "display", "lat": 40.76056698741214, "lng": -73.98380932982371}], "postalCode": "10019", "cc": "US", "city": "New York", "state": "NY", "country": "United States", "formattedAddress": ["750 Seventh Ave (at W 49th St)", "New York, NY 10019", "United States"]}, "categories": [{"id": "4bf58dd8d48988d1e0931735", "name": "Coffee Shop", "pluralName": "Coffee Shops", "shortName": "Coffee Shop", "icon": {"prefix": "https://ss3.4sqi.net/img/categories_v2/food/coffeeshop_", "suffix": ".png"}, "primary": true}], "photos": {"count": 0, "groups": []}}, "referralId": "e-0-4b4bc134f964a52093a626e3-8"}, {"reasons": {"count": 0, "items": [{"summary": "This spot is popular", "type": "general", "reasonName": "globalInteractionReason"}]}, "venue": {"id": "4adcb8a5f964a520102f21e3", "name": "Starbucks", "location": {"address": "655 Lexington Avenue", "lat": 40.75951611, "lng": -73.97001621, "labeledLatLngs": [{"label": "display", "lat": 40.75951611, "lng": -73.97001621}], "postalCode": "10022", "cc": "US", "city": "New York", "state": "NY", "country": "United States", "formattedAddress": ["655 Lexington Avenue", "New York, NY 10022", "United States"]}, "categories": [{"id": "4bf58dd8d48988d1e0931735", "name": "Coffee Shop", "pluralName": "Coffee Shops", "shortName": "Coffee Shop", "icon": {"prefix": "https://ss3.4sqi.net/img/categories_v2/food/coffeeshop_", "suffix": ".png"}, "primary": true}], "photos": {"count": 0, "groups": []}}, "referralId": "e-0-4adcb8a5f964a520102f21e3-9"}, {"reasons": {"count": 0, "items": [{"summary": "This spot is popular", "type": "general", "reasonName": "globalInteractionReason"}]}, "venue": {"id": "4a5e9b4af964a520e4be1fe3", "name": "Starbucks", "location": {"address": "1657 Broadway", "crossStreet": "at W 51st St", "lat": 40.762110813414644, "lng": -73.98363055436157, "labeledLatLngs": [{"label": "display", "lat": 40.762110813414644, "lng": -73.98363055436157}], "postalCode": "10019", "cc": "US", "city": "New York", "state": "NY", "country": "United States", "formattedAddress": ["1657 Broadway (at W 51st St)", "New York, NY 10019", "United States"]}, "categories": [{"id": "4bf58dd8d48988d1e0931735", "name": "Coffee Shop", "pluralName": "Coffee Shops", "shortName": "Coffee Shop", "icon": {"prefix": "https://ss3.4sqi.net/img/categories_v2/food/coffeeshop_", "suffix": ".png"}, "primary": true}], "photos": {"count": 0, "groups": []}}, "referralId": "e-0-4a5e9b4af964a520e4be1fe3-10"}, {"reasons": {"count": 0, "items": [{"summary": "This spot is popular", "type": "general", "reasonName": "globalInteractionReason"}]}, "venue": {"id": "4ad74ddcf964a520560921e3", "name": "Starbucks", "location": {"address": "871 8th Ave", "crossStreet": "at W 52nd St", "lat": 40.76372, "lng": -73.98531, "labeledLatLngs": [{"label": "display", "lat": 40.76372, "lng": -73.98531}], "postalCode": "10019", "cc": "US", "city": "New York", "state": "NY", "country": "United States", "formattedAddress": ["871 8th Ave (at W 52nd St)", "New York, NY 10019", "United States"]}, "categories": [{"id": "4bf58dd8d48988d1e0931735", "name": "Coffee Shop", "pluralName": "Coffee Shops", "shortName": "Coffee Shop", "icon": {"prefix": "https://ss3.4sqi.net/img/categories_v2/food/coffeeshop_", "suffix": ".png"}, "primary": true}], "photos": {"count": 0, "groups": []}}, "referralId": "e-0-4ad74ddcf964a520560921e3-11"}, {"reasons": {"count": 0, "items": [{"summary": "This spot is popular", "type": "general", "reasonName": "globalInteractionReason"}]}, "venue": {"id": "5734fe49cd10c4111144742c", "name": "Starbucks", "location": {"address": "1077 3rd Avenue", "crossStreet": "at E 63rd St", "lat": 40.764206, "lng": -73.96428, "labeledLatLngs": [{"label": "display", "lat": 40.764206, "lng": -73.96428}], "postalCode": "10065", "cc": "US", "city": "New York", "state": "NY", "country": "United States", "formattedAddress": ["1077 3rd Avenue (at E 63rd St)", "New York, NY 10065", "United States"]}, "categories": [{"id": "4bf58dd8d48988d1e0931735", "name": "Coffee Shop", "pluralName": "Coffee Shops", "shortName": "Coffee Shop", "icon": {"prefix": "https://ss3.4sqi.net/img/categories_v2/food/coffeeshop_", "suffix": ".png"}, "primary": true}], "photos": {"count": 0, "groups": []}}, "referralId": "e-0-5734fe49cd10c4111144742c-12"}, {"reasons": {"count": 0, "items": [{"summary": "This spot is popular", "type": "general", "reasonName": "globalInteractionReason"}]}, "venue": {"id": "50603d8b498efd4a9c3e4cea", "name": "Starbucks", "location": {"address": "600 Madison Ave", "crossStreet": "at E 58th St", "lat": 40.76307676, "lng": -73.97228402, "labeledLatLngs": [{"label": "display", "lat": 40.76307676, "lng": -73.97228402}], "postalCode": "10022", "cc": "US", "city": "New York", "state": "NY", "country": "United States", "formattedAddress": ["600 Madison Ave (at E 58th St)", "New York, NY 10022", "United States"]}, "categories": [{"id": "4bf58dd8d48988d1e0931735", "name": "Coffee Shop", "pluralName": "Coffee Shops", "shortName": "Coffee Shop", "icon": {"prefix": "https://ss3.4sqi.net/img/categories_v2/food/coffeeshop_", "suffix": ".png"}, "primary": true}], "photos": {"count": 0, "groups": []}}, "referralId": "e-0-50603d8b498efd4a9c3e4cea-13"}, {"reasons": {"count": 0, "items": [{"summary": "This spot is popular", "type": "general", "reasonName": "globalInteractionReason"}]}, "venue": {"id": "5330323b498e2836f173cf9e", "name": "Starbucks", "location": {"address": "1542 Third Avenue", "crossStreet": "at E 87th", "lat": 40.77954606415327, "lng": -73.95355245328552, "labeledLatLngs": [{"label": "display", "lat": 40.77954606415327, "lng": -73.95355245328552}], "postalCode": "10028", "cc": "US", "city": "New York", "state": "NY", "country": "United States", "formattedAddress": ["1542 Third Avenue (at E 87th)", "New York, NY 10028", "United States"]}, "categories": [{"id": "4bf58dd8d48988d1e0931735", "name": "Coffee Shop", "pluralName": "Coffee Shops", "shortName": "Coffee Shop", "icon": {"prefix": "https://ss3.4sqi.net/img/categories_v2/food/coffeeshop_", "suffix": ".png"}, "primary": true}], "photos": {"count": 0, "groups": []}}, "referralId": "e-0-5330323b498e2836f173cf9e-14"}, {"reasons": {"count": 0, "items": [{"summary": "This spot is popular", "type": "general", "reasonName": "globalInteractionReason"}]}, "venue": {"id": "4b69efa9f964a52014bd2be3", "name": "Starbucks", "location": {"address": "1515 York Ave", "crossStreet": "at E 80th St", "lat": 40.772356, "lng": -73.949984, "labeledLatLngs": [{"label": "display", "lat": 40.772356, "lng": -73.949984}], "postalCode": "10028", "cc": "US", "city": "New York", "state": "NY", "country": "United States", "formattedAddress": ["1515 York Ave (at E 80th St)", "New York, NY 10028", "United States"]}, "categories": [{"id": "4bf58dd8d48988d1e0931735", "name": "Coffee Shop", "pluralName": "Coffee Shops", "shortName": "Coffee Shop", "icon": {"prefix": "https://ss3.4sqi.net/img/categories_v2/food/coffeeshop_", "suffix": ".png"}, "primary": true}], "photos": {"count": 0, "groups": []}}, "referralId": "e-0-4b69efa9f964a52014bd2be3-15"}, {"reasons": {"count": 0, "items": [{"summary": "This spot is popular", "type": "general", "reasonName": "globalInteractionReason"}]}, "venue": {"id": "4af73d00f964a520830722e3", "name": "Starbucks", "location": {"address": "870 7th Ave", "crossStreet": "at W 55th St", "lat": 40.764385, "lng": -73.98108, "labeledLatLngs": [{"label": "display", "lat": 40.764385, "lng": -73.98108}], "postalCode": "10019", "cc": "US", "city": "New York", "state": "NY", "country": "United States", "formattedAddress": ["870 7th Ave (at W 55th St)", "New York, NY 10019", "United States"]}, "categories": [{"id": "4bf58dd8d48988d1e0931735", "name": "Coffee Shop", "pluralName": "Coffee Shops", "shortName": "Coffee Shop", "icon": {"prefix": "https://ss3.4sqi.net/img/categories_v2/food/coffeeshop_", "suffix": ".png"}, "primary": true}], "photos": {"count": 0, "groups": []}}, "referralId": "e-0-4af73d00f964a520830722e3-16"}, {"reasons": {"count": 0, "items": [{"summary": "This spot is popular", "type": "general", "reasonName": "globalInteractionReason"}]}, "venue": {"id": "5286906a498e3289da676fe7", "name": "Starbucks", "location": {"address": "515 Madison Ave", "crossStreet": "at E 53rd St", "lat": 40.75992585, "lng": -73.97402063, "labeledLatLngs": [{"label": "display", "lat": 40.75992585, "lng": -73.97402063}], "postalCode": "10022", "cc": "US", "city": "New York", "state": "NY", "country": "United States", "formattedAddress": ["515 Madison Ave (at E 53rd St)", "New York, NY 10022", "United States"]}, "categories": [{"id": "4bf58dd8d48988d1e0931735", "name": "Coffee Shop", "pluralName": "Coffee Shops", "shortName": "Coffee Shop", "icon": {"prefix": "https://ss3.4sqi.net/img/categories_v2/food/coffeeshop_", "suffix": ".png"}, "primary": true}], "photos": {"count": 0, "groups": []}}, "referralId": "e-0-5286906a498e3289da676fe7-17"}, {"reasons": {"count": 0, "items": [{"summary": "This spot is popular", "type": "general", "reasonName": "globalInteractionReason"}]}, "venue": {"id": "4ad13d14f964a520a3dd20e3", "name": "Starbucks", "location": {"address": "1102 1st Ave", "crossStreet": "at E 60th St", "lat": 40.76046811346453, "lng": -73.96127280120055, "labeledLatLngs": [{"label": "display", "lat": 40.76046811346453, "lng": -73.96127280120055}], "postalCode": "10065", "cc": "US", "city": "New York", "state": "NY", "country": "United States", "formattedAddress": ["1102 1st Ave (at E 60th St)", "New York, NY 10065", "United States"]}, "categories": [{"id": "4bf58dd8d48988d1e0931735", "name": "Coffee Shop", "pluralName": "Coffee Shops", "shortName": "Coffee Shop", "icon": {"prefix": "https://ss3.4sqi.net/img/categories_v2/food/coffeeshop_", "suffix": ".png"}, "primary": true}], "photos": {"count": 0, "groups": []}}, "referralId": "e-0-4ad13d14f964a520a3dd20e3-18"}, {"reasons": {"count": 0, "items": [{"summary": "This spot is popular", "type": "general", "reasonName": "globalInteractionReason"}]}, "venue": {"id": "553e6b65498e35c71881c905", "name": "Starbucks", "location": {"address": "875 3rd Ave", "crossStreet": "at E 53rd St", "lat": 40.75765063202952, "lng": -73.96921981020988, "labeledLatLngs": [{"label": "display", "lat": 40.75765063202952, "lng": -73.96921981020988}], "postalCode": "10022", "cc": "US", "city": "New York", "state": "NY", "country": "United States", "formattedAddress": ["875 3rd Ave (at E 53rd St)", "New York, NY 10022", "United States"]}, "categories": [{"id": "4bf58dd8d48988d1e0931735", "name": "Coffee Shop", "pluralName": "Coffee Shops", "shortName": "Coffee Shop", "icon": {"prefix": "https://ss3.4sqi.net/img/categories_v2/food/coffeeshop_", "suffix": ".png"}, "primary": true}], "photos": {"count": 0, "groups": []}}, "referralId": "e-0-553e6b65498e35c71881c905-19"}, {"reasons": {"count": 0, "items": [{"summary": "This spot is popular", "type": "general", "reasonName": "globalInteractionReason"}]}, "venue": {"id": "5830736b65be58789ae4207b", "name": "Starbucks", "location": {"address": "969 1st Ave", "crossStreet": "at E 53rd St", "lat": 40.755965632588385, "lng": -73.96457294699849, "labeledLatLngs": [{"label": "display", "lat": 40.755965632588385, "lng": -73.96457294699849}], "postalCode": "10022", "cc": "US", "city": "New York", "state": "NY", "country": "United States", "formattedAddress": ["969 1st Ave (at E 53rd St)", "New York, NY 10022", "United States"]}, "categories": [{"id": "4bf58dd8d48988d1e0931735", "name": "Coffee Shop", "pluralName": "Coffee Shops", "shortName": "Coffee Shop", "icon": {"prefix": "https://ss3.4sqi.net/img/categories_v2/food/coffeeshop_", "suffix": ".png"}, "primary": true}], "photos": {"count": 0, "groups": []}}, "referralId": "e-0-5830736b65be58789ae4207b-20"}, {"reasons": {"count": 0, "items": [{"summary": "This spot is popular", "type": "general", "reasonName": "globalInteractionReason"}]}, "venue": {"id": "58c8c7ca9900e624af24a199", "name": "Starbucks", "location": {"address": "28 W 48th St", "crossStreet": "btwen 5th & 6th Ave", "lat": 40.75814852475969, "lng": -73.97941981951507, "labeledLatLngs": [{"label": "display", "lat": 40.75814852475969, "lng": -73.97941981951507}], "postalCode": "10036", "cc": "US", "city": "New York", "state": "NY", "country": "United States", "formattedAddress": ["28 W 48th St (btwen 5th & 6th Ave)", "New York, NY 10036", "United States"]}, "categories": [{"id": "4bf58dd8d48988d1e0931735", "name": "Coffee Shop", "pluralName": "Coffee Shops", "shortName": "Coffee Shop", "icon": {"prefix": "https://ss3.4sqi.net/img/categories_v2/food/coffeeshop_", "suffix": ".png"}, "primary": true}], "photos": {"count": 0, "groups": []}}, "referralId": "e-0-58c8c7ca9900e624af24a199-21"}, {"reasons": {"count": 0, "items": [{"summary": "This spot is popular", "type": "general", "reasonName": "globalInteractionReason"}]}, "venue": {"id": "506aeec9e4b0ab9925e4ff1f", "name": "Starbucks", "location": {"address": "1301 Avenue of the Americas", "crossStreet": "at W 53rd St", "lat": 40.761845, "lng": -73.9787, "labeledLatLngs": [{"label": "display", "lat": 40.761845, "lng": -73.9787}], "postalCode": "10019", "cc": "US", "city": "New York", "state": "NY", "country": "United States", "formattedAddress": ["1301 Avenue of the Americas (at W 53rd St)", "New York, NY 10019", "United States"]}, "categories": [{"id": "4bf58dd8d48988d1e0931735", "name": "Coffee Shop", "pluralName": "Coffee Shops", "shortName": "Coffee Shop", "icon": {"prefix": "https://ss3.4sqi.net/img/categories_v2/food/coffeeshop_", "suffix": ".png"}, "primary": true}], "photos": {"count": 0, "groups": []}}, "referralId": "e-0-506aeec9e4b0ab9925e4ff1f-22"}, {"reasons": {"count": 0, "items": [{"summary": "This spot is popular", "type": "general", "reasonName": "globalInteractionReason"}]}, "venue": {"id": "4abb899bf964a520f18320e3", "name": "Starbucks", "location": {"address": "1889 Broadway", "crossStreet": "at W 63rd St", "lat": 40.77139241, "lng": -73.9824237, "labeledLatLngs": [{"label": "display", "lat": 40.77139241, "lng": -73.9824237}], "postalCode": "10023", "cc": "US", "city": "New York", "state": "NY", "country": "United States", "formattedAddress": ["1889 Broadway (at W 63rd St)", "New York, NY 10023", "United States"]}, "categories": [{"id": "4bf58dd8d48988d1e0931735", "name": "Coffee Shop", "pluralName": "Coffee Shops", "shortName": "Coffee Shop", "icon": {"prefix": "https://ss3.4sqi.net/img/categories_v2/food/coffeeshop_", "suffix": ".png"}, "primary": true}], "photos": {"count": 0, "groups": []}}, "referralId": "e-0-4abb899bf964a520f18320e3-23"}, {"reasons": {"count": 0, "items": [{"summary": "This spot is popular", "type": "general", "reasonName": "globalInteractionReason"}]}, "venue": {"id": "5cb61f46a4b51b002cb99bbe", "name": "Starbucks", "location": {"address": "277 Park, 17th Floor", "lat": 40.755613, "lng": -73.974741, "labeledLatLngs": [{"label": "display", "lat": 40.755613, "lng": -73.974741}], "postalCode": "10017", "cc": "US", "city": "New York", "state": "NY", "country": "United States", "formattedAddress": ["277 Park, 17th Floor", "New York, NY 10017", "United States"]}, "categories": [{"id": "4bf58dd8d48988d1e0931735", "name": "Coffee Shop", "pluralName": "Coffee Shops", "shortName": "Coffee Shop", "icon": {"prefix": "https://ss3.4sqi.net/img/categories_v2/food/coffeeshop_", "suffix": ".png"}, "primary": true}], "photos": {"count": 0, "groups": []}}, "referralId": "e-0-5cb61f46a4b51b002cb99bbe-24"}, {"reasons": {"count": 0, "items": [{"summary": "This spot is popular", "type": "general", "reasonName": "globalInteractionReason"}]}, "venue": {"id": "533591cc498e05d94121a375", "name": "Starbucks", "location": {"address": "1841 Broadway", "crossStreet": "at W 60th St", "lat": 40.76903742905819, "lng": -73.98224888995318, "labeledLatLngs": [{"label": "display", "lat": 40.76903742905819, "lng": -73.98224888995318}], "postalCode": "10023", "cc": "US", "city": "New York", "state": "NY", "country": "United States", "formattedAddress": ["1841 Broadway (at W 60th St)", "New York, NY 10023", "United States"]}, "categories": [{"id": "4bf58dd8d48988d1e0931735", "name": "Coffee Shop", "pluralName": "Coffee Shops", "shortName": "Coffee Shop", "icon": {"prefix": "https://ss3.4sqi.net/img/categories_v2/food/coffeeshop_", "suffix": ".png"}, "primary": true}], "photos": {"count": 0, "groups": []}}, "referralId": "e-0-533591cc498e05d94121a375-25"}, {"reasons": {"count": 0, "items": [{"summary": "This spot is popular", "type": "general", "reasonName": "globalInteractionReason"}]}, "venue": {"id": "57fd4579498e7ebff233ef5a", "name": "Starbucks", "location": {"address": "1142 Madison Ave", "crossStreet": "at E 85th St", "lat": 40.780136, "lng": -73.959564, "labeledLatLngs": [{"label": "display", "lat": 40.780136, "lng": -73.959564}], "postalCode": "10028", "cc": "US", "city": "New York", "state": "NY", "country": "United States", "formattedAddress": ["1142 Madison Ave (at E 85th St)", "New York, NY 10028", "United States"]}, "categories": [{"id": "4bf58dd8d48988d1e0931735", "name": "Coffee Shop", "pluralName": "Coffee Shops", "shortName": "Coffee Shop", "icon": {"prefix": "https://ss3.4sqi.net/img/categories_v2/food/coffeeshop_", "suffix": ".png"}, "primary": true}], "photos": {"count": 0, "groups": []}}, "referralId": "e-0-57fd4579498e7ebff233ef5a-26"}, {"reasons": {"count": 0, "items": [{"summary": "This spot is popular", "type": "general", "reasonName": "globalInteractionReason"}]}, "venue": {"id": "4aeee664f964a52096d421e3", "name": "Starbucks", "location": {"address": "560 Lexington Ave", "crossStreet": "at E 50th St", "lat": 40.75683354, "lng": -73.97264878, "labeledLatLngs": [{"label": "display", "lat": 40.75683354, "lng": -73.97264878}], "postalCode": "10022", "cc": "US", "city": "New York", "state": "NY", "country": "United States", "formattedAddress": ["560 Lexington Ave (at E 50th St)", "New York, NY 10022", "United States"]}, "categories": [{"id": "4bf58dd8d48988d1e0931735", "name": "Coffee Shop", "pluralName": "Coffee Shops", "shortName": "Coffee Shop", "icon": {"prefix": "https://ss3.4sqi.net/img/categories_v2/food/coffeeshop_", "suffix": ".png"}, "primary": true}], "photos": {"count": 0, "groups": []}}, "referralId": "e-0-4aeee664f964a52096d421e3-27"}, {"reasons": {"count": 0, "items": [{"summary": "This spot is popular", "type": "general", "reasonName": "globalInteractionReason"}]}, "venue": {"id": "5c01826e60d11b002c912004", "name": "Starbucks", "location": {"address": "1091 Lexington Ave", "crossStreet": "at E 77th St", "lat": 40.77354345900875, "lng": -73.95983582452727, "labeledLatLngs": [{"label": "display", "lat": 40.77354345900875, "lng": -73.95983582452727}], "postalCode": "10075", "cc": "US", "neighborhood": "Upper East Side", "city": "New York", "state": "NY", "country": "United States", "formattedAddress": ["1091 Lexington Ave (at E 77th St)", "New York, NY 10075", "United States"]}, "categories": [{"id": "4bf58dd8d48988d1e0931735", "name": "Coffee Shop", "pluralName": "Coffee Shops", "shortName": "Coffee Shop", "icon": {"prefix": "https://ss3.4sqi.net/img/categories_v2/food/coffeeshop_", "suffix": ".png"}, "primary": true}], "photos": {"count": 0, "groups": []}}, "referralId": "e-0-5c01826e60d11b002c912004-28"}, {"reasons": {"count": 0, "items": [{"summary": "This spot is popular", "type": "general", "reasonName": "globalInteractionReason"}]}, "venue": {"id": "4b38d401f964a520d65025e3", "name": "Starbucks", "location": {"address": "770 Eighth Ave", "lat": 40.760445, "lng": -73.98719, "labeledLatLngs": [{"label": "display", "lat": 40.760445, "lng": -73.98719}], "postalCode": "10036", "cc": "US", "city": "New York", "state": "NY", "country": "United States", "formattedAddress": ["770 Eighth Ave", "New York, NY 10036", "United States"]}, "categories": [{"id": "4bf58dd8d48988d1e0931735", "name": "Coffee Shop", "pluralName": "Coffee Shops", "shortName": "Coffee Shop", "icon": {"prefix": "https://ss3.4sqi.net/img/categories_v2/food/coffeeshop_", "suffix": ".png"}, "primary": true}], "photos": {"count": 0, "groups": []}}, "referralId": "e-0-4b38d401f964a520d65025e3-29"}, {"reasons": {"count": 0, "items": [{"summary": "This spot is popular", "type": "general", "reasonName": "globalInteractionReason"}]}, "venue": {"id": "5730c669498e0122d74dff46", "name": "Starbucks", "location": {"address": "1000 S Eighth Ave", "crossStreet": "at Central Park W", "lat": 40.768542548224715, "lng": -73.98178138499603, "labeledLatLngs": [{"label": "display", "lat": 40.768542548224715, "lng": -73.98178138499603}], "postalCode": "10019", "cc": "US", "city": "New York", "state": "NY", "country": "United States", "formattedAddress": ["1000 S Eighth Ave (at Central Park W)", "New York, NY 10019", "United States"]}, "categories": [{"id": "4bf58dd8d48988d1e0931735", "name": "Coffee Shop", "pluralName": "Coffee Shops", "shortName": "Coffee Shop", "icon": {"prefix": "https://ss3.4sqi.net/img/categories_v2/food/coffeeshop_", "suffix": ".png"}, "primary": true}], "photos": {"count": 0, "groups": []}}, "referralId": "e-0-5730c669498e0122d74dff46-30"}, {"reasons": {"count": 0, "items": [{"summary": "This spot is popular", "type": "general", "reasonName": "globalInteractionReason"}]}, "venue": {"id": "4b5623a2f964a5202f0228e3", "name": "Starbucks", "location": {"address": "1411 Avenue of the Americas", "crossStreet": "at W 58th St", "lat": 40.76485, "lng": -73.977132, "labeledLatLngs": [{"label": "display", "lat": 40.76485, "lng": -73.977132}], "postalCode": "10019", "cc": "US", "neighborhood": "Midtown", "city": "New York", "state": "NY", "country": "United States", "formattedAddress": ["1411 Avenue of the Americas (at W 58th St)", "New York, NY 10019", "United States"]}, "categories": [{"id": "4bf58dd8d48988d1e0931735", "name": "Coffee Shop", "pluralName": "Coffee Shops", "shortName": "Coffee Shop", "icon": {"prefix": "https://ss3.4sqi.net/img/categories_v2/food/coffeeshop_", "suffix": ".png"}, "primary": true}], "photos": {"count": 0, "groups": []}}, "referralId": "e-0-4b5623a2f964a5202f0228e3-31"}, {"reasons": {"count": 0, "items": [{"summary": "This spot is popular", "type": "general", "reasonName": "globalInteractionReason"}]}, "venue": {"id": "4aad2610f964a520ba5e20e3", "name": "Starbucks", "location": {"address": "2394 Broadway", "crossStreet": "at W 88th St", "lat": 40.789288, "lng": -73.97533, "labeledLatLngs": [{"label": "display", "lat": 40.789288, "lng": -73.97533}], "postalCode": "10024", "cc": "US", "city": "New York", "state": "NY", "country": "United States", "formattedAddress": ["2394 Broadway (at W 88th St)", "New York, NY 10024", "United States"]}, "categories": [{"id": "4bf58dd8d48988d1e0931735", "name": "Coffee Shop", "pluralName": "Coffee Shops", "shortName": "Coffee Shop", "icon": {"prefix": "https://ss3.4sqi.net/img/categories_v2/food/coffeeshop_", "suffix": ".png"}, "primary": true}], "photos": {"count": 0, "groups": []}}, "referralId": "e-0-4aad2610f964a520ba5e20e3-32"}, {"reasons": {"count": 0, "items": [{"summary": "This spot is popular", "type": "general", "reasonName": "globalInteractionReason"}]}, "venue": {"id": "4b2410d2f964a5204b6024e3", "name": "Starbucks", "location": {"address": "156 W 52nd St", "crossStreet": "at 7th Ave", "lat": 40.76193824, "lng": -73.98191645, "labeledLatLngs": [{"label": "display", "lat": 40.76193824, "lng": -73.98191645}], "postalCode": "10019", "cc": "US", "city": "New York", "state": "NY", "country": "United States", "formattedAddress": ["156 W 52nd St (at 7th Ave)", "New York, NY 10019", "United States"]}, "categories": [{"id": "4bf58dd8d48988d1e0931735", "name": "Coffee Shop", "pluralName": "Coffee Shops", "shortName": "Coffee Shop", "icon": {"prefix": "https://ss3.4sqi.net/img/categories_v2/food/coffeeshop_", "suffix": ".png"}, "primary": true}], "photos": {"count": 0, "groups": []}}, "referralId": "e-0-4b2410d2f964a5204b6024e3-33"}, {"reasons": {"count": 0, "items": [{"summary": "This spot is popular", "type": "general", "reasonName": "globalInteractionReason"}]}, "venue": {"id": "56e0826e498eae4656a1d3c2", "name": "starbucks in uniqlo (Starbucks)", "location": {"address": "666 Fifth Avenue", "crossStreet": "53rd Street", "lat": 40.76060249450284, "lng": -73.97646651001223, "labeledLatLngs": [{"label": "display", "lat": 40.76060249450284, "lng": -73.97646651001223}], "postalCode": "10103", "cc": "US", "city": "New York", "state": "NY", "country": "United States", "formattedAddress": ["666 Fifth Avenue (53rd Street)", "New York, NY 10103", "United States"]}, "categories": [{"id": "4bf58dd8d48988d1e0931735", "name": "Coffee Shop", "pluralName": "Coffee Shops", "shortName": "Coffee Shop", "icon": {"prefix": "https://ss3.4sqi.net/img/categories_v2/food/coffeeshop_", "suffix": ".png"}, "primary": true}], "photos": {"count": 0, "groups": []}}, "referralId": "e-0-56e0826e498eae4656a1d3c2-34"}, {"reasons": {"count": 0, "items": [{"summary": "This spot is popular", "type": "general", "reasonName": "globalInteractionReason"}]}, "venue": {"id": "4ac2521ff964a520b29820e3", "name": "Starbucks", "location": {"address": "2140 Broadway", "crossStreet": "at W 75th St", "lat": 40.7810038, "lng": -73.98112633, "labeledLatLngs": [{"label": "display", "lat": 40.7810038, "lng": -73.98112633}], "postalCode": "10023", "cc": "US", "city": "New York", "state": "NY", "country": "United States", "formattedAddress": ["2140 Broadway (at W 75th St)", "New York, NY 10023", "United States"]}, "categories": [{"id": "4bf58dd8d48988d1e0931735", "name": "Coffee Shop", "pluralName": "Coffee Shops", "shortName": "Coffee Shop", "icon": {"prefix": "https://ss3.4sqi.net/img/categories_v2/food/coffeeshop_", "suffix": ".png"}, "primary": true}], "photos": {"count": 0, "groups": []}}, "referralId": "e-0-4ac2521ff964a520b29820e3-35"}, {"reasons": {"count": 0, "items": [{"summary": "This spot is popular", "type": "general", "reasonName": "globalInteractionReason"}]}, "venue": {"id": "4a819c70f964a52006f71fe3", "name": "Starbucks", "location": {"address": "400 E 90th St", "crossStreet": "at 1st Ave", "lat": 40.779118, "lng": -73.94747, "labeledLatLngs": [{"label": "display", "lat": 40.779118, "lng": -73.94747}], "postalCode": "10128", "cc": "US", "city": "New York", "state": "NY", "country": "United States", "formattedAddress": ["400 E 90th St (at 1st Ave)", "New York, NY 10128", "United States"]}, "categories": [{"id": "4bf58dd8d48988d1e0931735", "name": "Coffee Shop", "pluralName": "Coffee Shops", "shortName": "Coffee Shop", "icon": {"prefix": "https://ss3.4sqi.net/img/categories_v2/food/coffeeshop_", "suffix": ".png"}, "primary": true}], "photos": {"count": 0, "groups": []}}, "referralId": "e-0-4a819c70f964a52006f71fe3-36"}, {"reasons": {"count": 0, "items": [{"summary": "This spot is popular", "type": "general", "reasonName": "globalInteractionReason"}]}, "venue": {"id": "4a9127f2f964a520cb1920e3", "name": "Starbucks", "location": {"address": "1380 Avenue of the Americas", "crossStreet": "at W 56th St", "lat": 40.763706, "lng": -73.9773, "labeledLatLngs": [{"label": "display", "lat": 40.763706, "lng": -73.9773}], "postalCode": "10019", "cc": "US", "city": "New York", "state": "NY", "country": "United States", "formattedAddress": ["1380 Avenue of the Americas (at W 56th St)", "New York, NY 10019", "United States"]}, "categories": [{"id": "4bf58dd8d48988d1e0931735", "name": "Coffee Shop", "pluralName": "Coffee Shops", "shortName": "Coffee Shop", "icon": {"prefix": "https://ss3.4sqi.net/img/categories_v2/food/coffeeshop_", "suffix": ".png"}, "primary": true}], "photos": {"count": 0, "groups": []}}, "referralId": "e-0-4a9127f2f964a520cb1920e3-37"}, {"reasons": {"count": 0, "items": [{"summary": "This spot is popular", "type": "general", "reasonName": "globalInteractionReason"}]}, "venue": {"id": "4b697d7bf964a5205aa42be3", "name": "Starbucks", "location": {"address": "575 5th Ave", "crossStreet": "at E 47th St", "lat": 40.75645964, "lng": -73.97835262, "labeledLatLngs": [{"label": "display", "lat": 40.75645964, "lng": -73.97835262}], "postalCode": "10017", "cc": "US", "city": "New York", "state": "NY", "country": "United States", "formattedAddress": ["575 5th Ave (at E 47th St)", "New York, NY 10017", "United States"]}, "categories": [{"id": "4bf58dd8d48988d1e0931735", "name": "Coffee Shop", "pluralName": "Coffee Shops", "shortName": "Coffee Shop", "icon": {"prefix": "https://ss3.4sqi.net/img/categories_v2/food/coffeeshop_", "suffix": ".png"}, "primary": true}], "photos": {"count": 0, "groups": []}}, "referralId": "e-0-4b697d7bf964a5205aa42be3-38"}, {"reasons": {"count": 0, "items": [{"summary": "This spot is popular", "type": "general", "reasonName": "globalInteractionReason"}]}, "venue": {"id": "4a9a8254f964a520c73120e3", "name": "Starbucks", "location": {"address": "757 3rd Ave", "crossStreet": "at E 48th St", "lat": 40.75403866, "lng": -73.97186289, "labeledLatLngs": [{"label": "display", "lat": 40.75403866, "lng": -73.97186289}], "postalCode": "10017", "cc": "US", "city": "New York", "state": "NY", "country": "United States", "formattedAddress": ["757 3rd Ave (at E 48th St)", "New York, NY 10017", "United States"]}, "categories": [{"id": "4bf58dd8d48988d1e0931735", "name": "Coffee Shop", "pluralName": "Coffee Shops", "shortName": "Coffee Shop", "icon": {"prefix": "https://ss3.4sqi.net/img/categories_v2/food/coffeeshop_", "suffix": ".png"}, "primary": true}], "photos": {"count": 0, "groups": []}}, "referralId": "e-0-4a9a8254f964a520c73120e3-39"}, {"reasons": {"count": 0, "items": [{"summary": "This spot is popular", "type": "general", "reasonName": "globalInteractionReason"}]}, "venue": {"id": "4a356654f964a520f19c1fe3", "name": "Starbucks", "location": {"address": "731 Lexington Ave", "crossStreet": "a E 58th St", "lat": 40.761511, "lng": -73.967861, "labeledLatLngs": [{"label": "display", "lat": 40.761511, "lng": -73.967861}], "postalCode": "10022", "cc": "US", "city": "New York", "state": "NY", "country": "United States", "formattedAddress": ["731 Lexington Ave (a E 58th St)", "New York, NY 10022", "United States"]}, "categories": [{"id": "4bf58dd8d48988d1e0931735", "name": "Coffee Shop", "pluralName": "Coffee Shops", "shortName": "Coffee Shop", "icon": {"prefix": "https://ss3.4sqi.net/img/categories_v2/food/coffeeshop_", "suffix": ".png"}, "primary": true}], "photos": {"count": 0, "groups": []}}, "referralId": "e-0-4a356654f964a520f19c1fe3-40"}, {"reasons": {"count": 0, "items": [{"summary": "This spot is popular", "type": "general", "reasonName": "globalInteractionReason"}]}, "venue": {"id": "4ae8495ef964a5207fae21e3", "name": "Starbucks", "location": {"address": "1021 3rd Ave", "crossStreet": "at E 60th St", "lat": 40.762394, "lng": -73.965744, "labeledLatLngs": [{"label": "display", "lat": 40.762394, "lng": -73.965744}], "postalCode": "10065", "cc": "US", "city": "New York", "state": "NY", "country": "United States", "formattedAddress": ["1021 3rd Ave (at E 60th St)", "New York, NY 10065", "United States"]}, "categories": [{"id": "4bf58dd8d48988d1e0931735", "name": "Coffee Shop", "pluralName": "Coffee Shops", "shortName": "Coffee Shop", "icon": {"prefix": "https://ss3.4sqi.net/img/categories_v2/food/coffeeshop_", "suffix": ".png"}, "primary": true}], "photos": {"count": 0, "groups": []}}, "referralId": "e-0-4ae8495ef964a5207fae21e3-41"}, {"reasons": {"count": 0, "items": [{"summary": "This spot is popular", "type": "general", "reasonName": "globalInteractionReason"}]}, "venue": {"id": "4bc9e211fb84c9b6d8cb1b3e", "name": "Starbucks", "location": {"address": "30 Rockefeller Plz", "crossStreet": "btwn W 49th & W 50th St", "lat": 40.75876, "lng": -73.97869, "labeledLatLngs": [{"label": "display", "lat": 40.75876, "lng": -73.97869}], "postalCode": "10112", "cc": "US", "neighborhood": "Midtown East", "city": "New York", "state": "NY", "country": "United States", "formattedAddress": ["30 Rockefeller Plz (btwn W 49th & W 50th St)", "New York, NY 10112", "United States"]}, "categories": [{"id": "4bf58dd8d48988d1e0931735", "name": "Coffee Shop", "pluralName": "Coffee Shops", "shortName": "Coffee Shop", "icon": {"prefix": "https://ss3.4sqi.net/img/categories_v2/food/coffeeshop_", "suffix": ".png"}, "primary": true}], "photos": {"count": 0, "groups": []}}, "referralId": "e-0-4bc9e211fb84c9b6d8cb1b3e-42"}, {"reasons": {"count": 0, "items": [{"summary": "This spot is popular", "type": "general", "reasonName": "globalInteractionReason"}]}, "venue": {"id": "4ac51a7ff964a52058b020e3", "name": "Starbucks", "location": {"address": "1535 Broadway", "crossStreet": "at W 45th St", "lat": 40.75824934428419, "lng": -73.98588716983795, "labeledLatLngs": [{"label": "display", "lat": 40.75824934428419, "lng": -73.98588716983795}], "postalCode": "10036", "cc": "US", "city": "New York", "state": "NY", "country": "United States", "formattedAddress": ["1535 Broadway (at W 45th St)", "New York, NY 10036", "United States"]}, "categories": [{"id": "4bf58dd8d48988d1e0931735", "name": "Coffee Shop", "pluralName": "Coffee Shops", "shortName": "Coffee Shop", "icon": {"prefix": "https://ss3.4sqi.net/img/categories_v2/food/coffeeshop_", "suffix": ".png"}, "primary": true}], "photos": {"count": 0, "groups": []}}, "referralId": "e-0-4ac51a7ff964a52058b020e3-43"}, {"reasons": {"count": 0, "items": [{"summary": "This spot is popular", "type": "general", "reasonName": "globalInteractionReason"}]}, "venue": {"id": "4a905a5bf964a520721720e3", "name": "Starbucks", "location": {"address": "267-275 Columbus Ave", "crossStreet": "at W 73rd St", "lat": 40.77796523, "lng": -73.97827058, "labeledLatLngs": [{"label": "display", "lat": 40.77796523, "lng": -73.97827058}], "postalCode": "10023", "cc": "US", "city": "New York", "state": "NY", "country": "United States", "formattedAddress": ["267-275 Columbus Ave (at W 73rd St)", "New York, NY 10023", "United States"]}, "categories": [{"id": "4bf58dd8d48988d1e0931735", "name": "Coffee Shop", "pluralName": "Coffee Shops", "shortName": "Coffee Shop", "icon": {"prefix": "https://ss3.4sqi.net/img/categories_v2/food/coffeeshop_", "suffix": ".png"}, "primary": true}], "photos": {"count": 0, "groups": []}}, "referralId": "e-0-4a905a5bf964a520721720e3-44"}, {"reasons": {"count": 0, "items": [{"summary": "This spot is popular", "type": "general", "reasonName": "globalInteractionReason"}]}, "venue": {"id": "58982463469aef72f3579b25", "name": "Starbucks", "location": {"address": "3165 Broadway", "crossStreet": "at Tiemann Rd", "lat": 40.81507408334908, "lng": -73.95893045497931, "labeledLatLngs": [{"label": "display", "lat": 40.81507408334908, "lng": -73.95893045497931}], "postalCode": "10027", "cc": "US", "city": "New York", "state": "NY", "country": "United States", "formattedAddress": ["3165 Broadway (at Tiemann Rd)", "New York, NY 10027", "United States"]}, "categories": [{"id": "4bf58dd8d48988d1e0931735", "name": "Coffee Shop", "pluralName": "Coffee Shops", "shortName": "Coffee Shop", "icon": {"prefix": "https://ss3.4sqi.net/img/categories_v2/food/coffeeshop_", "suffix": ".png"}, "primary": true}], "photos": {"count": 0, "groups": []}}, "referralId": "e-0-58982463469aef72f3579b25-45"}, {"reasons": {"count": 0, "items": [{"summary": "This spot is popular", "type": "general", "reasonName": "globalInteractionReason"}]}, "venue": {"id": "4b0807abf964a520890223e3", "name": "Starbucks", "location": {"address": "455 Main St", "lat": 40.75935954636262, "lng": -73.95315311551424, "labeledLatLngs": [{"label": "display", "lat": 40.75935954636262, "lng": -73.95315311551424}], "postalCode": "10044", "cc": "US", "city": "New York", "state": "NY", "country": "United States", "formattedAddress": ["455 Main St", "New York, NY 10044", "United States"]}, "categories": [{"id": "4bf58dd8d48988d1e0931735", "name": "Coffee Shop", "pluralName": "Coffee Shops", "shortName": "Coffee Shop", "icon": {"prefix": "https://ss3.4sqi.net/img/categories_v2/food/coffeeshop_", "suffix": ".png"}, "primary": true}], "photos": {"count": 0, "groups": []}}, "referralId": "e-0-4b0807abf964a520890223e3-46"}, {"reasons": {"count": 0, "items": [{"summary": "This spot is popular", "type": "general", "reasonName": "globalInteractionReason"}]}, "venue": {"id": "53be9001498e1c9fd51b7197", "name": "Starbucks", "location": {"address": "250 W 57th St", "crossStreet": "at 8th Ave", "lat": 40.766651891382516, "lng": -73.98305888445358, "labeledLatLngs": [{"label": "display", "lat": 40.766651891382516, "lng": -73.98305888445358}], "postalCode": "10107", "cc": "US", "city": "New York", "state": "NY", "country": "United States", "formattedAddress": ["250 W 57th St (at 8th Ave)", "New York, NY 10107", "United States"]}, "categories": [{"id": "4bf58dd8d48988d1e0931735", "name": "Coffee Shop", "pluralName": "Coffee Shops", "shortName": "Coffee Shop", "icon": {"prefix": "https://ss3.4sqi.net/img/categories_v2/food/coffeeshop_", "suffix": ".png"}, "primary": true}], "photos": {"count": 0, "groups": []}}, "referralId": "e-0-53be9001498e1c9fd51b7197-47"}, {"reasons": {"count": 0, "items": [{"summary": "This spot is popular", "type": "general", "reasonName": "globalInteractionReason"}]}, "venue": {"id": "566ef832498eb0ef6ba5e038", "name": "Starbucks", "location": {"address": "825 Eighth Ave", "crossStreet": "at W 49th St", "lat": 40.76190095, "lng": -73.98659719, "labeledLatLngs": [{"label": "display", "lat": 40.76190095, "lng": -73.98659719}], "postalCode": "10019", "cc": "US", "city": "New York", "state": "NY", "country": "United States", "formattedAddress": ["825 Eighth Ave (at W 49th St)", "New York, NY 10019", "United States"]}, "categories": [{"id": "4bf58dd8d48988d1e0931735", "name": "Coffee Shop", "pluralName": "Coffee Shops", "shortName": "Coffee Shop", "icon": {"prefix": "https://ss3.4sqi.net/img/categories_v2/food/coffeeshop_", "suffix": ".png"}, "primary": true}], "photos": {"count": 0, "groups": []}}, "referralId": "e-0-566ef832498eb0ef6ba5e038-48"}, {"reasons": {"count": 0, "items": [{"summary": "This spot is popular", "type": "general", "reasonName": "globalInteractionReason"}]}, "venue": {"id": "55af9e85498eba541053c76e", "name": "Starbucks", "location": {"address": "2 Grand Central Tower", "crossStreet": "at 3rd Ave", "lat": 40.75313643552165, "lng": -73.97411150254091, "labeledLatLngs": [{"label": "display", "lat": 40.75313643552165, "lng": -73.97411150254091}], "postalCode": "10017", "cc": "US", "city": "New York", "state": "NY", "country": "United States", "formattedAddress": ["2 Grand Central Tower (at 3rd Ave)", "New York, NY 10017", "United States"]}, "categories": [{"id": "4bf58dd8d48988d1e0931735", "name": "Coffee Shop", "pluralName": "Coffee Shops", "shortName": "Coffee Shop", "icon": {"prefix": "https://ss3.4sqi.net/img/categories_v2/food/coffeeshop_", "suffix": ".png"}, "primary": true}], "photos": {"count": 0, "groups": []}}, "referralId": "e-0-55af9e85498eba541053c76e-49"}, {"reasons": {"count": 0, "items": [{"summary": "This spot is popular", "type": "general", "reasonName": "globalInteractionReason"}]}, "venue": {"id": "4b4756c3f964a520422f26e3", "name": "Starbucks", "location": {"address": "280 Park Ave", "lat": 40.75657419, "lng": -73.97493586, "labeledLatLngs": [{"label": "display", "lat": 40.75657419, "lng": -73.97493586}], "postalCode": "10017", "cc": "US", "city": "New York", "state": "NY", "country": "United States", "formattedAddress": ["280 Park Ave", "New York, NY 10017", "United States"]}, "categories": [{"id": "4bf58dd8d48988d1e0931735", "name": "Coffee Shop", "pluralName": "Coffee Shops", "shortName": "Coffee Shop", "icon": {"prefix": "https://ss3.4sqi.net/img/categories_v2/food/coffeeshop_", "suffix": ".png"}, "primary": true}], "photos": {"count": 0, "groups": []}}, "referralId": "e-0-4b4756c3f964a520422f26e3-50"}, {"reasons": {"count": 0, "items": [{"summary": "This spot is popular", "type": "general", "reasonName": "globalInteractionReason"}]}, "venue": {"id": "51a3785d498e3030c7184a3d", "name": "Starbucks", "location": {"address": "425 Madison Ave", "crossStreet": "at E 49th St", "lat": 40.75696, "lng": -73.9759, "labeledLatLngs": [{"label": "display", "lat": 40.75696, "lng": -73.9759}], "postalCode": "10017", "cc": "US", "city": "New York", "state": "NY", "country": "United States", "formattedAddress": ["425 Madison Ave (at E 49th St)", "New York, NY 10017", "United States"]}, "categories": [{"id": "4bf58dd8d48988d1e0931735", "name": "Coffee Shop", "pluralName": "Coffee Shops", "shortName": "Coffee Shop", "icon": {"prefix": "https://ss3.4sqi.net/img/categories_v2/food/coffeeshop_", "suffix": ".png"}, "primary": true}], "photos": {"count": 0, "groups": []}}, "referralId": "e-0-51a3785d498e3030c7184a3d-51"}, {"reasons": {"count": 0, "items": [{"summary": "This spot is popular", "type": "general", "reasonName": "globalInteractionReason"}]}, "venue": {"id": "4b5f0221f964a520fea129e3", "name": "Starbucks", "location": {"address": "230 Park Ave", "crossStreet": "45th St", "lat": 40.75403694, "lng": -73.97650216, "labeledLatLngs": [{"label": "display", "lat": 40.75403694, "lng": -73.97650216}], "postalCode": "10169", "cc": "US", "city": "New York", "state": "NY", "country": "United States", "formattedAddress": ["230 Park Ave (45th St)", "New York, NY 10169", "United States"]}, "categories": [{"id": "4bf58dd8d48988d1e0931735", "name": "Coffee Shop", "pluralName": "Coffee Shops", "shortName": "Coffee Shop", "icon": {"prefix": "https://ss3.4sqi.net/img/categories_v2/food/coffeeshop_", "suffix": ".png"}, "primary": true}], "photos": {"count": 0, "groups": []}}, "referralId": "e-0-4b5f0221f964a520fea129e3-52"}, {"reasons": {"count": 0, "items": [{"summary": "This spot is popular", "type": "general", "reasonName": "globalInteractionReason"}]}, "venue": {"id": "4a887a70f964a520970620e3", "name": "Starbucks", "location": {"address": "245 East 80th St", "crossStreet": "at E 80th St", "lat": 40.77420178, "lng": -73.95466682, "labeledLatLngs": [{"label": "display", "lat": 40.77420178, "lng": -73.95466682}], "postalCode": "10028", "cc": "US", "city": "New York", "state": "NY", "country": "United States", "formattedAddress": ["245 East 80th St (at E 80th St)", "New York, NY 10028", "United States"]}, "categories": [{"id": "4bf58dd8d48988d1e0931735", "name": "Coffee Shop", "pluralName": "Coffee Shops", "shortName": "Coffee Shop", "icon": {"prefix": "https://ss3.4sqi.net/img/categories_v2/food/coffeeshop_", "suffix": ".png"}, "primary": true}], "photos": {"count": 0, "groups": []}}, "referralId": "e-0-4a887a70f964a520970620e3-53"}, {"reasons": {"count": 0, "items": [{"summary": "This spot is popular", "type": "general", "reasonName": "globalInteractionReason"}]}, "venue": {"id": "4a5f4a08f964a5205abf1fe3", "name": "Starbucks", "location": {"address": "325 W 49th St", "crossStreet": "btwn 8th & 9th Ave", "lat": 40.76223640083641, "lng": -73.98763905244529, "labeledLatLngs": [{"label": "display", "lat": 40.76223640083641, "lng": -73.98763905244529}], "postalCode": "10019", "cc": "US", "city": "New York", "state": "NY", "country": "United States", "formattedAddress": ["325 W 49th St (btwn 8th & 9th Ave)", "New York, NY 10019", "United States"]}, "categories": [{"id": "4bf58dd8d48988d1e0931735", "name": "Coffee Shop", "pluralName": "Coffee Shops", "shortName": "Coffee Shop", "icon": {"prefix": "https://ss3.4sqi.net/img/categories_v2/food/coffeeshop_", "suffix": ".png"}, "primary": true}], "photos": {"count": 0, "groups": []}}, "referralId": "e-0-4a5f4a08f964a5205abf1fe3-54"}, {"reasons": {"count": 0, "items": [{"summary": "This spot is popular", "type": "general", "reasonName": "globalInteractionReason"}]}, "venue": {"id": "4a902fa5f964a520671620e3", "name": "Starbucks", "location": {"address": "4 Columbus Cir", "crossStreet": "at W 58th St & 8th Ave", "lat": 40.76734686, "lng": -73.98290708, "labeledLatLngs": [{"label": "display", "lat": 40.76734686, "lng": -73.98290708}], "postalCode": "10019", "cc": "US", "neighborhood": "Columbus Circle", "city": "New York", "state": "NY", "country": "United States", "formattedAddress": ["4 Columbus Cir (at W 58th St & 8th Ave)", "New York, NY 10019", "United States"]}, "categories": [{"id": "4bf58dd8d48988d1e0931735", "name": "Coffee Shop", "pluralName": "Coffee Shops", "shortName": "Coffee Shop", "icon": {"prefix": "https://ss3.4sqi.net/img/categories_v2/food/coffeeshop_", "suffix": ".png"}, "primary": true}], "photos": {"count": 0, "groups": []}}, "referralId": "e-0-4a902fa5f964a520671620e3-55"}, {"reasons": {"count": 0, "items": [{"summary": "This spot is popular", "type": "general", "reasonName": "globalInteractionReason"}]}, "venue": {"id": "4ba3af25f964a520155438e3", "name": "Starbucks", "location": {"address": "1290 Sixth Avenue", "crossStreet": "btwn W 51st & 52nd Sts", "lat": 40.76072487, "lng": -73.9787691, "labeledLatLngs": [{"label": "display", "lat": 40.76072487, "lng": -73.9787691}], "postalCode": "10019", "cc": "US", "neighborhood": "Midtown", "city": "New York", "state": "NY", "country": "United States", "formattedAddress": ["1290 Sixth Avenue (btwn W 51st & 52nd Sts)", "New York, NY 10019", "United States"]}, "categories": [{"id": "4bf58dd8d48988d1e0931735", "name": "Coffee Shop", "pluralName": "Coffee Shops", "shortName": "Coffee Shop", "icon": {"prefix": "https://ss3.4sqi.net/img/categories_v2/food/coffeeshop_", "suffix": ".png"}, "primary": true}], "photos": {"count": 0, "groups": []}}, "referralId": "e-0-4ba3af25f964a520155438e3-56"}, {"reasons": {"count": 0, "items": [{"summary": "This spot is popular", "type": "general", "reasonName": "globalInteractionReason"}]}, "venue": {"id": "49cf9381f964a520af5a1fe3", "name": "Starbucks", "location": {"address": "120 E 87th St", "crossStreet": "at Lexington Ave", "lat": 40.780178814498925, "lng": -73.95523059810175, "labeledLatLngs": [{"label": "display", "lat": 40.780178814498925, "lng": -73.95523059810175}], "postalCode": "10128", "cc": "US", "city": "New York", "state": "NY", "country": "United States", "formattedAddress": ["120 E 87th St (at Lexington Ave)", "New York, NY 10128", "United States"]}, "categories": [{"id": "4bf58dd8d48988d1e0931735", "name": "Coffee Shop", "pluralName": "Coffee Shops", "shortName": "Coffee Shop", "icon": {"prefix": "https://ss3.4sqi.net/img/categories_v2/food/coffeeshop_", "suffix": ".png"}, "primary": true}], "photos": {"count": 0, "groups": []}}, "referralId": "e-0-49cf9381f964a520af5a1fe3-57"}, {"reasons": {"count": 0, "items": [{"summary": "This spot is popular", "type": "general", "reasonName": "globalInteractionReason"}]}, "venue": {"id": "56e84600498e4fe2527d0f9b", "name": "Starbucks", "location": {"address": "55 E 52nd St", "crossStreet": "btwn Park & Madison Ave", "lat": 40.75898102131275, "lng": -73.97357328641174, "labeledLatLngs": [{"label": "display", "lat": 40.75898102131275, "lng": -73.97357328641174}], "postalCode": "10055", "cc": "US", "city": "New York", "state": "NY", "country": "United States", "formattedAddress": ["55 E 52nd St (btwn Park & Madison Ave)", "New York, NY 10055", "United States"]}, "categories": [{"id": "4bf58dd8d48988d1e0931735", "name": "Coffee Shop", "pluralName": "Coffee Shops", "shortName": "Coffee Shop", "icon": {"prefix": "https://ss3.4sqi.net/img/categories_v2/food/coffeeshop_", "suffix": ".png"}, "primary": true}], "photos": {"count": 0, "groups": []}}, "referralId": "e-0-56e84600498e4fe2527d0f9b-58"}, {"reasons": {"count": 0, "items": [{"summary": "This spot is popular", "type": "general", "reasonName": "globalInteractionReason"}]}, "venue": {"id": "4c815832e63376b0a176ac3d", "name": "Starbucks", "location": {"address": "1491 Lexington Ave", "crossStreet": "at E 96th St", "lat": 40.78588936, "lng": -73.95083696, "labeledLatLngs": [{"label": "display", "lat": 40.78588936, "lng": -73.95083696}], "postalCode": "10029", "cc": "US", "city": "New York", "state": "NY", "country": "United States", "formattedAddress": ["1491 Lexington Ave (at E 96th St)", "New York, NY 10029", "United States"]}, "categories": [{"id": "4bf58dd8d48988d1e0931735", "name": "Coffee Shop", "pluralName": "Coffee Shops", "shortName": "Coffee Shop", "icon": {"prefix": "https://ss3.4sqi.net/img/categories_v2/food/coffeeshop_", "suffix": ".png"}, "primary": true}], "photos": {"count": 0, "groups": []}}, "referralId": "e-0-4c815832e63376b0a176ac3d-59"}, {"reasons": {"count": 0, "items": [{"summary": "This spot is popular", "type": "general", "reasonName": "globalInteractionReason"}]}, "venue": {"id": "4dc3241552b1e8f9f79aae1a", "name": "Starbucks", "location": {"address": "82nd", "crossStreet": "at Barnes & Noble", "lat": 40.78597499067629, "lng": -73.97865825293484, "labeledLatLngs": [{"label": "display", "lat": 40.78597499067629, "lng": -73.97865825293484}], "postalCode": "10024", "cc": "US", "city": "New Nork", "state": "NY", "country": "United States", "formattedAddress": ["82nd (at Barnes & Noble)", "New Nork, NY 10024", "United States"]}, "categories": [{"id": "4bf58dd8d48988d1e0931735", "name": "Coffee Shop", "pluralName": "Coffee Shops", "shortName": "Coffee Shop", "icon": {"prefix": "https://ss3.4sqi.net/img/categories_v2/food/coffeeshop_", "suffix": ".png"}, "primary": true}], "photos": {"count": 0, "groups": []}}, "referralId": "e-0-4dc3241552b1e8f9f79aae1a-60"}, {"reasons": {"count": 0, "items": [{"summary": "This spot is popular", "type": "general", "reasonName": "globalInteractionReason"}]}, "venue": {"id": "577e548b498eb2d9a327b42c", "name": "Starbucks", "location": {"address": "141 Amsterdam Ave", "lat": 40.7748624132678, "lng": -73.98417544364928, "labeledLatLngs": [{"label": "display", "lat": 40.7748624132678, "lng": -73.98417544364928}], "postalCode": "10023", "cc": "US", "city": "New York", "state": "NY", "country": "United States", "formattedAddress": ["141 Amsterdam Ave", "New York, NY 10023", "United States"]}, "categories": [{"id": "4bf58dd8d48988d1e0931735", "name": "Coffee Shop", "pluralName": "Coffee Shops", "shortName": "Coffee Shop", "icon": {"prefix": "https://ss3.4sqi.net/img/categories_v2/food/coffeeshop_", "suffix": ".png"}, "primary": true}], "photos": {"count": 0, "groups": []}}, "referralId": "e-0-577e548b498eb2d9a327b42c-61"}, {"reasons": {"count": 0, "items": [{"summary": "This spot is popular", "type": "general", "reasonName": "globalInteractionReason"}]}, "venue": {"id": "529be00e11d207b62dd23c47", "name": "Starbucks", "location": {"address": "2621 Broadway", "crossStreet": "at W 99th St", "lat": 40.79671361505307, "lng": -73.97038896939684, "labeledLatLngs": [{"label": "display", "lat": 40.79671361505307, "lng": -73.97038896939684}], "postalCode": "10025", "cc": "US", "city": "New York", "state": "NY", "country": "United States", "formattedAddress": ["2621 Broadway (at W 99th St)", "New York, NY 10025", "United States"]}, "categories": [{"id": "4bf58dd8d48988d1e0931735", "name": "Coffee Shop", "pluralName": "Coffee Shops", "shortName": "Coffee Shop", "icon": {"prefix": "https://ss3.4sqi.net/img/categories_v2/food/coffeeshop_", "suffix": ".png"}, "primary": true}], "photos": {"count": 0, "groups": []}}, "referralId": "e-0-529be00e11d207b62dd23c47-62"}, {"reasons": {"count": 0, "items": [{"summary": "This spot is popular", "type": "general", "reasonName": "globalInteractionReason"}]}, "venue": {"id": "4aef4d35f964a52061d721e3", "name": "Starbucks", "location": {"address": "1185 Avenue of the Americas", "crossStreet": "at W 47th St", "lat": 40.75779604, "lng": -73.98251187, "labeledLatLngs": [{"label": "display", "lat": 40.75779604, "lng": -73.98251187}], "postalCode": "10036", "cc": "US", "city": "New York", "state": "NY", "country": "United States", "formattedAddress": ["1185 Avenue of the Americas (at W 47th St)", "New York, NY 10036", "United States"]}, "categories": [{"id": "4bf58dd8d48988d1e0931735", "name": "Coffee Shop", "pluralName": "Coffee Shops", "shortName": "Coffee Shop", "icon": {"prefix": "https://ss3.4sqi.net/img/categories_v2/food/coffeeshop_", "suffix": ".png"}, "primary": true}], "photos": {"count": 0, "groups": []}}, "referralId": "e-0-4aef4d35f964a52061d721e3-63"}, {"reasons": {"count": 0, "items": [{"summary": "This spot is popular", "type": "general", "reasonName": "globalInteractionReason"}]}, "venue": {"id": "4a32c7d0f964a520919a1fe3", "name": "Starbucks", "location": {"address": "2195 Frederick Douglas Boulevard", "crossStreet": "at W 118th St", "lat": 40.8058588054395, "lng": -73.95437109714017, "labeledLatLngs": [{"label": "display", "lat": 40.8058588054395, "lng": -73.95437109714017}], "postalCode": "10026", "cc": "US", "city": "New York", "state": "NY", "country": "United States", "formattedAddress": ["2195 Frederick Douglas Boulevard (at W 118th St)", "New York, NY 10026", "United States"]}, "categories": [{"id": "4bf58dd8d48988d1e0931735", "name": "Coffee Shop", "pluralName": "Coffee Shops", "shortName": "Coffee Shop", "icon": {"prefix": "https://ss3.4sqi.net/img/categories_v2/food/coffeeshop_", "suffix": ".png"}, "primary": true}], "photos": {"count": 0, "groups": []}}, "referralId": "e-0-4a32c7d0f964a520919a1fe3-64"}, {"reasons": {"count": 0, "items": [{"summary": "This spot is popular", "type": "general", "reasonName": "globalInteractionReason"}]}, "venue": {"id": "4bf9c0985efe2d7fb5c96c34", "name": "Starbucks", "location": {"address": "2521 Broadway", "crossStreet": "at W 95th St", "lat": 40.79381423, "lng": -73.97277682, "labeledLatLngs": [{"label": "display", "lat": 40.79381423, "lng": -73.97277682}], "postalCode": "10025", "cc": "US", "city": "New York", "state": "NY", "country": "United States", "formattedAddress": ["2521 Broadway (at W 95th St)", "New York, NY 10025", "United States"]}, "categories": [{"id": "4bf58dd8d48988d1e0931735", "name": "Coffee Shop", "pluralName": "Coffee Shops", "shortName": "Coffee Shop", "icon": {"prefix": "https://ss3.4sqi.net/img/categories_v2/food/coffeeshop_", "suffix": ".png"}, "primary": true}], "photos": {"count": 0, "groups": []}}, "referralId": "e-0-4bf9c0985efe2d7fb5c96c34-65"}, {"reasons": {"count": 0, "items": [{"summary": "This spot is popular", "type": "general", "reasonName": "globalInteractionReason"}]}, "venue": {"id": "4ba550dff964a520e1f938e3", "name": "Starbucks B&N", "location": {"address": "150 E 86th St", "crossStreet": "at Lexington Ave", "lat": 40.77934285822796, "lng": -73.95504604591419, "labeledLatLngs": [{"label": "display", "lat": 40.77934285822796, "lng": -73.95504604591419}], "postalCode": "10028", "cc": "US", "city": "New York", "state": "NY", "country": "United States", "formattedAddress": ["150 E 86th St (at Lexington Ave)", "New York, NY 10028", "United States"]}, "categories": [{"id": "4bf58dd8d48988d1e0931735", "name": "Coffee Shop", "pluralName": "Coffee Shops", "shortName": "Coffee Shop", "icon": {"prefix": "https://ss3.4sqi.net/img/categories_v2/food/coffeeshop_", "suffix": ".png"}, "primary": true}], "photos": {"count": 0, "groups": []}}, "referralId": "e-0-4ba550dff964a520e1f938e3-66"}, {"reasons": {"count": 0, "items": [{"summary": "This spot is popular", "type": "general", "reasonName": "globalInteractionReason"}]}, "venue": {"id": "5730c666498e1f30668e6679", "name": "Starbucks", "location": {"address": "55 West 46th st", "crossStreet": "btwn 5th & 6th Ave", "lat": 40.7569017629723, "lng": -73.98128721212817, "labeledLatLngs": [{"label": "display", "lat": 40.7569017629723, "lng": -73.98128721212817}], "postalCode": "10036", "cc": "US", "city": "New York", "state": "NY", "country": "United States", "formattedAddress": ["55 West 46th st (btwn 5th & 6th Ave)", "New York, NY 10036", "United States"]}, "categories": [{"id": "4bf58dd8d48988d1e0931735", "name": "Coffee Shop", "pluralName": "Coffee Shops", "shortName": "Coffee Shop", "icon": {"prefix": "https://ss3.4sqi.net/img/categories_v2/food/coffeeshop_", "suffix": ".png"}, "primary": true}], "photos": {"count": 0, "groups": []}}, "referralId": "e-0-5730c666498e1f30668e6679-67"}, {"reasons": {"count": 0, "items": [{"summary": "This spot is popular", "type": "general", "reasonName": "globalInteractionReason"}]}, "venue": {"id": "4b27fe4df964a5205d8d24e3", "name": "Starbucks", "location": {"address": "45 E 51st St", "crossStreet": "btwn Park & Madison Ave", "lat": 40.75837305, "lng": -73.97418548, "labeledLatLngs": [{"label": "display", "lat": 40.75837305, "lng": -73.97418548}], "postalCode": "10022", "cc": "US", "city": "New York", "state": "NY", "country": "United States", "formattedAddress": ["45 E 51st St (btwn Park & Madison Ave)", "New York, NY 10022", "United States"]}, "categories": [{"id": "4bf58dd8d48988d1e0931735", "name": "Coffee Shop", "pluralName": "Coffee Shops", "shortName": "Coffee Shop", "icon": {"prefix": "https://ss3.4sqi.net/img/categories_v2/food/coffeeshop_", "suffix": ".png"}, "primary": true}], "photos": {"count": 0, "groups": []}}, "referralId": "e-0-4b27fe4df964a5205d8d24e3-68"}, {"reasons": {"count": 0, "items": [{"summary": "This spot is popular", "type": "general", "reasonName": "globalInteractionReason"}]}, "venue": {"id": "4a785af0f964a52071e51fe3", "name": "Starbucks", "location": {"address": "1631 1st Ave", "crossStreet": "at E 85th St", "lat": 40.776127, "lng": -73.9502, "labeledLatLngs": [{"label": "display", "lat": 40.776127, "lng": -73.9502}], "postalCode": "10028", "cc": "US", "city": "New York", "state": "NY", "country": "United States", "formattedAddress": ["1631 1st Ave (at E 85th St)", "New York, NY 10028", "United States"]}, "categories": [{"id": "4bf58dd8d48988d1e0931735", "name": "Coffee Shop", "pluralName": "Coffee Shops", "shortName": "Coffee Shop", "icon": {"prefix": "https://ss3.4sqi.net/img/categories_v2/food/coffeeshop_", "suffix": ".png"}, "primary": true}], "photos": {"count": 0, "groups": []}}, "referralId": "e-0-4a785af0f964a52071e51fe3-69"}, {"reasons": {"count": 0, "items": [{"summary": "This spot is popular", "type": "general", "reasonName": "globalInteractionReason"}]}, "venue": {"id": "4a75cde8f964a52052e11fe3", "name": "Starbucks", "location": {"address": "120 W 56th St", "crossStreet": "btwn 6th & 7th Ave", "lat": 40.76402, "lng": -73.9789, "labeledLatLngs": [{"label": "display", "lat": 40.76402, "lng": -73.9789}], "postalCode": "10019", "cc": "US", "city": "New York", "state": "NY", "country": "United States", "formattedAddress": ["120 W 56th St (btwn 6th & 7th Ave)", "New York, NY 10019", "United States"]}, "categories": [{"id": "4bf58dd8d48988d1e0931735", "name": "Coffee Shop", "pluralName": "Coffee Shops", "shortName": "Coffee Shop", "icon": {"prefix": "https://ss3.4sqi.net/img/categories_v2/food/coffeeshop_", "suffix": ".png"}, "primary": true}], "photos": {"count": 0, "groups": []}}, "referralId": "e-0-4a75cde8f964a52052e11fe3-70"}, {"reasons": {"count": 0, "items": [{"summary": "This spot is popular", "type": "general", "reasonName": "globalInteractionReason"}]}, "venue": {"id": "4a6a2f2ff964a520c7cc1fe3", "name": "Starbucks", "location": {"address": "2252 Broadway", "crossStreet": "at W 81st St", "lat": 40.78501976, "lng": -73.97887837, "labeledLatLngs": [{"label": "display", "lat": 40.78501976, "lng": -73.97887837}], "postalCode": "10024", "cc": "US", "city": "New York", "state": "NY", "country": "United States", "formattedAddress": ["2252 Broadway (at W 81st St)", "New York, NY 10024", "United States"]}, "categories": [{"id": "4bf58dd8d48988d1e0931735", "name": "Coffee Shop", "pluralName": "Coffee Shops", "shortName": "Coffee Shop", "icon": {"prefix": "https://ss3.4sqi.net/img/categories_v2/food/coffeeshop_", "suffix": ".png"}, "primary": true}], "photos": {"count": 0, "groups": []}}, "referralId": "e-0-4a6a2f2ff964a520c7cc1fe3-71"}, {"reasons": {"count": 0, "items": [{"summary": "This spot is popular", "type": "general", "reasonName": "globalInteractionReason"}]}, "venue": {"id": "4a7fe4e2f964a5208ef41fe3", "name": "Starbucks", "location": {"address": "322 W 57th St", "crossStreet": "btwn 8th & 9th Ave", "lat": 40.76711607890241, "lng": -73.98392904541056, "labeledLatLngs": [{"label": "display", "lat": 40.76711607890241, "lng": -73.98392904541056}], "postalCode": "10019", "cc": "US", "city": "New York", "state": "NY", "country": "United States", "formattedAddress": ["322 W 57th St (btwn 8th & 9th Ave)", "New York, NY 10019", "United States"]}, "categories": [{"id": "4bf58dd8d48988d1e0931735", "name": "Coffee Shop", "pluralName": "Coffee Shops", "shortName": "Coffee Shop", "icon": {"prefix": "https://ss3.4sqi.net/img/categories_v2/food/coffeeshop_", "suffix": ".png"}, "primary": true}], "photos": {"count": 0, "groups": []}}, "referralId": "e-0-4a7fe4e2f964a5208ef41fe3-72"}, {"reasons": {"count": 0, "items": [{"summary": "This spot is popular", "type": "general", "reasonName": "globalInteractionReason"}]}, "venue": {"id": "4afb634af964a520951d22e3", "name": "Starbucks", "location": {"address": "545 5th Ave", "crossStreet": "at E 45th St", "lat": 40.755463, "lng": -73.98015, "labeledLatLngs": [{"label": "display", "lat": 40.755463, "lng": -73.98015}], "postalCode": "10017", "cc": "US", "city": "New York", "state": "NY", "country": "United States", "formattedAddress": ["545 5th Ave (at E 45th St)", "New York, NY 10017", "United States"]}, "categories": [{"id": "4bf58dd8d48988d1e0931735", "name": "Coffee Shop", "pluralName": "Coffee Shops", "shortName": "Coffee Shop", "icon": {"prefix": "https://ss3.4sqi.net/img/categories_v2/food/coffeeshop_", "suffix": ".png"}, "primary": true}], "photos": {"count": 0, "groups": []}}, "referralId": "e-0-4afb634af964a520951d22e3-73"}, {"reasons": {"count": 0, "items": [{"summary": "This spot is popular", "type": "general", "reasonName": "globalInteractionReason"}]}, "venue": {"id": "4a772d25f964a520cee31fe3", "name": "Starbucks", "location": {"address": "142 W 57th St", "crossStreet": "btwn 6th & 7th Ave", "lat": 40.764874, "lng": -73.97897, "labeledLatLngs": [{"label": "display", "lat": 40.764874, "lng": -73.97897}], "postalCode": "10019", "cc": "US", "city": "New York", "state": "NY", "country": "United States", "formattedAddress": ["142 W 57th St (btwn 6th & 7th Ave)", "New York, NY 10019", "United States"]}, "categories": [{"id": "4bf58dd8d48988d1e0931735", "name": "Coffee Shop", "pluralName": "Coffee Shops", "shortName": "Coffee Shop", "icon": {"prefix": "https://ss3.4sqi.net/img/categories_v2/food/coffeeshop_", "suffix": ".png"}, "primary": true}], "photos": {"count": 0, "groups": []}}, "referralId": "e-0-4a772d25f964a520cee31fe3-74"}, {"reasons": {"count": 0, "items": [{"summary": "This spot is popular", "type": "general", "reasonName": "globalInteractionReason"}]}, "venue": {"id": "4e46fc6eae60fa7232fbfbd1", "name": "Starbucks", "location": {"address": "1281 First Ave", "crossStreet": "at E 69th St", "lat": 40.766059, "lng": -73.957547, "labeledLatLngs": [{"label": "display", "lat": 40.766059, "lng": -73.957547}], "postalCode": "10021", "cc": "US", "city": "New York", "state": "NY", "country": "United States", "formattedAddress": ["1281 First Ave (at E 69th St)", "New York, NY 10021", "United States"]}, "categories": [{"id": "4bf58dd8d48988d1e0931735", "name": "Coffee Shop", "pluralName": "Coffee Shops", "shortName": "Coffee Shop", "icon": {"prefix": "https://ss3.4sqi.net/img/categories_v2/food/coffeeshop_", "suffix": ".png"}, "primary": true}], "photos": {"count": 0, "groups": []}}, "referralId": "e-0-4e46fc6eae60fa7232fbfbd1-75"}, {"reasons": {"count": 0, "items": [{"summary": "This spot is popular", "type": "general", "reasonName": "globalInteractionReason"}]}, "venue": {"id": "51964c1a498eeaca10e9ea4c", "name": "Starbucks", "location": {"address": "822 Lexington Ave", "crossStreet": "at E 63rd St", "lat": 40.76468772, "lng": -73.9664579, "labeledLatLngs": [{"label": "display", "lat": 40.76468772, "lng": -73.9664579}], "postalCode": "10065", "cc": "US", "city": "New York", "state": "NY", "country": "United States", "formattedAddress": ["822 Lexington Ave (at E 63rd St)", "New York, NY 10065", "United States"]}, "categories": [{"id": "4bf58dd8d48988d1e0931735", "name": "Coffee Shop", "pluralName": "Coffee Shops", "shortName": "Coffee Shop", "icon": {"prefix": "https://ss3.4sqi.net/img/categories_v2/food/coffeeshop_", "suffix": ".png"}, "primary": true}], "photos": {"count": 0, "groups": []}}, "referralId": "e-0-51964c1a498eeaca10e9ea4c-76"}, {"reasons": {"count": 0, "items": [{"summary": "This spot is popular", "type": "general", "reasonName": "globalInteractionReason"}]}, "venue": {"id": "4b365763f964a520313325e3", "name": "Starbucks", "location": {"address": "135 E 57th St", "crossStreet": "at Lexington Ave", "lat": 40.761265, "lng": -73.9691, "labeledLatLngs": [{"label": "display", "lat": 40.761265, "lng": -73.9691}], "postalCode": "10022", "cc": "US", "city": "New York", "state": "NY", "country": "United States", "formattedAddress": ["135 E 57th St (at Lexington Ave)", "New York, NY 10022", "United States"]}, "categories": [{"id": "4bf58dd8d48988d1e0931735", "name": "Coffee Shop", "pluralName": "Coffee Shops", "shortName": "Coffee Shop", "icon": {"prefix": "https://ss3.4sqi.net/img/categories_v2/food/coffeeshop_", "suffix": ".png"}, "primary": true}], "photos": {"count": 0, "groups": []}}, "referralId": "e-0-4b365763f964a520313325e3-77"}, {"reasons": {"count": 0, "items": [{"summary": "This spot is popular", "type": "general", "reasonName": "globalInteractionReason"}]}, "venue": {"id": "4aa53eccf964a520b24720e3", "name": "Starbucks", "location": {"address": "1261 Lexington Ave", "crossStreet": "at E 85th St", "lat": 40.77876492329769, "lng": -73.9560837919944, "labeledLatLngs": [{"label": "display", "lat": 40.77876492329769, "lng": -73.9560837919944}], "postalCode": "10028", "cc": "US", "city": "New York", "state": "NY", "country": "United States", "formattedAddress": ["1261 Lexington Ave (at E 85th St)", "New York, NY 10028", "United States"]}, "categories": [{"id": "4bf58dd8d48988d1e0931735", "name": "Coffee Shop", "pluralName": "Coffee Shops", "shortName": "Coffee Shop", "icon": {"prefix": "https://ss3.4sqi.net/img/categories_v2/food/coffeeshop_", "suffix": ".png"}, "primary": true}], "photos": {"count": 0, "groups": []}}, "referralId": "e-0-4aa53eccf964a520b24720e3-78"}, {"reasons": {"count": 0, "items": [{"summary": "This spot is popular", "type": "general", "reasonName": "globalInteractionReason"}]}, "venue": {"id": "4abce119f964a520878720e3", "name": "Starbucks", "location": {"address": "2 Columbus Avenue", "crossStreet": "at W 59th St", "lat": 40.76926215, "lng": -73.98480808, "labeledLatLngs": [{"label": "display", "lat": 40.76926215, "lng": -73.98480808}], "postalCode": "10023", "cc": "US", "neighborhood": "Lincoln Center", "city": "New York", "state": "NY", "country": "United States", "formattedAddress": ["2 Columbus Avenue (at W 59th St)", "New York, NY 10023", "United States"]}, "categories": [{"id": "4bf58dd8d48988d1e0931735", "name": "Coffee Shop", "pluralName": "Coffee Shops", "shortName": "Coffee Shop", "icon": {"prefix": "https://ss3.4sqi.net/img/categories_v2/food/coffeeshop_", "suffix": ".png"}, "primary": true}], "photos": {"count": 0, "groups": []}}, "referralId": "e-0-4abce119f964a520878720e3-79"}, {"reasons": {"count": 0, "items": [{"summary": "This spot is popular", "type": "general", "reasonName": "globalInteractionReason"}]}, "venue": {"id": "4ac669faf964a5203fb420e3", "name": "Starbucks", "location": {"address": "444 Columbus Avenue", "crossStreet": "at W 81st St", "lat": 40.783622038328055, "lng": -73.9745597100055, "labeledLatLngs": [{"label": "display", "lat": 40.783622038328055, "lng": -73.9745597100055}], "postalCode": "10024", "cc": "US", "city": "New York", "state": "NY", "country": "United States", "formattedAddress": ["444 Columbus Avenue (at W 81st St)", "New York, NY 10024", "United States"]}, "categories": [{"id": "4bf58dd8d48988d1e0931735", "name": "Coffee Shop", "pluralName": "Coffee Shops", "shortName": "Coffee Shop", "icon": {"prefix": "https://ss3.4sqi.net/img/categories_v2/food/coffeeshop_", "suffix": ".png"}, "primary": true}], "photos": {"count": 0, "groups": []}}, "referralId": "e-0-4ac669faf964a5203fb420e3-80"}, {"reasons": {"count": 0, "items": [{"summary": "This spot is popular", "type": "general", "reasonName": "globalInteractionReason"}]}, "venue": {"id": "5591ebe3498e27b940368d5c", "name": "Starbucks", "location": {"address": "321 W 110th St", "crossStreet": "at Manhattan Ave", "lat": 40.80120065, "lng": -73.95946589, "labeledLatLngs": [{"label": "display", "lat": 40.80120065, "lng": -73.95946589}], "postalCode": "10026", "cc": "US", "city": "New York", "state": "NY", "country": "United States", "formattedAddress": ["321 W 110th St (at Manhattan Ave)", "New York, NY 10026", "United States"]}, "categories": [{"id": "4bf58dd8d48988d1e0931735", "name": "Coffee Shop", "pluralName": "Coffee Shops", "shortName": "Coffee Shop", "icon": {"prefix": "https://ss3.4sqi.net/img/categories_v2/food/coffeeshop_", "suffix": ".png"}, "primary": true}], "photos": {"count": 0, "groups": []}}, "referralId": "e-0-5591ebe3498e27b940368d5c-81"}, {"reasons": {"count": 0, "items": [{"summary": "This spot is popular", "type": "general", "reasonName": "globalInteractionReason"}]}, "venue": {"id": "4b6c77f9f964a5209c3c2ce3", "name": "Starbucks", "location": {"address": "630 Lexington Ave", "crossStreet": "at E 53rd St", "lat": 40.75879379, "lng": -73.97089843, "labeledLatLngs": [{"label": "display", "lat": 40.75879379, "lng": -73.97089843}], "postalCode": "10022", "cc": "US", "city": "New York", "state": "NY", "country": "United States", "formattedAddress": ["630 Lexington Ave (at E 53rd St)", "New York, NY 10022", "United States"]}, "categories": [{"id": "4bf58dd8d48988d1e0931735", "name": "Coffee Shop", "pluralName": "Coffee Shops", "shortName": "Coffee Shop", "icon": {"prefix": "https://ss3.4sqi.net/img/categories_v2/food/coffeeshop_", "suffix": ".png"}, "primary": true}], "photos": {"count": 0, "groups": []}}, "referralId": "e-0-4b6c77f9f964a5209c3c2ce3-82"}, {"reasons": {"count": 0, "items": [{"summary": "This spot is popular", "type": "general", "reasonName": "globalInteractionReason"}]}, "venue": {"id": "4ab6c8faf964a520097920e3", "name": "Starbucks", "location": {"address": "1445 First Avenue", "crossStreet": "at E 75th St", "lat": 40.76982991, "lng": -73.95455892, "labeledLatLngs": [{"label": "display", "lat": 40.76982991, "lng": -73.95455892}], "postalCode": "10021", "cc": "US", "city": "New York", "state": "NY", "country": "United States", "formattedAddress": ["1445 First Avenue (at E 75th St)", "New York, NY 10021", "United States"]}, "categories": [{"id": "4bf58dd8d48988d1e0931735", "name": "Coffee Shop", "pluralName": "Coffee Shops", "shortName": "Coffee Shop", "icon": {"prefix": "https://ss3.4sqi.net/img/categories_v2/food/coffeeshop_", "suffix": ".png"}, "primary": true}], "photos": {"count": 0, "groups": []}}, "referralId": "e-0-4ab6c8faf964a520097920e3-83"}, {"reasons": {"count": 0, "items": [{"summary": "This spot is popular", "type": "general", "reasonName": "globalInteractionReason"}]}, "venue": {"id": "4acdd61af964a5202ecd20e3", "name": "Starbucks", "location": {"address": "725 5th Avenue", "lat": 40.76242946, "lng": -73.9739688, "labeledLatLngs": [{"label": "display", "lat": 40.76242946, "lng": -73.9739688}], "postalCode": "10022", "cc": "US", "city": "New York", "state": "NY", "country": "United States", "formattedAddress": ["725 5th Avenue", "New York, NY 10022", "United States"]}, "categories": [{"id": "4bf58dd8d48988d1e0931735", "name": "Coffee Shop", "pluralName": "Coffee Shops", "shortName": "Coffee Shop", "icon": {"prefix": "https://ss3.4sqi.net/img/categories_v2/food/coffeeshop_", "suffix": ".png"}, "primary": true}], "photos": {"count": 0, "groups": []}}, "referralId": "e-0-4acdd61af964a5202ecd20e3-84"}, {"reasons": {"count": 0, "items": [{"summary": "This spot is popular", "type": "general", "reasonName": "globalInteractionReason"}]}, "venue": {"id": "4ac9784ef964a520f9bf20e3", "name": "Starbucks", "location": {"address": "201 W. 125th Street", "crossStreet": "at Adam Clayton Powell Jr Blvd", "lat": 40.809155492394076, "lng": -73.94851570126119, "labeledLatLngs": [{"label": "display", "lat": 40.809155492394076, "lng": -73.94851570126119}], "postalCode": "10027", "cc": "US", "city": "New York", "state": "NY", "country": "United States", "formattedAddress": ["201 W. 125th Street (at Adam Clayton Powell Jr Blvd)", "New York, NY 10027", "United States"]}, "categories": [{"id": "4bf58dd8d48988d1e0931735", "name": "Coffee Shop", "pluralName": "Coffee Shops", "shortName": "Coffee Shop", "icon": {"prefix": "https://ss3.4sqi.net/img/categories_v2/food/coffeeshop_", "suffix": ".png"}, "primary": true}], "photos": {"count": 0, "groups": []}}, "referralId": "e-0-4ac9784ef964a520f9bf20e3-85"}, {"reasons": {"count": 0, "items": [{"summary": "This spot is popular", "type": "general", "reasonName": "globalInteractionReason"}]}, "venue": {"id": "42829c80f964a52025221fe3", "name": "Starbucks", "location": {"address": "1128 Third Avenue", "crossStreet": "at E 66th St", "lat": 40.76589947, "lng": -73.96350283, "labeledLatLngs": [{"label": "display", "lat": 40.76589947, "lng": -73.96350283}], "postalCode": "10065", "cc": "US", "city": "New York", "state": "NY", "country": "United States", "formattedAddress": ["1128 Third Avenue (at E 66th St)", "New York, NY 10065", "United States"]}, "categories": [{"id": "4bf58dd8d48988d1e0931735", "name": "Coffee Shop", "pluralName": "Coffee Shops", "shortName": "Coffee Shop", "icon": {"prefix": "https://ss3.4sqi.net/img/categories_v2/food/coffeeshop_", "suffix": ".png"}, "primary": true}], "photos": {"count": 0, "groups": []}}, "referralId": "e-0-42829c80f964a52025221fe3-86"}, {"reasons": {"count": 0, "items": [{"summary": "This spot is popular", "type": "general", "reasonName": "globalInteractionReason"}]}, "venue": {"id": "4ac3ff4af964a520cc9d20e3", "name": "Starbucks", "location": {"address": "2498 Broadway", "crossStreet": "at W 93rd St", "lat": 40.792522, "lng": -73.97303, "labeledLatLngs": [{"label": "display", "lat": 40.792522, "lng": -73.97303}], "postalCode": "10025", "cc": "US", "city": "New York", "state": "NY", "country": "United States", "formattedAddress": ["2498 Broadway (at W 93rd St)", "New York, NY 10025", "United States"]}, "categories": [{"id": "4bf58dd8d48988d1e0931735", "name": "Coffee Shop", "pluralName": "Coffee Shops", "shortName": "Coffee Shop", "icon": {"prefix": "https://ss3.4sqi.net/img/categories_v2/food/coffeeshop_", "suffix": ".png"}, "primary": true}], "photos": {"count": 0, "groups": []}}, "referralId": "e-0-4ac3ff4af964a520cc9d20e3-87"}, {"reasons": {"count": 0, "items": [{"summary": "This spot is popular", "type": "general", "reasonName": "globalInteractionReason"}]}, "venue": {"id": "4aeee85af964a520a2d421e3", "name": "Starbucks", "location": {"address": "340 Madison Ave", "crossStreet": "at E 44th St", "lat": 40.75351314, "lng": -73.97850542, "labeledLatLngs": [{"label": "display", "lat": 40.75351314, "lng": -73.97850542}], "postalCode": "10173", "cc": "US", "city": "New York", "state": "NY", "country": "United States", "formattedAddress": ["340 Madison Ave (at E 44th St)", "New York, NY 10173", "United States"]}, "categories": [{"id": "4bf58dd8d48988d1e0931735", "name": "Coffee Shop", "pluralName": "Coffee Shops", "shortName": "Coffee Shop", "icon": {"prefix": "https://ss3.4sqi.net/img/categories_v2/food/coffeeshop_", "suffix": ".png"}, "primary": true}], "photos": {"count": 0, "groups": []}}, "referralId": "e-0-4aeee85af964a520a2d421e3-88"}, {"reasons": {"count": 0, "items": [{"summary": "This spot is popular", "type": "general", "reasonName": "globalInteractionReason"}]}, "venue": {"id": "4a560cd1f964a5205cb41fe3", "name": "Starbucks", "location": {"address": "599 Lexington Ave", "crossStreet": "at E 52nd St", "lat": 40.75764651, "lng": -73.97101961, "labeledLatLngs": [{"label": "display", "lat": 40.75764651, "lng": -73.97101961}], "postalCode": "10022", "cc": "US", "city": "New York", "state": "NY", "country": "United States", "formattedAddress": ["599 Lexington Ave (at E 52nd St)", "New York, NY 10022", "United States"]}, "categories": [{"id": "4bf58dd8d48988d1e0931735", "name": "Coffee Shop", "pluralName": "Coffee Shops", "shortName": "Coffee Shop", "icon": {"prefix": "https://ss3.4sqi.net/img/categories_v2/food/coffeeshop_", "suffix": ".png"}, "primary": true}], "photos": {"count": 0, "groups": []}}, "referralId": "e-0-4a560cd1f964a5205cb41fe3-89"}, {"reasons": {"count": 0, "items": [{"summary": "This spot is popular", "type": "general", "reasonName": "globalInteractionReason"}]}, "venue": {"id": "4ab8d504f964a520297d20e3", "name": "Starbucks", "location": {"address": "540 Columbus Ave", "crossStreet": "at W 86th St", "lat": 40.78655573, "lng": -73.97220913, "labeledLatLngs": [{"label": "display", "lat": 40.78655573, "lng": -73.97220913}], "postalCode": "10024", "cc": "US", "city": "New York", "state": "NY", "country": "United States", "formattedAddress": ["540 Columbus Ave (at W 86th St)", "New York, NY 10024", "United States"]}, "categories": [{"id": "4bf58dd8d48988d1e0931735", "name": "Coffee Shop", "pluralName": "Coffee Shops", "shortName": "Coffee Shop", "icon": {"prefix": "https://ss3.4sqi.net/img/categories_v2/food/coffeeshop_", "suffix": ".png"}, "primary": true}], "photos": {"count": 0, "groups": []}}, "referralId": "e-0-4ab8d504f964a520297d20e3-90"}, {"reasons": {"count": 0, "items": [{"summary": "This spot is popular", "type": "general", "reasonName": "globalInteractionReason"}]}, "venue": {"id": "4af09ab3f964a52094dd21e3", "name": "Starbucks", "location": {"address": "1740 Broadway", "crossStreet": "at W 56th St", "lat": 40.7650511, "lng": -73.9817344, "labeledLatLngs": [{"label": "display", "lat": 40.7650511, "lng": -73.9817344}], "postalCode": "10019", "cc": "US", "city": "New York", "state": "NY", "country": "United States", "formattedAddress": ["1740 Broadway (at W 56th St)", "New York, NY 10019", "United States"]}, "categories": [{"id": "4bf58dd8d48988d1e0931735", "name": "Coffee Shop", "pluralName": "Coffee Shops", "shortName": "Coffee Shop", "icon": {"prefix": "https://ss3.4sqi.net/img/categories_v2/food/coffeeshop_", "suffix": ".png"}, "primary": true}], "photos": {"count": 0, "groups": []}}, "referralId": "e-0-4af09ab3f964a52094dd21e3-91"}, {"reasons": {"count": 0, "items": [{"summary": "This spot is popular", "type": "general", "reasonName": "globalInteractionReason"}]}, "venue": {"id": "4a93d972f964a520e61f20e3", "name": "Starbucks", "location": {"address": "1449 Second Avenue", "crossStreet": "at E 76th St", "lat": 40.771214, "lng": -73.956825, "labeledLatLngs": [{"label": "display", "lat": 40.771214, "lng": -73.956825}], "postalCode": "10021", "cc": "US", "city": "New York", "state": "NY", "country": "United States", "formattedAddress": ["1449 Second Avenue (at E 76th St)", "New York, NY 10021", "United States"]}, "categories": [{"id": "4bf58dd8d48988d1e0931735", "name": "Coffee Shop", "pluralName": "Coffee Shops", "shortName": "Coffee Shop", "icon": {"prefix": "https://ss3.4sqi.net/img/categories_v2/food/coffeeshop_", "suffix": ".png"}, "primary": true}], "photos": {"count": 0, "groups": []}}, "referralId": "e-0-4a93d972f964a520e61f20e3-92"}, {"reasons": {"count": 0, "items": [{"summary": "This spot is popular", "type": "general", "reasonName": "globalInteractionReason"}]}, "venue": {"id": "4a8df0c5f964a5207e1120e3", "name": "Starbucks", "location": {"address": "450 Lexington Ave", "crossStreet": "at E 45th St", "lat": 40.75302053, "lng": -73.97508865, "labeledLatLngs": [{"label": "display", "lat": 40.75302053, "lng": -73.97508865}], "postalCode": "10017", "cc": "US", "city": "New York", "state": "NY", "country": "United States", "formattedAddress": ["450 Lexington Ave (at E 45th St)", "New York, NY 10017", "United States"]}, "categories": [{"id": "4bf58dd8d48988d1e0931735", "name": "Coffee Shop", "pluralName": "Coffee Shops", "shortName": "Coffee Shop", "icon": {"prefix": "https://ss3.4sqi.net/img/categories_v2/food/coffeeshop_", "suffix": ".png"}, "primary": true}], "photos": {"count": 0, "groups": []}}, "referralId": "e-0-4a8df0c5f964a5207e1120e3-93"}, {"reasons": {"count": 0, "items": [{"summary": "This spot is popular", "type": "general", "reasonName": "globalInteractionReason"}]}, "venue": {"id": "4ab27b2df964a520576b20e3", "name": "Starbucks", "location": {"address": "280 Park Ave", "crossStreet": "at E 48th St", "lat": 40.75614188748687, "lng": -73.97505941335596, "labeledLatLngs": [{"label": "display", "lat": 40.75614188748687, "lng": -73.97505941335596}], "postalCode": "10017", "cc": "US", "city": "New York", "state": "NY", "country": "United States", "formattedAddress": ["280 Park Ave (at E 48th St)", "New York, NY 10017", "United States"]}, "categories": [{"id": "4bf58dd8d48988d1e0931735", "name": "Coffee Shop", "pluralName": "Coffee Shops", "shortName": "Coffee Shop", "icon": {"prefix": "https://ss3.4sqi.net/img/categories_v2/food/coffeeshop_", "suffix": ".png"}, "primary": true}], "photos": {"count": 0, "groups": []}}, "referralId": "e-0-4ab27b2df964a520576b20e3-94"}, {"reasons": {"count": 0, "items": [{"summary": "This spot is popular", "type": "general", "reasonName": "globalInteractionReason"}]}, "venue": {"id": "4a9bfd37f964a520a23520e3", "name": "Starbucks", "location": {"address": "943 Second Avenue", "crossStreet": "at E 50th St", "lat": 40.75497057, "lng": -73.96855471, "labeledLatLngs": [{"label": "display", "lat": 40.75497057, "lng": -73.96855471}], "postalCode": "10022", "cc": "US", "city": "New York", "state": "NY", "country": "United States", "formattedAddress": ["943 Second Avenue (at E 50th St)", "New York, NY 10022", "United States"]}, "categories": [{"id": "4bf58dd8d48988d1e0931735", "name": "Coffee Shop", "pluralName": "Coffee Shops", "shortName": "Coffee Shop", "icon": {"prefix": "https://ss3.4sqi.net/img/categories_v2/food/coffeeshop_", "suffix": ".png"}, "primary": true}], "photos": {"count": 0, "groups": []}}, "referralId": "e-0-4a9bfd37f964a520a23520e3-95"}, {"reasons": {"count": 0, "items": [{"summary": "This spot is popular", "type": "general", "reasonName": "globalInteractionReason"}]}, "venue": {"id": "4a70ef04f964a520ced81fe3", "name": "Starbucks", "location": {"address": "2853 Broadway", "crossStreet": "at W 111th St", "lat": 40.804695, "lng": -73.96667, "labeledLatLngs": [{"label": "display", "lat": 40.804695, "lng": -73.96667}], "postalCode": "10025", "cc": "US", "city": "New York", "state": "NY", "country": "United States", "formattedAddress": ["2853 Broadway (at W 111th St)", "New York, NY 10025", "United States"]}, "categories": [{"id": "4bf58dd8d48988d1e0931735", "name": "Coffee Shop", "pluralName": "Coffee Shops", "shortName": "Coffee Shop", "icon": {"prefix": "https://ss3.4sqi.net/img/categories_v2/food/coffeeshop_", "suffix": ".png"}, "primary": true}], "photos": {"count": 0, "groups": []}}, "referralId": "e-0-4a70ef04f964a520ced81fe3-96"}, {"reasons": {"count": 0, "items": [{"summary": "This spot is popular", "type": "general", "reasonName": "globalInteractionReason"}]}, "venue": {"id": "4a993262f964a5207c2d20e3", "name": "Starbucks", "location": {"address": "1378 Madison Ave", "crossStreet": "at E 96th St", "lat": 40.78714, "lng": -73.95448, "labeledLatLngs": [{"label": "display", "lat": 40.78714, "lng": -73.95448}], "postalCode": "10128", "cc": "US", "city": "New York", "state": "NY", "country": "United States", "formattedAddress": ["1378 Madison Ave (at E 96th St)", "New York, NY 10128", "United States"]}, "categories": [{"id": "4bf58dd8d48988d1e0931735", "name": "Coffee Shop", "pluralName": "Coffee Shops", "shortName": "Coffee Shop", "icon": {"prefix": "https://ss3.4sqi.net/img/categories_v2/food/coffeeshop_", "suffix": ".png"}, "primary": true}], "photos": {"count": 0, "groups": []}}, "referralId": "e-0-4a993262f964a5207c2d20e3-97"}, {"reasons": {"count": 0, "items": [{"summary": "This spot is popular", "type": "general", "reasonName": "globalInteractionReason"}]}, "venue": {"id": "4b683d00f964a520a56d2be3", "name": "Starbucks", "location": {"address": "511 Lexington Ave", "crossStreet": "btwn  E 47th & E 48th St", "lat": 40.75502, "lng": -73.97322, "labeledLatLngs": [{"label": "display", "lat": 40.75502, "lng": -73.97322}], "postalCode": "10017", "cc": "US", "city": "New York", "state": "NY", "country": "United States", "formattedAddress": ["511 Lexington Ave (btwn  E 47th & E 48th St)", "New York, NY 10017", "United States"]}, "categories": [{"id": "4bf58dd8d48988d1e0931735", "name": "Coffee Shop", "pluralName": "Coffee Shops", "shortName": "Coffee Shop", "icon": {"prefix": "https://ss3.4sqi.net/img/categories_v2/food/coffeeshop_", "suffix": ".png"}, "primary": true}], "photos": {"count": 0, "groups": []}}, "referralId": "e-0-4b683d00f964a520a56d2be3-98"}, {"reasons": {"count": 0, "items": [{"summary": "This spot is popular", "type": "general", "reasonName": "globalInteractionReason"}]}, "venue": {"id": "4ae20b16f964a5201b8a21e3", "name": "Starbucks", "location": {"address": "1117 Lexington Ave", "lat": 40.77416981, "lng": -73.95936828, "labeledLatLngs": [{"label": "display", "lat": 40.77416981, "lng": -73.95936828}], "postalCode": "10075", "cc": "US", "city": "New York", "state": "NY", "country": "United States", "formattedAddress": ["1117 Lexington Ave", "New York, NY 10075", "United States"]}, "categories": [{"id": "4bf58dd8d48988d1e0931735", "name": "Coffee Shop", "pluralName": "Coffee Shops", "shortName": "Coffee Shop", "icon": {"prefix": "https://ss3.4sqi.net/img/categories_v2/food/coffeeshop_", "suffix": ".png"}, "primary": true}], "photos": {"count": 0, "groups": []}}, "referralId": "e-0-4ae20b16f964a5201b8a21e3-99"}]}]}}