{"meta": {"code": 200, "requestId": "5d1fe82f9df1dc7a949bbbf9"}, "response": {"suggestedFilters": {"header": "Tap to show:", "filters": [{"name": "Open now", "key": "openNow"}, {"name": "$-$$$$", "key": "price"}]}, "geocode": {"what": "", "where": "staten island ny", "center": {"lat": 40.58344, "lng": -74.14959}, "displayString": "Staten Island, NY, United States", "cc": "US", "geometry": {"bounds": {"ne": {"lat": 40.651812, "lng": -74.034547}, "sw": {"lat": 40.477399, "lng": -74.25909}}}, "slug": "staten-island-new-york", "longId": "72057594043067495"}, "headerLocation": "Current map view", "headerFullLocation": "Current map view", "headerLocationGranularity": "unknown", "query": "starbucks", "totalResults": 47, "suggestedBounds": {"ne": {"lat": 40.80179524237734, "lng": -73.61429947880457}, "sw": {"lat": 40.39032996535711, "lng": -74.40947894510374}}, "groups": [{"type": "Recommended Places", "name": "recommended", "items": [{"reasons": {"count": 0, "items": [{"summary": "This spot is popular", "type": "general", "reasonName": "globalInteractionReason"}]}, "venue": {"id": "4b400dd5f964a520f0b425e3", "name": "Starbucks", "location": {"address": "373 Willis Avenue", "crossStreet": "at Stratford N", "lat": 40.780257, "lng": -73.650444, "labeledLatLngs": [{"label": "display", "lat": 40.780257, "lng": -73.650444}], "postalCode": "11577", "cc": "US", "neighborhood": "40.780271, -73.650251", "city": "Roslyn Heights", "state": "NY", "country": "United States", "formattedAddress": ["373 Willis Avenue (at Stratford N)", "Roslyn Heights, NY 11577", "United States"]}, "categories": [{"id": "4bf58dd8d48988d1e0931735", "name": "Coffee Shop", "pluralName": "Coffee Shops", "shortName": "Coffee Shop", "icon": {"prefix": "https://ss3.4sqi.net/img/categories_v2/food/coffeeshop_", "suffix": ".png"}, "primary": true}], "photos": {"count": 0, "groups": []}}, "flags": {"outsideRadius": true}, "referralId": "e-0-4b400dd5f964a520f0b425e3-0"}, {"reasons": {"count": 0, "items": [{"summary": "This spot is popular", "type": "general", "reasonName": "globalInteractionReason"}]}, "venue": {"id": "5c13bf838afbe0002de55061", "name": "Starbucks Reserve Roastery", "location": {"address": "61 9th Ave", "crossStreet": "at W 15th St", "lat": 40.74166158826782, "lng": -74.00507982765883, "labeledLatLngs": [{"label": "display", "lat": 40.74166158826782, "lng": -74.00507982765883}], "postalCode": "10011", "cc": "US", "city": "New York", "state": "NY", "country": "United States", "formattedAddress": ["61 9th Ave (at W 15th St)", "New York, NY 10011", "United States"]}, "categories": [{"id": "4bf58dd8d48988d1e0931735", "name": "Coffee Shop", "pluralName": "Coffee Shops", "shortName": "Coffee Shop", "icon": {"prefix": "https://ss3.4sqi.net/img/categories_v2/food/coffeeshop_", "suffix": ".png"}, "primary": true}], "photos": {"count": 0, "groups": []}}, "flags": {"outsideRadius": true}, "referralId": "e-0-5c13bf838afbe0002de55061-1"}, {"reasons": {"count": 0, "items": [{"summary": "This spot is popular", "type": "general", "reasonName": "globalInteractionReason"}]}, "venue": {"id": "51911bd3498e7bdd28595e25", "name": "Starbucks", "location": {"address": "106 Page Ave", "crossStreet": "at Richmond Valley Plaza", "lat": 40.52163258, "lng": -74.23553532, "labeledLatLngs": [{"label": "display", "lat": 40.52163258, "lng": -74.23553532}], "postalCode": "10309", "cc": "US", "city": "Staten Island", "state": "NY", "country": "United States", "formattedAddress": ["106 Page Ave (at Richmond Valley Plaza)", "Staten Island, NY 10309", "United States"]}, "categories": [{"id": "4bf58dd8d48988d1e0931735", "name": "Coffee Shop", "pluralName": "Coffee Shops", "shortName": "Coffee Shop", "icon": {"prefix": "https://ss3.4sqi.net/img/categories_v2/food/coffeeshop_", "suffix": ".png"}, "primary": true}], "photos": {"count": 0, "groups": []}}, "referralId": "e-0-51911bd3498e7bdd28595e25-2"}, {"reasons": {"count": 0, "items": [{"summary": "This spot is popular", "type": "general", "reasonName": "globalInteractionReason"}]}, "venue": {"id": "4b108b71f964a520887223e3", "name": "Starbucks", "location": {"address": "55-1 Riverwalk Pl", "crossStreet": "at Port Imperial Blvd", "lat": 40.78309227524006, "lng": -74.00696827221587, "labeledLatLngs": [{"label": "display", "lat": 40.78309227524006, "lng": -74.00696827221587}], "postalCode": "07093", "cc": "US", "city": "West New York", "state": "NJ", "country": "United States", "formattedAddress": ["55-1 Riverwalk Pl (at Port Imperial Blvd)", "West New York, NJ 07093", "United States"]}, "categories": [{"id": "4bf58dd8d48988d1e0931735", "name": "Coffee Shop", "pluralName": "Coffee Shops", "shortName": "Coffee Shop", "icon": {"prefix": "https://ss3.4sqi.net/img/categories_v2/food/coffeeshop_", "suffix": ".png"}, "primary": true}], "photos": {"count": 0, "groups": []}}, "flags": {"outsideRadius": true}, "referralId": "e-0-4b108b71f964a520887223e3-3"}, {"reasons": {"count": 0, "items": [{"summary": "This spot is popular", "type": "general", "reasonName": "globalInteractionReason"}]}, "venue": {"id": "4ce41f161594236ac316fb49", "name": "Starbucks Reserve", "location": {"address": "250 Vesey St", "crossStreet": "2nd Fl", "lat": 40.71417, "lng": -74.015434, "labeledLatLngs": [{"label": "display", "lat": 40.71417, "lng": -74.015434}], "postalCode": "10281", "cc": "US", "neighborhood": "Battery Park City", "city": "New York", "state": "NY", "country": "United States", "formattedAddress": ["250 Vesey St (2nd Fl)", "New York, NY 10281", "United States"]}, "categories": [{"id": "4bf58dd8d48988d1e0931735", "name": "Coffee Shop", "pluralName": "Coffee Shops", "shortName": "Coffee Shop", "icon": {"prefix": "https://ss3.4sqi.net/img/categories_v2/food/coffeeshop_", "suffix": ".png"}, "primary": true}], "photos": {"count": 0, "groups": []}}, "flags": {"outsideRadius": true}, "referralId": "e-0-4ce41f161594236ac316fb49-4"}, {"reasons": {"count": 0, "items": [{"summary": "This spot is popular", "type": "general", "reasonName": "globalInteractionReason"}]}, "venue": {"id": "5951656d446ea62da6be263b", "name": "Starbucks", "location": {"address": "939 US Route 1", "lat": 40.516371157558396, "lng": -74.37333442390833, "labeledLatLngs": [{"label": "display", "lat": 40.516371157558396, "lng": -74.37333442390833}], "postalCode": "08817", "cc": "US", "city": "Edison", "state": "NJ", "country": "United States", "formattedAddress": ["939 US Route 1", "Edison, NJ 08817", "United States"]}, "categories": [{"id": "4bf58dd8d48988d1e0931735", "name": "Coffee Shop", "pluralName": "Coffee Shops", "shortName": "Coffee Shop", "icon": {"prefix": "https://ss3.4sqi.net/img/categories_v2/food/coffeeshop_", "suffix": ".png"}, "primary": true}], "photos": {"count": 0, "groups": []}}, "flags": {"outsideRadius": true}, "referralId": "e-0-5951656d446ea62da6be263b-5"}, {"reasons": {"count": 0, "items": [{"summary": "This spot is popular", "type": "general", "reasonName": "globalInteractionReason"}]}, "venue": {"id": "4bfec70cdaf9c9b6d83ef9ef", "name": "Starbucks", "location": {"address": "2505 Richmond Ave", "crossStreet": "at Richmond Hill Rd", "lat": 40.58670600839008, "lng": -74.1679909947675, "labeledLatLngs": [{"label": "display", "lat": 40.58670600839008, "lng": -74.1679909947675}], "postalCode": "10314", "cc": "US", "city": "Staten Island", "state": "NY", "country": "United States", "formattedAddress": ["2505 Richmond Ave (at Richmond Hill Rd)", "Staten Island, NY 10314", "United States"]}, "categories": [{"id": "4bf58dd8d48988d1e0931735", "name": "Coffee Shop", "pluralName": "Coffee Shops", "shortName": "Coffee Shop", "icon": {"prefix": "https://ss3.4sqi.net/img/categories_v2/food/coffeeshop_", "suffix": ".png"}, "primary": true}], "photos": {"count": 0, "groups": []}}, "referralId": "e-0-4bfec70cdaf9c9b6d83ef9ef-6"}, {"reasons": {"count": 0, "items": [{"summary": "This spot is popular", "type": "general", "reasonName": "globalInteractionReason"}]}, "venue": {"id": "4b0eb771f964a520fd5923e3", "name": "Starbucks", "location": {"address": "265 Main Street", "crossStreet": "at Main Village Shopping Ctr", "lat": 40.4090329324944, "lng": -74.23437780427038, "labeledLatLngs": [{"label": "display", "lat": 40.4090329324944, "lng": -74.23437780427038}], "postalCode": "07747", "cc": "US", "city": "Matawan", "state": "NJ", "country": "United States", "formattedAddress": ["265 Main Street (at Main Village Shopping Ctr)", "Matawan, NJ 07747", "United States"]}, "categories": [{"id": "4bf58dd8d48988d1e0931735", "name": "Coffee Shop", "pluralName": "Coffee Shops", "shortName": "Coffee Shop", "icon": {"prefix": "https://ss3.4sqi.net/img/categories_v2/food/coffeeshop_", "suffix": ".png"}, "primary": true}], "photos": {"count": 0, "groups": []}}, "flags": {"outsideRadius": true}, "referralId": "e-0-4b0eb771f964a520fd5923e3-7"}, {"reasons": {"count": 0, "items": [{"summary": "This spot is popular", "type": "general", "reasonName": "globalInteractionReason"}]}, "venue": {"id": "4b796b49f964a5208df82ee3", "name": "Starbucks", "location": {"address": "9202 Third Avenue", "crossStreet": "at 92nd St", "lat": 40.619260073370675, "lng": -74.03288331997678, "labeledLatLngs": [{"label": "display", "lat": 40.619260073370675, "lng": -74.03288331997678}], "postalCode": "11209", "cc": "US", "neighborhood": "Fort Hamilton", "city": "Brooklyn", "state": "NY", "country": "United States", "formattedAddress": ["9202 Third Avenue (at 92nd St)", "Brooklyn, NY 11209", "United States"]}, "categories": [{"id": "4bf58dd8d48988d1e0931735", "name": "Coffee Shop", "pluralName": "Coffee Shops", "shortName": "Coffee Shop", "icon": {"prefix": "https://ss3.4sqi.net/img/categories_v2/food/coffeeshop_", "suffix": ".png"}, "primary": true}], "photos": {"count": 0, "groups": []}}, "referralId": "e-0-4b796b49f964a5208df82ee3-8"}, {"reasons": {"count": 0, "items": [{"summary": "This spot is popular", "type": "general", "reasonName": "globalInteractionReason"}]}, "venue": {"id": "57da31dacd10a259785fd379", "name": "Starbucks Reserve", "location": {"address": "10 Waverly Pl", "crossStreet": "at Mercer St", "lat": 40.72994333023035, "lng": -73.9939131949986, "labeledLatLngs": [{"label": "display", "lat": 40.72994333023035, "lng": -73.9939131949986}], "postalCode": "10003", "cc": "US", "city": "New York", "state": "NY", "country": "United States", "formattedAddress": ["10 Waverly Pl (at Mercer St)", "New York, NY 10003", "United States"]}, "categories": [{"id": "4bf58dd8d48988d1e0931735", "name": "Coffee Shop", "pluralName": "Coffee Shops", "shortName": "Coffee Shop", "icon": {"prefix": "https://ss3.4sqi.net/img/categories_v2/food/coffeeshop_", "suffix": ".png"}, "primary": true}], "photos": {"count": 0, "groups": []}}, "flags": {"outsideRadius": true}, "referralId": "e-0-57da31dacd10a259785fd379-9"}, {"reasons": {"count": 0, "items": [{"summary": "This spot is popular", "type": "general", "reasonName": "globalInteractionReason"}]}, "venue": {"id": "4b13f12bf964a520b69a23e3", "name": "Starbucks", "location": {"address": "111 Town Square Pl", "crossStreet": "at River Dr S", "lat": 40.72631, "lng": -74.03316, "labeledLatLngs": [{"label": "display", "lat": 40.72631, "lng": -74.03316}], "postalCode": "07310", "cc": "US", "city": "Jersey City", "state": "NJ", "country": "United States", "formattedAddress": ["111 Town Square Pl (at River Dr S)", "Jersey City, NJ 07310", "United States"]}, "categories": [{"id": "4bf58dd8d48988d1e0931735", "name": "Coffee Shop", "pluralName": "Coffee Shops", "shortName": "Coffee Shop", "icon": {"prefix": "https://ss3.4sqi.net/img/categories_v2/food/coffeeshop_", "suffix": ".png"}, "primary": true}], "photos": {"count": 0, "groups": []}}, "flags": {"outsideRadius": true}, "referralId": "e-0-4b13f12bf964a520b69a23e3-10"}, {"reasons": {"count": 0, "items": [{"summary": "This spot is popular", "type": "general", "reasonName": "globalInteractionReason"}]}, "venue": {"id": "4a79834af964a52020e71fe3", "name": "Starbucks", "location": {"address": "693 West Edgar Road", "crossStreet": "at Aviation Plz", "lat": 40.61974, "lng": -74.248886, "labeledLatLngs": [{"label": "display", "lat": 40.61974, "lng": -74.248886}], "postalCode": "07036", "cc": "US", "city": "Linden", "state": "NJ", "country": "United States", "formattedAddress": ["693 West Edgar Road (at Aviation Plz)", "Linden, NJ 07036", "United States"]}, "categories": [{"id": "4bf58dd8d48988d1e0931735", "name": "Coffee Shop", "pluralName": "Coffee Shops", "shortName": "Coffee Shop", "icon": {"prefix": "https://ss3.4sqi.net/img/categories_v2/food/coffeeshop_", "suffix": ".png"}, "primary": true}], "photos": {"count": 0, "groups": []}}, "flags": {"outsideRadius": true}, "referralId": "e-0-4a79834af964a52020e71fe3-11"}, {"reasons": {"count": 0, "items": [{"summary": "This spot is popular", "type": "general", "reasonName": "globalInteractionReason"}]}, "venue": {"id": "52ffd735498e1ae6fdc16de1", "name": "Starbucks", "location": {"address": "200 South Ave", "crossStreet": "at High St", "lat": 40.65469541844263, "lng": -74.30268234847907, "labeledLatLngs": [{"label": "display", "lat": 40.65469541844263, "lng": -74.30268234847907}], "postalCode": "07016", "cc": "US", "city": "Cranford", "state": "NJ", "country": "United States", "formattedAddress": ["200 South Ave (at High St)", "Cranford, NJ 07016", "United States"]}, "categories": [{"id": "4bf58dd8d48988d1e0931735", "name": "Coffee Shop", "pluralName": "Coffee Shops", "shortName": "Coffee Shop", "icon": {"prefix": "https://ss3.4sqi.net/img/categories_v2/food/coffeeshop_", "suffix": ".png"}, "primary": true}], "photos": {"count": 0, "groups": []}}, "flags": {"outsideRadius": true}, "referralId": "e-0-52ffd735498e1ae6fdc16de1-12"}, {"reasons": {"count": 0, "items": [{"summary": "This spot is popular", "type": "general", "reasonName": "globalInteractionReason"}]}, "venue": {"id": "4b92464af964a5206fef33e3", "name": "Starbucks", "location": {"address": "2698 Route 22 E", "lat": 40.68871819, "lng": -74.30721756, "labeledLatLngs": [{"label": "display", "lat": 40.68871819, "lng": -74.30721756}], "postalCode": "07083", "cc": "US", "city": "Union", "state": "NJ", "country": "United States", "formattedAddress": ["2698 Route 22 E", "Union, NJ 07083", "United States"]}, "categories": [{"id": "4bf58dd8d48988d1e0931735", "name": "Coffee Shop", "pluralName": "Coffee Shops", "shortName": "Coffee Shop", "icon": {"prefix": "https://ss3.4sqi.net/img/categories_v2/food/coffeeshop_", "suffix": ".png"}, "primary": true}], "photos": {"count": 0, "groups": []}}, "flags": {"outsideRadius": true}, "referralId": "e-0-4b92464af964a5206fef33e3-13"}, {"reasons": {"count": 0, "items": [{"summary": "This spot is popular", "type": "general", "reasonName": "globalInteractionReason"}]}, "venue": {"id": "4a9ff5d9f964a520ba3d20e3", "name": "Starbucks", "location": {"address": "55 Broad St", "crossStreet": "at Beaver St", "lat": 40.705162, "lng": -74.0113, "labeledLatLngs": [{"label": "display", "lat": 40.705162, "lng": -74.0113}], "postalCode": "10004", "cc": "US", "city": "New York", "state": "NY", "country": "United States", "formattedAddress": ["55 Broad St (at Beaver St)", "New York, NY 10004", "United States"]}, "categories": [{"id": "4bf58dd8d48988d1e0931735", "name": "Coffee Shop", "pluralName": "Coffee Shops", "shortName": "Coffee Shop", "icon": {"prefix": "https://ss3.4sqi.net/img/categories_v2/food/coffeeshop_", "suffix": ".png"}, "primary": true}], "photos": {"count": 0, "groups": []}}, "flags": {"outsideRadius": true}, "referralId": "e-0-4a9ff5d9f964a520ba3d20e3-14"}, {"reasons": {"count": 0, "items": [{"summary": "This spot is popular", "type": "general", "reasonName": "globalInteractionReason"}]}, "venue": {"id": "4aaea9a1f964a520d26220e3", "name": "Starbucks", "location": {"address": "774 US Highway 1 N", "crossStreet": "at Larsen St", "lat": 40.563442404812854, "lng": -74.29853454489394, "labeledLatLngs": [{"label": "display", "lat": 40.563442404812854, "lng": -74.29853454489394}], "postalCode": "08830", "cc": "US", "city": "Iselin", "state": "NJ", "country": "United States", "formattedAddress": ["774 US Highway 1 N (at Larsen St)", "Iselin, NJ 08830", "United States"]}, "categories": [{"id": "4bf58dd8d48988d1e0931735", "name": "Coffee Shop", "pluralName": "Coffee Shops", "shortName": "Coffee Shop", "icon": {"prefix": "https://ss3.4sqi.net/img/categories_v2/food/coffeeshop_", "suffix": ".png"}, "primary": true}], "photos": {"count": 0, "groups": []}}, "flags": {"outsideRadius": true}, "referralId": "e-0-4aaea9a1f964a520d26220e3-15"}, {"reasons": {"count": 0, "items": [{"summary": "This spot is popular", "type": "general", "reasonName": "globalInteractionReason"}]}, "venue": {"id": "546f2a1e498ec971bfa42c81", "name": "Starbucks", "location": {"address": "8973 Bay Parkway", "crossStreet": "at Caesar's Bay Shopping Cr", "lat": 40.59522682860779, "lng": -74.00001700705624, "labeledLatLngs": [{"label": "display", "lat": 40.59522682860779, "lng": -74.00001700705624}], "postalCode": "11214", "cc": "US", "city": "Brooklyn", "state": "NY", "country": "United States", "formattedAddress": ["8973 Bay Parkway (at Caesar's Bay Shopping Cr)", "Brooklyn, NY 11214", "United States"]}, "categories": [{"id": "4bf58dd8d48988d1e0931735", "name": "Coffee Shop", "pluralName": "Coffee Shops", "shortName": "Coffee Shop", "icon": {"prefix": "https://ss3.4sqi.net/img/categories_v2/food/coffeeshop_", "suffix": ".png"}, "primary": true}], "photos": {"count": 0, "groups": []}}, "flags": {"outsideRadius": true}, "referralId": "e-0-546f2a1e498ec971bfa42c81-16"}, {"reasons": {"count": 0, "items": [{"summary": "This spot is popular", "type": "general", "reasonName": "globalInteractionReason"}]}, "venue": {"id": "4b5c7f38f964a520c53229e3", "name": "Starbucks", "location": {"address": "480 Forest Ave", "crossStreet": "at Bard Ave", "lat": 40.63032034, "lng": -74.10608734, "labeledLatLngs": [{"label": "display", "lat": 40.63032034, "lng": -74.10608734}], "postalCode": "10310", "cc": "US", "city": "Staten Island", "state": "NY", "country": "United States", "formattedAddress": ["480 Forest Ave (at Bard Ave)", "Staten Island, NY 10310", "United States"]}, "categories": [{"id": "4bf58dd8d48988d1e0931735", "name": "Coffee Shop", "pluralName": "Coffee Shops", "shortName": "Coffee Shop", "icon": {"prefix": "https://ss3.4sqi.net/img/categories_v2/food/coffeeshop_", "suffix": ".png"}, "primary": true}], "photos": {"count": 0, "groups": []}}, "referralId": "e-0-4b5c7f38f964a520c53229e3-17"}, {"reasons": {"count": 0, "items": [{"summary": "This spot is popular", "type": "general", "reasonName": "globalInteractionReason"}]}, "venue": {"id": "4ee3d902a69d89905b82e7e5", "name": "Starbucks", "location": {"address": "5296 Kings Plaza", "crossStreet": "at Macy's", "lat": 40.610795, "lng": -73.919635, "labeledLatLngs": [{"label": "display", "lat": 40.610795, "lng": -73.919635}], "postalCode": "11234", "cc": "US", "neighborhood": "Mill Basin, Brooklyn, NY", "city": "Brooklyn", "state": "NY", "country": "United States", "formattedAddress": ["5296 Kings Plaza (at Macy's)", "Brooklyn, NY 11234", "United States"]}, "categories": [{"id": "4bf58dd8d48988d1e0931735", "name": "Coffee Shop", "pluralName": "Coffee Shops", "shortName": "Coffee Shop", "icon": {"prefix": "https://ss3.4sqi.net/img/categories_v2/food/coffeeshop_", "suffix": ".png"}, "primary": true}], "photos": {"count": 0, "groups": []}}, "flags": {"outsideRadius": true}, "referralId": "e-0-4ee3d902a69d89905b82e7e5-18"}, {"reasons": {"count": 0, "items": [{"summary": "This spot is popular", "type": "general", "reasonName": "globalInteractionReason"}]}, "venue": {"id": "4b2156d6f964a520543a24e3", "name": "Starbucks", "location": {"address": "651 Kapkowski Rd", "crossStreet": "at Jersey Gardens Blvd", "lat": 40.66054462, "lng": -74.17169204, "labeledLatLngs": [{"label": "display", "lat": 40.66054462, "lng": -74.17169204}], "postalCode": "07201", "cc": "US", "city": "Elizabeth", "state": "NJ", "country": "United States", "formattedAddress": ["651 Kapkowski Rd (at Jersey Gardens Blvd)", "Elizabeth, NJ 07201", "United States"]}, "categories": [{"id": "4bf58dd8d48988d1e0931735", "name": "Coffee Shop", "pluralName": "Coffee Shops", "shortName": "Coffee Shop", "icon": {"prefix": "https://ss3.4sqi.net/img/categories_v2/food/coffeeshop_", "suffix": ".png"}, "primary": true}], "photos": {"count": 0, "groups": []}}, "referralId": "e-0-4b2156d6f964a520543a24e3-19"}, {"reasons": {"count": 0, "items": [{"summary": "This spot is popular", "type": "general", "reasonName": "globalInteractionReason"}]}, "venue": {"id": "4b71f6c5f964a52010672de3", "name": "Starbucks", "location": {"address": "2070 Victory Blvd", "crossStreet": "at Bradley Ave", "lat": 40.612258385136464, "lng": -74.13257986307144, "labeledLatLngs": [{"label": "display", "lat": 40.612258385136464, "lng": -74.13257986307144}], "postalCode": "10314", "cc": "US", "city": "Staten Island", "state": "NY", "country": "United States", "formattedAddress": ["2070 Victory Blvd (at Bradley Ave)", "Staten Island, NY 10314", "United States"]}, "categories": [{"id": "4bf58dd8d48988d1e0931735", "name": "Coffee Shop", "pluralName": "Coffee Shops", "shortName": "Coffee Shop", "icon": {"prefix": "https://ss3.4sqi.net/img/categories_v2/food/coffeeshop_", "suffix": ".png"}, "primary": true}], "photos": {"count": 0, "groups": []}}, "referralId": "e-0-4b71f6c5f964a52010672de3-20"}, {"reasons": {"count": 0, "items": [{"summary": "This spot is popular", "type": "general", "reasonName": "globalInteractionReason"}]}, "venue": {"id": "4b53abbef964a5203aa727e3", "name": "Starbucks", "location": {"address": "2530 Hylan Blvd", "lat": 40.569599, "lng": -74.109722, "labeledLatLngs": [{"label": "display", "lat": 40.569599, "lng": -74.109722}], "postalCode": "10306", "cc": "US", "city": "Staten Island", "state": "NY", "country": "United States", "formattedAddress": ["2530 Hylan Blvd", "Staten Island, NY 10306", "United States"]}, "categories": [{"id": "4bf58dd8d48988d1e0931735", "name": "Coffee Shop", "pluralName": "Coffee Shops", "shortName": "Coffee Shop", "icon": {"prefix": "https://ss3.4sqi.net/img/categories_v2/food/coffeeshop_", "suffix": ".png"}, "primary": true}], "photos": {"count": 0, "groups": []}}, "referralId": "e-0-4b53abbef964a5203aa727e3-21"}, {"reasons": {"count": 0, "items": [{"summary": "This spot is popular", "type": "general", "reasonName": "globalInteractionReason"}]}, "venue": {"id": "5011633de4b05edd99c8b346", "name": "Starbucks", "location": {"address": "45 Central Ave", "crossStreet": "at Target", "lat": 40.627506, "lng": -74.30709, "labeledLatLngs": [{"label": "display", "lat": 40.627506, "lng": -74.30709}], "postalCode": "07066", "cc": "US", "city": "Clark", "state": "NJ", "country": "United States", "formattedAddress": ["45 Central Ave (at Target)", "Clark, NJ 07066", "United States"]}, "categories": [{"id": "4bf58dd8d48988d1e0931735", "name": "Coffee Shop", "pluralName": "Coffee Shops", "shortName": "Coffee Shop", "icon": {"prefix": "https://ss3.4sqi.net/img/categories_v2/food/coffeeshop_", "suffix": ".png"}, "primary": true}], "photos": {"count": 0, "groups": []}}, "flags": {"outsideRadius": true}, "referralId": "e-0-5011633de4b05edd99c8b346-22"}, {"reasons": {"count": 0, "items": [{"summary": "This spot is popular", "type": "general", "reasonName": "globalInteractionReason"}]}, "venue": {"id": "4b3febc4f964a52019b225e3", "name": "Starbucks", "location": {"address": "6423 18th Ave", "lat": 40.61917, "lng": -73.989914, "labeledLatLngs": [{"label": "display", "lat": 40.61917, "lng": -73.989914}], "postalCode": "11204", "cc": "US", "neighborhood": "Bensonhurst", "city": "Brooklyn", "state": "NY", "country": "United States", "formattedAddress": ["6423 18th Ave", "Brooklyn, NY 11204", "United States"]}, "categories": [{"id": "4bf58dd8d48988d1e0931735", "name": "Coffee Shop", "pluralName": "Coffee Shops", "shortName": "Coffee Shop", "icon": {"prefix": "https://ss3.4sqi.net/img/categories_v2/food/coffeeshop_", "suffix": ".png"}, "primary": true}], "photos": {"count": 0, "groups": []}}, "flags": {"outsideRadius": true}, "referralId": "e-0-4b3febc4f964a52019b225e3-23"}, {"reasons": {"count": 0, "items": [{"summary": "This spot is popular", "type": "general", "reasonName": "globalInteractionReason"}]}, "venue": {"id": "5bd33b9e46e1b6002c620f2d", "name": "Starbucks", "location": {"address": "4 World Trade Ctr", "crossStreet": "Wall St.", "lat": 40.7104074357571, "lng": -74.01170062726673, "labeledLatLngs": [{"label": "display", "lat": 40.7104074357571, "lng": -74.01170062726673}], "postalCode": "10007", "cc": "US", "city": "New York", "state": "NY", "country": "United States", "formattedAddress": ["4 World Trade Ctr (Wall St.)", "New York, NY 10007", "United States"]}, "categories": [{"id": "4bf58dd8d48988d1e0931735", "name": "Coffee Shop", "pluralName": "Coffee Shops", "shortName": "Coffee Shop", "icon": {"prefix": "https://ss3.4sqi.net/img/categories_v2/food/coffeeshop_", "suffix": ".png"}, "primary": true}], "photos": {"count": 0, "groups": []}}, "flags": {"outsideRadius": true}, "referralId": "e-0-5bd33b9e46e1b6002c620f2d-24"}, {"reasons": {"count": 0, "items": [{"summary": "This spot is popular", "type": "general", "reasonName": "globalInteractionReason"}]}, "venue": {"id": "55457072498e777ecbb328be", "name": "Starbucks", "location": {"address": "345 N Ave E", "crossStreet": "at Elizabeth Ave", "lat": 40.6581991403878, "lng": -74.29116248299438, "labeledLatLngs": [{"label": "display", "lat": 40.6581991403878, "lng": -74.29116248299438}], "postalCode": "07016", "cc": "US", "city": "Cranford", "state": "NJ", "country": "United States", "formattedAddress": ["345 N Ave E (at Elizabeth Ave)", "Cranford, NJ 07016", "United States"]}, "categories": [{"id": "4bf58dd8d48988d1e0931735", "name": "Coffee Shop", "pluralName": "Coffee Shops", "shortName": "Coffee Shop", "icon": {"prefix": "https://ss3.4sqi.net/img/categories_v2/food/coffeeshop_", "suffix": ".png"}, "primary": true}], "photos": {"count": 0, "groups": []}}, "flags": {"outsideRadius": true}, "referralId": "e-0-55457072498e777ecbb328be-25"}, {"reasons": {"count": 0, "items": [{"summary": "This spot is popular", "type": "general", "reasonName": "globalInteractionReason"}]}, "venue": {"id": "4fae7a21e4b06952df7f3621", "name": "Starbucks", "location": {"address": "2754 Hylan Blvd", "crossStreet": "at Stop & Shop", "lat": 40.564137, "lng": -74.114275, "labeledLatLngs": [{"label": "display", "lat": 40.564137, "lng": -74.114275}], "postalCode": "10306", "cc": "US", "city": "Staten Island", "state": "NY", "country": "United States", "formattedAddress": ["2754 Hylan Blvd (at Stop & Shop)", "Staten Island, NY 10306", "United States"]}, "categories": [{"id": "4bf58dd8d48988d1e0931735", "name": "Coffee Shop", "pluralName": "Coffee Shops", "shortName": "Coffee Shop", "icon": {"prefix": "https://ss3.4sqi.net/img/categories_v2/food/coffeeshop_", "suffix": ".png"}, "primary": true}], "photos": {"count": 0, "groups": []}}, "referralId": "e-0-4fae7a21e4b06952df7f3621-26"}, {"reasons": {"count": 0, "items": [{"summary": "This spot is popular", "type": "general", "reasonName": "globalInteractionReason"}]}, "venue": {"id": "4ba2836cf964a520d4ff37e3", "name": "Starbucks", "location": {"address": "250 Woodbridge Center Dr", "crossStreet": "at Woodbridge Center", "lat": 40.55643798, "lng": -74.29913001, "labeledLatLngs": [{"label": "display", "lat": 40.55643798, "lng": -74.29913001}], "postalCode": "70951", "cc": "US", "city": "Woodbridge", "state": "NJ", "country": "United States", "formattedAddress": ["250 Woodbridge Center Dr (at Woodbridge Center)", "Woodbridge, NJ 70951", "United States"]}, "categories": [{"id": "4bf58dd8d48988d1e0931735", "name": "Coffee Shop", "pluralName": "Coffee Shops", "shortName": "Coffee Shop", "icon": {"prefix": "https://ss3.4sqi.net/img/categories_v2/food/coffeeshop_", "suffix": ".png"}, "primary": true}], "photos": {"count": 0, "groups": []}}, "flags": {"outsideRadius": true}, "referralId": "e-0-4ba2836cf964a520d4ff37e3-27"}, {"reasons": {"count": 0, "items": [{"summary": "This spot is popular", "type": "general", "reasonName": "globalInteractionReason"}]}, "venue": {"id": "58276af2abffa17aebea675d", "name": "Starbucks", "location": {"address": "1243 Woodrow Rd", "crossStreet": "at Woodrow Shopping Plz", "lat": 40.54215338058496, "lng": -74.2070673400222, "labeledLatLngs": [{"label": "display", "lat": 40.54215338058496, "lng": -74.2070673400222}], "postalCode": "10312", "cc": "US", "city": "Staten Island", "state": "NY", "country": "United States", "formattedAddress": ["1243 Woodrow Rd (at Woodrow Shopping Plz)", "Staten Island, NY 10312", "United States"]}, "categories": [{"id": "4bf58dd8d48988d1e0931735", "name": "Coffee Shop", "pluralName": "Coffee Shops", "shortName": "Coffee Shop", "icon": {"prefix": "https://ss3.4sqi.net/img/categories_v2/food/coffeeshop_", "suffix": ".png"}, "primary": true}], "photos": {"count": 0, "groups": []}}, "referralId": "e-0-58276af2abffa17aebea675d-28"}, {"reasons": {"count": 0, "items": [{"summary": "This spot is popular", "type": "general", "reasonName": "globalInteractionReason"}]}, "venue": {"id": "5bf0290d446ea6002c8f880f", "name": "Starbucks Coffee", "location": {"address": "In Front of Gate C84", "lat": 40.693934, "lng": -74.172708, "labeledLatLngs": [{"label": "display", "lat": 40.693934, "lng": -74.172708}], "postalCode": "07114", "cc": "US", "city": "Newark", "state": "NJ", "country": "United States", "formattedAddress": ["In Front of Gate C84", "Newark, NJ 07114", "United States"]}, "categories": [{"id": "4bf58dd8d48988d1e0931735", "name": "Coffee Shop", "pluralName": "Coffee Shops", "shortName": "Coffee Shop", "icon": {"prefix": "https://ss3.4sqi.net/img/categories_v2/food/coffeeshop_", "suffix": ".png"}, "primary": true}], "photos": {"count": 0, "groups": []}}, "flags": {"outsideRadius": true}, "referralId": "e-0-5bf0290d446ea6002c8f880f-29"}, {"reasons": {"count": 0, "items": [{"summary": "This spot is popular", "type": "general", "reasonName": "globalInteractionReason"}]}, "venue": {"id": "4b242ae5f964a520b76224e3", "name": "Starbucks", "location": {"address": "1971 86th St", "crossStreet": "at 20th Ave", "lat": 40.60492502971137, "lng": -73.9986815620759, "labeledLatLngs": [{"label": "display", "lat": 40.60492502971137, "lng": -73.9986815620759}], "postalCode": "11214", "cc": "US", "city": "Brooklyn", "state": "NY", "country": "United States", "formattedAddress": ["1971 86th St (at 20th Ave)", "Brooklyn, NY 11214", "United States"]}, "categories": [{"id": "4bf58dd8d48988d1e0931735", "name": "Coffee Shop", "pluralName": "Coffee Shops", "shortName": "Coffee Shop", "icon": {"prefix": "https://ss3.4sqi.net/img/categories_v2/food/coffeeshop_", "suffix": ".png"}, "primary": true}], "photos": {"count": 0, "groups": []}}, "flags": {"outsideRadius": true}, "referralId": "e-0-4b242ae5f964a520b76224e3-30"}, {"reasons": {"count": 0, "items": [{"summary": "This spot is popular", "type": "general", "reasonName": "globalInteractionReason"}]}, "venue": {"id": "4abed54df964a5202a9020e3", "name": "Starbucks", "location": {"address": "514 86th St", "crossStreet": "btwn 5th & Gelston Ave", "lat": 40.62111098251337, "lng": -74.02591645717621, "labeledLatLngs": [{"label": "display", "lat": 40.62111098251337, "lng": -74.02591645717621}], "postalCode": "11209", "cc": "US", "city": "Brooklyn", "state": "NY", "country": "United States", "formattedAddress": ["514 86th St (btwn 5th & Gelston Ave)", "Brooklyn, NY 11209", "United States"]}, "categories": [{"id": "4bf58dd8d48988d1e0931735", "name": "Coffee Shop", "pluralName": "Coffee Shops", "shortName": "Coffee Shop", "icon": {"prefix": "https://ss3.4sqi.net/img/categories_v2/food/coffeeshop_", "suffix": ".png"}, "primary": true}], "photos": {"count": 0, "groups": []}}, "flags": {"outsideRadius": true}, "referralId": "e-0-4abed54df964a5202a9020e3-31"}, {"reasons": {"count": 0, "items": [{"summary": "This spot is popular", "type": "general", "reasonName": "globalInteractionReason"}]}, "venue": {"id": "4ae35fe1f964a520319421e3", "name": "Starbucks", "location": {"address": "7419 3rd Ave", "crossStreet": "at 75th St", "lat": 40.63147132540194, "lng": -74.02760484644702, "labeledLatLngs": [{"label": "display", "lat": 40.63147132540194, "lng": -74.02760484644702}], "postalCode": "11209", "cc": "US", "city": "Brooklyn", "state": "NY", "country": "United States", "formattedAddress": ["7419 3rd Ave (at 75th St)", "Brooklyn, NY 11209", "United States"]}, "categories": [{"id": "4bf58dd8d48988d1e0931735", "name": "Coffee Shop", "pluralName": "Coffee Shops", "shortName": "Coffee Shop", "icon": {"prefix": "https://ss3.4sqi.net/img/categories_v2/food/coffeeshop_", "suffix": ".png"}, "primary": true}], "photos": {"count": 0, "groups": []}}, "flags": {"outsideRadius": true}, "referralId": "e-0-4ae35fe1f964a520319421e3-32"}, {"reasons": {"count": 0, "items": [{"summary": "This spot is popular", "type": "general", "reasonName": "globalInteractionReason"}]}, "venue": {"id": "4b522de2f964a520c36d27e3", "name": "Starbucks", "location": {"address": "3035 Cropsey Ave", "crossStreet": "at Hart Pl", "lat": 40.58122896, "lng": -73.98545095, "labeledLatLngs": [{"label": "display", "lat": 40.58122896, "lng": -73.98545095}], "postalCode": "11224", "cc": "US", "city": "Brooklyn", "state": "NY", "country": "United States", "formattedAddress": ["3035 Cropsey Ave (at Hart Pl)", "Brooklyn, NY 11224", "United States"]}, "categories": [{"id": "4bf58dd8d48988d1e0931735", "name": "Coffee Shop", "pluralName": "Coffee Shops", "shortName": "Coffee Shop", "icon": {"prefix": "https://ss3.4sqi.net/img/categories_v2/food/coffeeshop_", "suffix": ".png"}, "primary": true}], "photos": {"count": 0, "groups": []}}, "flags": {"outsideRadius": true}, "referralId": "e-0-4b522de2f964a520c36d27e3-33"}, {"reasons": {"count": 0, "items": [{"summary": "This spot is popular", "type": "general", "reasonName": "globalInteractionReason"}]}, "venue": {"id": "4fc94581d4f24895b4467e18", "name": "Starbucks", "location": {"address": "1000 Morris Ave", "crossStreet": "at Nancy Thompson Library - Kean University", "lat": 40.677939, "lng": -74.233471, "labeledLatLngs": [{"label": "display", "lat": 40.677939, "lng": -74.233471}], "postalCode": "07083", "cc": "US", "city": "Union", "state": "NJ", "country": "United States", "formattedAddress": ["1000 Morris Ave (at Nancy Thompson Library - Kean University)", "Union, NJ 07083", "United States"]}, "categories": [{"id": "4bf58dd8d48988d1e0931735", "name": "Coffee Shop", "pluralName": "Coffee Shops", "shortName": "Coffee Shop", "icon": {"prefix": "https://ss3.4sqi.net/img/categories_v2/food/coffeeshop_", "suffix": ".png"}, "primary": true}], "photos": {"count": 0, "groups": []}}, "flags": {"outsideRadius": true}, "referralId": "e-0-4fc94581d4f24895b4467e18-34"}, {"reasons": {"count": 0, "items": [{"summary": "This spot is popular", "type": "general", "reasonName": "globalInteractionReason"}]}, "venue": {"id": "4b4efc0ef964a52015f826e3", "name": "Starbucks", "location": {"address": "1 State Route 27", "crossStreet": "at Colonial Village", "lat": 40.55523, "lng": -74.34573, "labeledLatLngs": [{"label": "display", "lat": 40.55523, "lng": -74.34573}], "postalCode": "08820", "cc": "US", "city": "Edison", "state": "NJ", "country": "United States", "formattedAddress": ["1 State Route 27 (at Colonial Village)", "Edison, NJ 08820", "United States"]}, "categories": [{"id": "4bf58dd8d48988d1e0931735", "name": "Coffee Shop", "pluralName": "Coffee Shops", "shortName": "Coffee Shop", "icon": {"prefix": "https://ss3.4sqi.net/img/categories_v2/food/coffeeshop_", "suffix": ".png"}, "primary": true}], "photos": {"count": 0, "groups": []}}, "flags": {"outsideRadius": true}, "referralId": "e-0-4b4efc0ef964a52015f826e3-35"}, {"reasons": {"count": 0, "items": [{"summary": "This spot is popular", "type": "general", "reasonName": "globalInteractionReason"}]}, "venue": {"id": "50afbb00e4b0d8a9f00a8148", "name": "Starbucks", "location": {"address": "2655 Richmond Ave", "crossStreet": "at Staten Island Mall", "lat": 40.58161602, "lng": -74.16644026, "labeledLatLngs": [{"label": "display", "lat": 40.58161602, "lng": -74.16644026}], "postalCode": "10314", "cc": "US", "city": "Staten Island", "state": "NY", "country": "United States", "formattedAddress": ["2655 Richmond Ave (at Staten Island Mall)", "Staten Island, NY 10314", "United States"]}, "categories": [{"id": "4bf58dd8d48988d1e0931735", "name": "Coffee Shop", "pluralName": "Coffee Shops", "shortName": "Coffee Shop", "icon": {"prefix": "https://ss3.4sqi.net/img/categories_v2/food/coffeeshop_", "suffix": ".png"}, "primary": true}], "photos": {"count": 0, "groups": []}}, "referralId": "e-0-50afbb00e4b0d8a9f00a8148-36"}, {"reasons": {"count": 0, "items": [{"summary": "This spot is popular", "type": "general", "reasonName": "globalInteractionReason"}]}, "venue": {"id": "4e4dcb41bd41b76bef9336c7", "name": "Starbucks", "location": {"address": "2900 Veterans Rd W", "lat": 40.58492789744759, "lng": -74.23521079903678, "labeledLatLngs": [{"label": "display", "lat": 40.58492789744759, "lng": -74.23521079903678}], "postalCode": "10309", "cc": "US", "city": "Staten Island", "state": "NJ", "country": "United States", "formattedAddress": ["2900 Veterans Rd W", "Staten Island, NJ 10309", "United States"]}, "categories": [{"id": "4bf58dd8d48988d1e0931735", "name": "Coffee Shop", "pluralName": "Coffee Shops", "shortName": "Coffee Shop", "icon": {"prefix": "https://ss3.4sqi.net/img/categories_v2/food/coffeeshop_", "suffix": ".png"}, "primary": true}], "photos": {"count": 0, "groups": []}}, "flags": {"outsideRadius": true}, "referralId": "e-0-4e4dcb41bd41b76bef9336c7-37"}, {"reasons": {"count": 0, "items": [{"summary": "This spot is popular", "type": "general", "reasonName": "globalInteractionReason"}]}, "venue": {"id": "54b6590d498ec9d668efc6e8", "name": "Starbucks", "location": {"lat": 40.66450976054879, "lng": -74.0698996702804, "labeledLatLngs": [{"label": "display", "lat": 40.66450976054879, "lng": -74.0698996702804}], "cc": "US", "city": "Bayonne", "state": "NJ", "country": "United States", "formattedAddress": ["Bayonne, NJ", "United States"]}, "categories": [{"id": "4bf58dd8d48988d1e0931735", "name": "Coffee Shop", "pluralName": "Coffee Shops", "shortName": "Coffee Shop", "icon": {"prefix": "https://ss3.4sqi.net/img/categories_v2/food/coffeeshop_", "suffix": ".png"}, "primary": true}], "photos": {"count": 0, "groups": []}}, "referralId": "e-0-54b6590d498ec9d668efc6e8-38"}, {"reasons": {"count": 0, "items": [{"summary": "This spot is popular", "type": "general", "reasonName": "globalInteractionReason"}]}, "venue": {"id": "5286906a498e3289da67743c", "name": "Starbucks", "location": {"address": "2873 Richmond Ave", "crossStreet": "at Target", "lat": 40.57484790030712, "lng": -74.16655540466309, "labeledLatLngs": [{"label": "display", "lat": 40.57484790030712, "lng": -74.16655540466309}], "postalCode": "10314", "cc": "US", "city": "Staten Island", "state": "NY", "country": "United States", "formattedAddress": ["2873 Richmond Ave (at Target)", "Staten Island, NY 10314", "United States"]}, "categories": [{"id": "4bf58dd8d48988d1e0931735", "name": "Coffee Shop", "pluralName": "Coffee Shops", "shortName": "Coffee Shop", "icon": {"prefix": "https://ss3.4sqi.net/img/categories_v2/food/coffeeshop_", "suffix": ".png"}, "primary": true}], "photos": {"count": 0, "groups": []}}, "referralId": "e-0-5286906a498e3289da67743c-39"}, {"reasons": {"count": 0, "items": [{"summary": "This spot is popular", "type": "general", "reasonName": "globalInteractionReason"}]}, "venue": {"id": "4c3b2b78def90f47e575fd2d", "name": "Starbucks", "location": {"address": "College of Staten Island Library", "crossStreet": "at Loop Rd", "lat": 40.5977818709678, "lng": -74.1482042788413, "labeledLatLngs": [{"label": "display", "lat": 40.5977818709678, "lng": -74.1482042788413}], "postalCode": "10314", "cc": "US", "city": "Staten Island", "state": "NY", "country": "United States", "formattedAddress": ["College of Staten Island Library (at Loop Rd)", "Staten Island, NY 10314", "United States"]}, "categories": [{"id": "4bf58dd8d48988d1e0931735", "name": "Coffee Shop", "pluralName": "Coffee Shops", "shortName": "Coffee Shop", "icon": {"prefix": "https://ss3.4sqi.net/img/categories_v2/food/coffeeshop_", "suffix": ".png"}, "primary": true}], "photos": {"count": 0, "groups": []}}, "referralId": "e-0-4c3b2b78def90f47e575fd2d-40"}, {"reasons": {"count": 0, "items": [{"summary": "This spot is popular", "type": "general", "reasonName": "globalInteractionReason"}]}, "venue": {"id": "4a7d7985f964a520afee1fe3", "name": "Starbucks", "location": {"address": "New Dorp Lane", "lat": 40.60639331431979, "lng": -74.07868209330921, "labeledLatLngs": [{"label": "display", "lat": 40.60639331431979, "lng": -74.07868209330921}], "postalCode": "10306", "cc": "US", "neighborhood": "Manorville", "city": "Staten Island", "state": "NY", "country": "United States", "formattedAddress": ["New Dorp Lane", "Staten Island, NY 10306", "United States"]}, "categories": [{"id": "4bf58dd8d48988d1e0931735", "name": "Coffee Shop", "pluralName": "Coffee Shops", "shortName": "Coffee Shop", "icon": {"prefix": "https://ss3.4sqi.net/img/categories_v2/food/coffeeshop_", "suffix": ".png"}, "primary": true}], "photos": {"count": 0, "groups": []}}, "referralId": "e-0-4a7d7985f964a520afee1fe3-41"}, {"reasons": {"count": 0, "items": [{"summary": "This spot is popular", "type": "general", "reasonName": "globalInteractionReason"}]}, "venue": {"id": "4bfc55f2da7120a138e949fd", "name": "Starbucks", "location": {"address": "2900 Veterans Rd W", "crossStreet": "at Target", "lat": 40.52828, "lng": -74.233315, "labeledLatLngs": [{"label": "display", "lat": 40.52828, "lng": -74.233315}], "postalCode": "10309", "cc": "US", "city": "Staten Island", "state": "NY", "country": "United States", "formattedAddress": ["2900 Veterans Rd W (at Target)", "Staten Island, NY 10309", "United States"]}, "categories": [{"id": "4bf58dd8d48988d1e0931735", "name": "Coffee Shop", "pluralName": "Coffee Shops", "shortName": "Coffee Shop", "icon": {"prefix": "https://ss3.4sqi.net/img/categories_v2/food/coffeeshop_", "suffix": ".png"}, "primary": true}], "photos": {"count": 0, "groups": []}}, "referralId": "e-0-4bfc55f2da7120a138e949fd-42"}, {"reasons": {"count": 0, "items": [{"summary": "This spot is popular", "type": "general", "reasonName": "globalInteractionReason"}]}, "venue": {"id": "4bab9736f964a520eeb63ae3", "name": "Starbucks", "location": {"address": "NJ Turnpike, Mile Marker 93", "crossStreet": "Grover Cleveland Service Area", "lat": 40.55700408431101, "lng": -74.26340621662602, "labeledLatLngs": [{"label": "display", "lat": 40.55700408431101, "lng": -74.26340621662602}], "postalCode": "07095", "cc": "US", "city": "Woodbridge", "state": "NJ", "country": "United States", "formattedAddress": ["NJ Turnpike, Mile Marker 93 (Grover Cleveland Service Area)", "Woodbridge, NJ 07095", "United States"]}, "categories": [{"id": "4bf58dd8d48988d1e0931735", "name": "Coffee Shop", "pluralName": "Coffee Shops", "shortName": "Coffee Shop", "icon": {"prefix": "https://ss3.4sqi.net/img/categories_v2/food/coffeeshop_", "suffix": ".png"}, "primary": true}], "photos": {"count": 0, "groups": []}}, "flags": {"outsideRadius": true}, "referralId": "e-0-4bab9736f964a520eeb63ae3-43"}, {"reasons": {"count": 0, "items": [{"summary": "This spot is popular", "type": "general", "reasonName": "globalInteractionReason"}]}, "venue": {"id": "4bcf0d29c564ef3b1727eff0", "name": "Starbucks", "location": {"address": "Interstate-95 S, Milepost 92.9", "crossStreet": "at Thomas Edison Service Area", "lat": 40.56003554554242, "lng": -74.26449503381184, "labeledLatLngs": [{"label": "display", "lat": 40.56003554554242, "lng": -74.26449503381184}], "postalCode": "07095", "cc": "US", "city": "Woodbridge", "state": "NJ", "country": "United States", "formattedAddress": ["Interstate-95 S, Milepost 92.9 (at Thomas Edison Service Area)", "Woodbridge, NJ 07095", "United States"]}, "categories": [{"id": "4bf58dd8d48988d1e0931735", "name": "Coffee Shop", "pluralName": "Coffee Shops", "shortName": "Coffee Shop", "icon": {"prefix": "https://ss3.4sqi.net/img/categories_v2/food/coffeeshop_", "suffix": ".png"}, "primary": true}], "photos": {"count": 0, "groups": []}}, "flags": {"outsideRadius": true}, "referralId": "e-0-4bcf0d29c564ef3b1727eff0-44"}, {"reasons": {"count": 0, "items": [{"summary": "This spot is popular", "type": "general", "reasonName": "globalInteractionReason"}]}, "venue": {"id": "528bc3d311d22e71131c204c", "name": "Starbucks At Target", "location": {"crossStreet": "at Target", "lat": 40.57484423943144, "lng": -74.16770401647645, "labeledLatLngs": [{"label": "display", "lat": 40.57484423943144, "lng": -74.16770401647645}], "cc": "US", "city": "Staten Island", "state": "NY", "country": "United States", "formattedAddress": ["at Target", "Staten Island, NY", "United States"]}, "categories": [{"id": "4bf58dd8d48988d1e0931735", "name": "Coffee Shop", "pluralName": "Coffee Shops", "shortName": "Coffee Shop", "icon": {"prefix": "https://ss3.4sqi.net/img/categories_v2/food/coffeeshop_", "suffix": ".png"}, "primary": true}], "photos": {"count": 0, "groups": []}}, "referralId": "e-0-528bc3d311d22e71131c204c-45"}, {"reasons": {"count": 0, "items": [{"summary": "This spot is popular", "type": "general", "reasonName": "globalInteractionReason"}]}, "venue": {"id": "4fc9457ed4f24895b4467a49", "name": "Starbucks", "location": {"address": "1 Lefante Way", "crossStreet": "at Stop & Shop", "lat": 40.666874, "lng": -74.103845, "labeledLatLngs": [{"label": "display", "lat": 40.666874, "lng": -74.103845}], "postalCode": "07002", "cc": "US", "city": "Bayonne", "state": "NJ", "country": "United States", "formattedAddress": ["1 Lefante Way (at Stop & Shop)", "Bayonne, NJ 07002", "United States"]}, "categories": [{"id": "4bf58dd8d48988d1e0931735", "name": "Coffee Shop", "pluralName": "Coffee Shops", "shortName": "Coffee Shop", "icon": {"prefix": "https://ss3.4sqi.net/img/categories_v2/food/coffeeshop_", "suffix": ".png"}, "primary": true}], "photos": {"count": 0, "groups": []}}, "flags": {"outsideRadius": true}, "referralId": "e-0-4fc9457ed4f24895b4467a49-46"}]}]}}