{"meta": {"code": 200, "requestId": "5d1fe806c5309300394d28ea"}, "response": {"suggestedFilters": {"header": "Tap to show:", "filters": [{"name": "Open now", "key": "openNow"}, {"name": "$-$$$$", "key": "price"}]}, "geocode": {"what": "", "where": "queens ny", "center": {"lat": 40.68149, "lng": -73.83652}, "displayString": "Queens, NY, United States", "cc": "US", "geometry": {"bounds": {"ne": {"lat": 40.805479999999996, "lng": -73.700272}, "sw": {"lat": 40.53832969648848, "lng": -73.962795}}}, "slug": "queens-new-york", "longId": "72057594043061209"}, "headerLocation": "Queens", "headerFullLocation": "Queens", "headerLocationGranularity": "city", "query": "starbucks", "totalResults": 53, "suggestedBounds": {"ne": {"lat": 40.7920481, "lng": -73.68638792927484}, "sw": {"lat": 40.60216390000001, "lng": -73.97102548522824}}, "groups": [{"type": "Recommended Places", "name": "recommended", "items": [{"reasons": {"count": 0, "items": [{"summary": "This spot is popular", "type": "general", "reasonName": "globalInteractionReason"}]}, "venue": {"id": "4a9efc7af964a520103c20e3", "name": "Starbucks", "location": {"address": "157-41 Cross Bay Blvd.", "crossStreet": "at 157th Ave", "lat": 40.66139329280071, "lng": -73.84006849857825, "labeledLatLngs": [{"label": "display", "lat": 40.66139329280071, "lng": -73.84006849857825}], "postalCode": "11414", "cc": "US", "city": "Howard Beach", "state": "NY", "country": "United States", "formattedAddress": ["157-41 Cross Bay Blvd. (at 157th Ave)", "Howard Beach, NY 11414", "United States"]}, "categories": [{"id": "4bf58dd8d48988d1e0931735", "name": "Coffee Shop", "pluralName": "Coffee Shops", "shortName": "Coffee Shop", "icon": {"prefix": "https://ss3.4sqi.net/img/categories_v2/food/coffeeshop_", "suffix": ".png"}, "primary": true}], "photos": {"count": 0, "groups": []}}, "referralId": "e-0-4a9efc7af964a520103c20e3-0"}, {"reasons": {"count": 0, "items": [{"summary": "This spot is popular", "type": "general", "reasonName": "globalInteractionReason"}]}, "venue": {"id": "45ac15a4f964a52061411fe3", "name": "Starbucks", "location": {"address": "10102 Queens Blvd", "lat": 40.726219, "lng": -73.852728, "labeledLatLngs": [{"label": "display", "lat": 40.726219, "lng": -73.852728}], "postalCode": "11375", "cc": "US", "city": "Forest Hills", "state": "NY", "country": "United States", "formattedAddress": ["10102 Queens Blvd", "Forest Hills, NY 11375", "United States"]}, "categories": [{"id": "4bf58dd8d48988d1e0931735", "name": "Coffee Shop", "pluralName": "Coffee Shops", "shortName": "Coffee Shop", "icon": {"prefix": "https://ss3.4sqi.net/img/categories_v2/food/coffeeshop_", "suffix": ".png"}, "primary": true}], "photos": {"count": 0, "groups": []}}, "referralId": "e-0-45ac15a4f964a52061411fe3-1"}, {"reasons": {"count": 0, "items": [{"summary": "This spot is popular", "type": "general", "reasonName": "globalInteractionReason"}]}, "venue": {"id": "51323ff4e4b006d9cdccfabc", "name": "Starbucks", "location": {"address": "86-51 Broadway", "crossStreet": "btwn Justice Ave & Queens Blvd", "lat": 40.73730547, "lng": -73.87721925, "labeledLatLngs": [{"label": "display", "lat": 40.73730547, "lng": -73.87721925}], "postalCode": "11373", "cc": "US", "city": "Elmhurst", "state": "NY", "country": "United States", "formattedAddress": ["86-51 Broadway (btwn Justice Ave & Queens Blvd)", "Elmhurst, NY 11373", "United States"]}, "categories": [{"id": "4bf58dd8d48988d1e0931735", "name": "Coffee Shop", "pluralName": "Coffee Shops", "shortName": "Coffee Shop", "icon": {"prefix": "https://ss3.4sqi.net/img/categories_v2/food/coffeeshop_", "suffix": ".png"}, "primary": true}], "photos": {"count": 0, "groups": []}}, "referralId": "e-0-51323ff4e4b006d9cdccfabc-2"}, {"reasons": {"count": 0, "items": [{"summary": "This spot is popular", "type": "general", "reasonName": "globalInteractionReason"}]}, "venue": {"id": "5432edbe498e591cd8fd9c13", "name": "Starbucks", "location": {"address": "132-40 Metropolitan Ave", "crossStreet": "at Jamaica Ave", "lat": 40.702583301775555, "lng": -73.8185413918591, "labeledLatLngs": [{"label": "display", "lat": 40.702583301775555, "lng": -73.8185413918591}], "postalCode": "11415", "cc": "US", "city": "Richmond Hill", "state": "NY", "country": "United States", "formattedAddress": ["132-40 Metropolitan Ave (at Jamaica Ave)", "Richmond Hill, NY 11415", "United States"]}, "categories": [{"id": "4bf58dd8d48988d1e0931735", "name": "Coffee Shop", "pluralName": "Coffee Shops", "shortName": "Coffee Shop", "icon": {"prefix": "https://ss3.4sqi.net/img/categories_v2/food/coffeeshop_", "suffix": ".png"}, "primary": true}], "photos": {"count": 0, "groups": []}}, "referralId": "e-0-5432edbe498e591cd8fd9c13-3"}, {"reasons": {"count": 0, "items": [{"summary": "This spot is popular", "type": "general", "reasonName": "globalInteractionReason"}]}, "venue": {"id": "4bc8e36bfb84c9b613f8193e", "name": "Starbucks", "location": {"address": "138-11 20th Ave", "lat": 40.78196653110998, "lng": -73.8297175532178, "labeledLatLngs": [{"label": "display", "lat": 40.78196653110998, "lng": -73.8297175532178}], "postalCode": "11356", "cc": "US", "city": "College Point", "state": "NY", "country": "United States", "formattedAddress": ["138-11 20th Ave", "College Point, NY 11356", "United States"]}, "categories": [{"id": "4bf58dd8d48988d1e0931735", "name": "Coffee Shop", "pluralName": "Coffee Shops", "shortName": "Coffee Shop", "icon": {"prefix": "https://ss3.4sqi.net/img/categories_v2/food/coffeeshop_", "suffix": ".png"}, "primary": true}], "photos": {"count": 0, "groups": []}}, "referralId": "e-0-4bc8e36bfb84c9b613f8193e-4"}, {"reasons": {"count": 0, "items": [{"summary": "This spot is popular", "type": "general", "reasonName": "globalInteractionReason"}]}, "venue": {"id": "57081528498ed6d5396dab41", "name": "Starbucks", "location": {"address": "92-77 Queens Blvd", "lat": 40.73226079885255, "lng": -73.86623057929266, "labeledLatLngs": [{"label": "display", "lat": 40.73226079885255, "lng": -73.86623057929266}], "postalCode": "11374", "cc": "US", "city": "Rego Park", "state": "NY", "country": "United States", "formattedAddress": ["92-77 Queens Blvd", "Rego Park, NY 11374", "United States"]}, "categories": [{"id": "4bf58dd8d48988d1e0931735", "name": "Coffee Shop", "pluralName": "Coffee Shops", "shortName": "Coffee Shop", "icon": {"prefix": "https://ss3.4sqi.net/img/categories_v2/food/coffeeshop_", "suffix": ".png"}, "primary": true}], "photos": {"count": 0, "groups": []}}, "referralId": "e-0-57081528498ed6d5396dab41-5"}, {"reasons": {"count": 0, "items": [{"summary": "This spot is popular", "type": "general", "reasonName": "globalInteractionReason"}]}, "venue": {"id": "4ee3d902a69d89905b82e7e5", "name": "Starbucks", "location": {"address": "5296 Kings Plaza", "crossStreet": "at Macy's", "lat": 40.610795, "lng": -73.919635, "labeledLatLngs": [{"label": "display", "lat": 40.610795, "lng": -73.919635}], "postalCode": "11234", "cc": "US", "neighborhood": "Mill Basin, Brooklyn, NY", "city": "Brooklyn", "state": "NY", "country": "United States", "formattedAddress": ["5296 Kings Plaza (at Macy's)", "Brooklyn, NY 11234", "United States"]}, "categories": [{"id": "4bf58dd8d48988d1e0931735", "name": "Coffee Shop", "pluralName": "Coffee Shops", "shortName": "Coffee Shop", "icon": {"prefix": "https://ss3.4sqi.net/img/categories_v2/food/coffeeshop_", "suffix": ".png"}, "primary": true}], "photos": {"count": 0, "groups": []}}, "flags": {"outsideRadius": true}, "referralId": "e-0-4ee3d902a69d89905b82e7e5-6"}, {"reasons": {"count": 0, "items": [{"summary": "This spot is popular", "type": "general", "reasonName": "globalInteractionReason"}]}, "venue": {"id": "4ae36b91f964a520e09421e3", "name": "Starbucks", "location": {"address": "1344 Broadway", "crossStreet": "at Everit Ave", "lat": 40.64076, "lng": -73.699326, "labeledLatLngs": [{"label": "display", "lat": 40.64076, "lng": -73.699326}], "postalCode": "11557", "cc": "US", "city": "Hewlett", "state": "NY", "country": "United States", "formattedAddress": ["1344 Broadway (at Everit Ave)", "Hewlett, NY 11557", "United States"]}, "categories": [{"id": "4bf58dd8d48988d1e0931735", "name": "Coffee Shop", "pluralName": "Coffee Shops", "shortName": "Coffee Shop", "icon": {"prefix": "https://ss3.4sqi.net/img/categories_v2/food/coffeeshop_", "suffix": ".png"}, "primary": true}], "photos": {"count": 0, "groups": []}}, "flags": {"outsideRadius": true}, "referralId": "e-0-4ae36b91f964a520e09421e3-7"}, {"reasons": {"count": 0, "items": [{"summary": "This spot is popular", "type": "general", "reasonName": "globalInteractionReason"}]}, "venue": {"id": "4d68e1a467a8f04dc75006be", "name": "Starbucks", "location": {"address": "31-01 Broadway", "crossStreet": "at 31st St", "lat": 40.761993, "lng": -73.92507, "labeledLatLngs": [{"label": "display", "lat": 40.761993, "lng": -73.92507}], "postalCode": "11106", "cc": "US", "city": "Astoria", "state": "NY", "country": "United States", "formattedAddress": ["31-01 Broadway (at 31st St)", "Astoria, NY 11106", "United States"]}, "categories": [{"id": "4bf58dd8d48988d1e0931735", "name": "Coffee Shop", "pluralName": "Coffee Shops", "shortName": "Coffee Shop", "icon": {"prefix": "https://ss3.4sqi.net/img/categories_v2/food/coffeeshop_", "suffix": ".png"}, "primary": true}], "photos": {"count": 0, "groups": []}}, "referralId": "e-0-4d68e1a467a8f04dc75006be-8"}, {"reasons": {"count": 0, "items": [{"summary": "This spot is popular", "type": "general", "reasonName": "globalInteractionReason"}]}, "venue": {"id": "4be1803e8e2962b516589b0a", "name": "Starbucks", "location": {"address": "251-05 Jamaica Ave", "crossStreet": "at 251st St", "lat": 40.727013, "lng": -73.71402, "labeledLatLngs": [{"label": "display", "lat": 40.727013, "lng": -73.71402}], "postalCode": "11426", "cc": "US", "city": "Bellerose", "state": "NY", "country": "United States", "formattedAddress": ["251-05 Jamaica Ave (at 251st St)", "Bellerose, NY 11426", "United States"]}, "categories": [{"id": "4bf58dd8d48988d1e0931735", "name": "Coffee Shop", "pluralName": "Coffee Shops", "shortName": "Coffee Shop", "icon": {"prefix": "https://ss3.4sqi.net/img/categories_v2/food/coffeeshop_", "suffix": ".png"}, "primary": true}], "photos": {"count": 0, "groups": []}}, "referralId": "e-0-4be1803e8e2962b516589b0a-9"}, {"reasons": {"count": 0, "items": [{"summary": "This spot is popular", "type": "general", "reasonName": "globalInteractionReason"}]}, "venue": {"id": "545a349d498eb1f620efcf17", "name": "Starbucks Reserve", "location": {"address": "154 N 7th St", "crossStreet": "btwn Bedford Ave & Berry St", "lat": 40.717940482419294, "lng": -73.95808741450308, "labeledLatLngs": [{"label": "display", "lat": 40.717940482419294, "lng": -73.95808741450308}], "postalCode": "11211", "cc": "US", "city": "Brooklyn", "state": "NY", "country": "United States", "formattedAddress": ["154 N 7th St (btwn Bedford Ave & Berry St)", "Brooklyn, NY 11211", "United States"]}, "categories": [{"id": "4bf58dd8d48988d1e0931735", "name": "Coffee Shop", "pluralName": "Coffee Shops", "shortName": "Coffee Shop", "icon": {"prefix": "https://ss3.4sqi.net/img/categories_v2/food/coffeeshop_", "suffix": ".png"}, "primary": true}], "photos": {"count": 0, "groups": []}}, "flags": {"outsideRadius": true}, "referralId": "e-0-545a349d498eb1f620efcf17-10"}, {"reasons": {"count": 0, "items": [{"summary": "This spot is popular", "type": "general", "reasonName": "globalInteractionReason"}]}, "venue": {"id": "59117151fe37407b680309e4", "name": "Starbucks", "location": {"address": "159-27 jamaica Ave.", "lat": 40.70360122835167, "lng": -73.79936436251222, "labeledLatLngs": [{"label": "display", "lat": 40.70360122835167, "lng": -73.79936436251222}], "postalCode": "11432", "cc": "US", "city": "Jamaica", "state": "NY", "country": "United States", "formattedAddress": ["159-27 jamaica Ave.", "Jamaica, NY 11432", "United States"]}, "categories": [{"id": "4bf58dd8d48988d1e0931735", "name": "Coffee Shop", "pluralName": "Coffee Shops", "shortName": "Coffee Shop", "icon": {"prefix": "https://ss3.4sqi.net/img/categories_v2/food/coffeeshop_", "suffix": ".png"}, "primary": true}], "photos": {"count": 0, "groups": []}}, "referralId": "e-0-59117151fe37407b680309e4-11"}, {"reasons": {"count": 0, "items": [{"summary": "This spot is popular", "type": "general", "reasonName": "globalInteractionReason"}]}, "venue": {"id": "56df1390498e133cb57916cb", "name": "Starbucks", "location": {"address": "8900 Sutphin Blvd.", "crossStreet": "at 89th Ave", "lat": 40.70359286751274, "lng": -73.80892460615158, "labeledLatLngs": [{"label": "display", "lat": 40.70359286751274, "lng": -73.80892460615158}], "postalCode": "11435", "cc": "US", "city": "Jamaica", "state": "NY", "country": "United States", "formattedAddress": ["8900 Sutphin Blvd. (at 89th Ave)", "Jamaica, NY 11435", "United States"]}, "categories": [{"id": "4bf58dd8d48988d1e0931735", "name": "Coffee Shop", "pluralName": "Coffee Shops", "shortName": "Coffee Shop", "icon": {"prefix": "https://ss3.4sqi.net/img/categories_v2/food/coffeeshop_", "suffix": ".png"}, "primary": true}], "photos": {"count": 0, "groups": []}}, "referralId": "e-0-56df1390498e133cb57916cb-12"}, {"reasons": {"count": 0, "items": [{"summary": "This spot is popular", "type": "general", "reasonName": "globalInteractionReason"}]}, "venue": {"id": "49c9660bf964a5205d581fe3", "name": "Starbucks", "location": {"address": "22-04 31st St", "crossStreet": "at Ditmars Blvd", "lat": 40.776211994463324, "lng": -73.91088914659068, "labeledLatLngs": [{"label": "display", "lat": 40.776211994463324, "lng": -73.91088914659068}], "postalCode": "11105", "cc": "US", "city": "Astoria", "state": "NY", "country": "United States", "formattedAddress": ["22-04 31st St (at Ditmars Blvd)", "Astoria, NY 11105", "United States"]}, "categories": [{"id": "4bf58dd8d48988d1e0931735", "name": "Coffee Shop", "pluralName": "Coffee Shops", "shortName": "Coffee Shop", "icon": {"prefix": "https://ss3.4sqi.net/img/categories_v2/food/coffeeshop_", "suffix": ".png"}, "primary": true}], "photos": {"count": 0, "groups": []}}, "referralId": "e-0-49c9660bf964a5205d581fe3-13"}, {"reasons": {"count": 0, "items": [{"summary": "This spot is popular", "type": "general", "reasonName": "globalInteractionReason"}]}, "venue": {"id": "4b959d5bf964a52042ac34e3", "name": "Starbucks", "location": {"address": "78-25 37th Ave", "crossStreet": "at 79th St", "lat": 40.74955752, "lng": -73.88739013, "labeledLatLngs": [{"label": "display", "lat": 40.74955752, "lng": -73.88739013}], "postalCode": "11372", "cc": "US", "city": "Jackson Heights", "state": "NY", "country": "United States", "formattedAddress": ["78-25 37th Ave (at 79th St)", "Jackson Heights, NY 11372", "United States"]}, "categories": [{"id": "4bf58dd8d48988d1e0931735", "name": "Coffee Shop", "pluralName": "Coffee Shops", "shortName": "Coffee Shop", "icon": {"prefix": "https://ss3.4sqi.net/img/categories_v2/food/coffeeshop_", "suffix": ".png"}, "primary": true}], "photos": {"count": 0, "groups": []}}, "referralId": "e-0-4b959d5bf964a52042ac34e3-14"}, {"reasons": {"count": 0, "items": [{"summary": "This spot is popular", "type": "general", "reasonName": "globalInteractionReason"}]}, "venue": {"id": "5286906a498e3289da676c4c", "name": "Starbucks", "location": {"address": "Terminal 8, Concourse C", "crossStreet": "JFK International Airport", "lat": 40.6506572942941, "lng": -73.79171133041382, "labeledLatLngs": [{"label": "display", "lat": 40.6506572942941, "lng": -73.79171133041382}], "postalCode": "11430", "cc": "US", "city": "Jamaica", "state": "NY", "country": "United States", "formattedAddress": ["Terminal 8, Concourse C (JFK International Airport)", "Jamaica, NY 11430", "United States"]}, "categories": [{"id": "4bf58dd8d48988d1e0931735", "name": "Coffee Shop", "pluralName": "Coffee Shops", "shortName": "Coffee Shop", "icon": {"prefix": "https://ss3.4sqi.net/img/categories_v2/food/coffeeshop_", "suffix": ".png"}, "primary": true}], "photos": {"count": 0, "groups": []}}, "referralId": "e-0-5286906a498e3289da676c4c-15"}, {"reasons": {"count": 0, "items": [{"summary": "This spot is popular", "type": "general", "reasonName": "globalInteractionReason"}]}, "venue": {"id": "4ad769f8f964a5202b0a21e3", "name": "Starbucks", "location": {"address": "Terminal 4", "crossStreet": "JFK International Airport", "lat": 40.64357490140483, "lng": -73.78203336991947, "labeledLatLngs": [{"label": "display", "lat": 40.64357490140483, "lng": -73.78203336991947}], "postalCode": "11430", "cc": "US", "city": "Jamaica", "state": "NY", "country": "United States", "formattedAddress": ["Terminal 4 (JFK International Airport)", "Jamaica, NY 11430", "United States"]}, "categories": [{"id": "4bf58dd8d48988d1e0931735", "name": "Coffee Shop", "pluralName": "Coffee Shops", "shortName": "Coffee Shop", "icon": {"prefix": "https://ss3.4sqi.net/img/categories_v2/food/coffeeshop_", "suffix": ".png"}, "primary": true}], "photos": {"count": 0, "groups": []}}, "referralId": "e-0-4ad769f8f964a5202b0a21e3-16"}, {"reasons": {"count": 0, "items": [{"summary": "This spot is popular", "type": "general", "reasonName": "globalInteractionReason"}]}, "venue": {"id": "4be18cca8e2962b57d589b0a", "name": "Starbucks", "location": {"address": "90-15 Queens Blvd", "crossStreet": "at Queens Center Mall", "lat": 40.73458541, "lng": -73.86916335, "labeledLatLngs": [{"label": "display", "lat": 40.73458541, "lng": -73.86916335}], "postalCode": "11373", "cc": "US", "city": "Elmhurst", "state": "NY", "country": "United States", "formattedAddress": ["90-15 Queens Blvd (at Queens Center Mall)", "Elmhurst, NY 11373", "United States"]}, "categories": [{"id": "4bf58dd8d48988d1e0931735", "name": "Coffee Shop", "pluralName": "Coffee Shops", "shortName": "Coffee Shop", "icon": {"prefix": "https://ss3.4sqi.net/img/categories_v2/food/coffeeshop_", "suffix": ".png"}, "primary": true}], "photos": {"count": 0, "groups": []}}, "referralId": "e-0-4be18cca8e2962b57d589b0a-17"}, {"reasons": {"count": 0, "items": [{"summary": "This spot is popular", "type": "general", "reasonName": "globalInteractionReason"}]}, "venue": {"id": "4a69b07ef964a520f9cb1fe3", "name": "Starbucks", "location": {"address": "61-51 188th St", "crossStreet": "at 64th Ave", "lat": 40.73936337629857, "lng": -73.78547067451085, "labeledLatLngs": [{"label": "display", "lat": 40.73936337629857, "lng": -73.78547067451085}], "postalCode": "11365", "cc": "US", "city": "Fresh Meadows", "state": "NY", "country": "United States", "formattedAddress": ["61-51 188th St (at 64th Ave)", "Fresh Meadows, NY 11365", "United States"]}, "categories": [{"id": "4bf58dd8d48988d1e0931735", "name": "Coffee Shop", "pluralName": "Coffee Shops", "shortName": "Coffee Shop", "icon": {"prefix": "https://ss3.4sqi.net/img/categories_v2/food/coffeeshop_", "suffix": ".png"}, "primary": true}], "photos": {"count": 0, "groups": []}}, "referralId": "e-0-4a69b07ef964a520f9cb1fe3-18"}, {"reasons": {"count": 0, "items": [{"summary": "This spot is popular", "type": "general", "reasonName": "globalInteractionReason"}]}, "venue": {"id": "5606c830498ea559acac8882", "name": "Starbucks", "location": {"address": "95-17 63rd Drive", "crossStreet": "at Queens Blvd", "lat": 40.729803939216424, "lng": -73.8626648555788, "labeledLatLngs": [{"label": "display", "lat": 40.729803939216424, "lng": -73.8626648555788}], "postalCode": "11374", "cc": "US", "city": "Rego Park", "state": "NY", "country": "United States", "formattedAddress": ["95-17 63rd Drive (at Queens Blvd)", "Rego Park, NY 11374", "United States"]}, "categories": [{"id": "4bf58dd8d48988d1e0931735", "name": "Coffee Shop", "pluralName": "Coffee Shops", "shortName": "Coffee Shop", "icon": {"prefix": "https://ss3.4sqi.net/img/categories_v2/food/coffeeshop_", "suffix": ".png"}, "primary": true}], "photos": {"count": 0, "groups": []}}, "referralId": "e-0-5606c830498ea559acac8882-19"}, {"reasons": {"count": 0, "items": [{"summary": "This spot is popular", "type": "general", "reasonName": "globalInteractionReason"}]}, "venue": {"id": "4a8dc130f964a520b81020e3", "name": "Starbucks", "location": {"address": "118-24 Queens Blvd", "crossStreet": "at Mowbray Dr", "lat": 40.71444, "lng": -73.83188, "labeledLatLngs": [{"label": "display", "lat": 40.71444, "lng": -73.83188}], "postalCode": "11415", "cc": "US", "city": "Kew Gardens", "state": "NY", "country": "United States", "formattedAddress": ["118-24 Queens Blvd (at Mowbray Dr)", "Kew Gardens, NY 11415", "United States"]}, "categories": [{"id": "4bf58dd8d48988d1e0931735", "name": "Coffee Shop", "pluralName": "Coffee Shops", "shortName": "Coffee Shop", "icon": {"prefix": "https://ss3.4sqi.net/img/categories_v2/food/coffeeshop_", "suffix": ".png"}, "primary": true}], "photos": {"count": 0, "groups": []}}, "referralId": "e-0-4a8dc130f964a520b81020e3-20"}, {"reasons": {"count": 0, "items": [{"summary": "This spot is popular", "type": "general", "reasonName": "globalInteractionReason"}]}, "venue": {"id": "4a32b4ecf964a520819a1fe3", "name": "Starbucks", "location": {"address": "3711 35th Ave", "crossStreet": "at 37th St", "lat": 40.75587575355485, "lng": -73.92354521675513, "labeledLatLngs": [{"label": "display", "lat": 40.75587575355485, "lng": -73.92354521675513}], "postalCode": "11101", "cc": "US", "city": "Astoria", "state": "NY", "country": "United States", "formattedAddress": ["3711 35th Ave (at 37th St)", "Astoria, NY 11101", "United States"]}, "categories": [{"id": "4bf58dd8d48988d1e0931735", "name": "Coffee Shop", "pluralName": "Coffee Shops", "shortName": "Coffee Shop", "icon": {"prefix": "https://ss3.4sqi.net/img/categories_v2/food/coffeeshop_", "suffix": ".png"}, "primary": true}], "photos": {"count": 0, "groups": []}}, "referralId": "e-0-4a32b4ecf964a520819a1fe3-21"}, {"reasons": {"count": 0, "items": [{"summary": "This spot is popular", "type": "general", "reasonName": "globalInteractionReason"}]}, "venue": {"id": "54858fb9498e5a6cf73d6dee", "name": "Starbucks", "location": {"address": "3805 Main St", "crossStreet": "at 38th Ave", "lat": 40.76076522285495, "lng": -73.83055298489074, "labeledLatLngs": [{"label": "display", "lat": 40.76076522285495, "lng": -73.83055298489074}], "postalCode": "11354", "cc": "US", "city": "Flushing", "state": "NY", "country": "United States", "formattedAddress": ["3805 Main St (at 38th Ave)", "Flushing, NY 11354", "United States"]}, "categories": [{"id": "4bf58dd8d48988d1e0931735", "name": "Coffee Shop", "pluralName": "Coffee Shops", "shortName": "Coffee Shop", "icon": {"prefix": "https://ss3.4sqi.net/img/categories_v2/food/coffeeshop_", "suffix": ".png"}, "primary": true}], "photos": {"count": 0, "groups": []}}, "referralId": "e-0-54858fb9498e5a6cf73d6dee-22"}, {"reasons": {"count": 0, "items": [{"summary": "This spot is popular", "type": "general", "reasonName": "globalInteractionReason"}]}, "venue": {"id": "4c030b080d0e0f47cc16029a", "name": "Starbucks", "location": {"address": "316 Rockaway Tpke.", "crossStreet": "at Rugby Rd", "lat": 40.626377, "lng": -73.73607, "labeledLatLngs": [{"label": "display", "lat": 40.626377, "lng": -73.73607}], "postalCode": "11516", "cc": "US", "city": "Brooklyn", "state": "NY", "country": "United States", "formattedAddress": ["316 Rockaway Tpke. (at Rugby Rd)", "Brooklyn, NY 11516", "United States"]}, "categories": [{"id": "4bf58dd8d48988d1e0931735", "name": "Coffee Shop", "pluralName": "Coffee Shops", "shortName": "Coffee Shop", "icon": {"prefix": "https://ss3.4sqi.net/img/categories_v2/food/coffeeshop_", "suffix": ".png"}, "primary": true}], "photos": {"count": 0, "groups": []}}, "flags": {"outsideRadius": true}, "referralId": "e-0-4c030b080d0e0f47cc16029a-23"}, {"reasons": {"count": 0, "items": [{"summary": "This spot is popular", "type": "general", "reasonName": "globalInteractionReason"}]}, "venue": {"id": "53c91530498e10c40af10721", "name": "Starbucks", "location": {"address": "30-18 Astoria Blvd", "crossStreet": "at 31st St", "lat": 40.77003, "lng": -73.91851, "labeledLatLngs": [{"label": "display", "lat": 40.77003, "lng": -73.91851}], "postalCode": "11102", "cc": "US", "city": "Astoria", "state": "NY", "country": "United States", "formattedAddress": ["30-18 Astoria Blvd (at 31st St)", "Astoria, NY 11102", "United States"]}, "categories": [{"id": "4bf58dd8d48988d1e0931735", "name": "Coffee Shop", "pluralName": "Coffee Shops", "shortName": "Coffee Shop", "icon": {"prefix": "https://ss3.4sqi.net/img/categories_v2/food/coffeeshop_", "suffix": ".png"}, "primary": true}], "photos": {"count": 0, "groups": []}}, "referralId": "e-0-53c91530498e10c40af10721-24"}, {"reasons": {"count": 0, "items": [{"summary": "This spot is popular", "type": "general", "reasonName": "globalInteractionReason"}]}, "venue": {"id": "4a19ab55f964a520317a1fe3", "name": "Starbucks", "location": {"address": "215-29 Northern Blvd", "crossStreet": "at 215th Pl", "lat": 40.76086, "lng": -73.76647, "labeledLatLngs": [{"label": "display", "lat": 40.76086, "lng": -73.76647}], "postalCode": "11361", "cc": "US", "city": "Bayside", "state": "NY", "country": "United States", "formattedAddress": ["215-29 Northern Blvd (at 215th Pl)", "Bayside, NY 11361", "United States"]}, "categories": [{"id": "4bf58dd8d48988d1e0931735", "name": "Coffee Shop", "pluralName": "Coffee Shops", "shortName": "Coffee Shop", "icon": {"prefix": "https://ss3.4sqi.net/img/categories_v2/food/coffeeshop_", "suffix": ".png"}, "primary": true}], "photos": {"count": 0, "groups": []}}, "referralId": "e-0-4a19ab55f964a520317a1fe3-25"}, {"reasons": {"count": 0, "items": [{"summary": "This spot is popular", "type": "general", "reasonName": "globalInteractionReason"}]}, "venue": {"id": "4b16bba6f964a520a7bc23e3", "name": "Starbucks", "location": {"address": "107-12 Continental Ave", "crossStreet": "at Austin St", "lat": 40.7204, "lng": -73.844433, "labeledLatLngs": [{"label": "display", "lat": 40.7204, "lng": -73.844433}], "postalCode": "11375", "cc": "US", "city": "Forest Hills", "state": "NY", "country": "United States", "formattedAddress": ["107-12 Continental Ave (at Austin St)", "Forest Hills, NY 11375", "United States"]}, "categories": [{"id": "4bf58dd8d48988d1e0931735", "name": "Coffee Shop", "pluralName": "Coffee Shops", "shortName": "Coffee Shop", "icon": {"prefix": "https://ss3.4sqi.net/img/categories_v2/food/coffeeshop_", "suffix": ".png"}, "primary": true}], "photos": {"count": 0, "groups": []}}, "referralId": "e-0-4b16bba6f964a520a7bc23e3-26"}, {"reasons": {"count": 0, "items": [{"summary": "This spot is popular", "type": "general", "reasonName": "globalInteractionReason"}]}, "venue": {"id": "591d09530f013c6f219564c2", "name": "Starbucks", "location": {"address": "11000 Rockaway Blvd", "lat": 40.67280314560268, "lng": -73.83267498184428, "labeledLatLngs": [{"label": "display", "lat": 40.67280314560268, "lng": -73.83267498184428}], "postalCode": "11420", "cc": "US", "city": "Jamaica", "state": "NY", "country": "United States", "formattedAddress": ["11000 Rockaway Blvd", "Jamaica, NY 11420", "United States"]}, "categories": [{"id": "4bf58dd8d48988d1e0931735", "name": "Coffee Shop", "pluralName": "Coffee Shops", "shortName": "Coffee Shop", "icon": {"prefix": "https://ss3.4sqi.net/img/categories_v2/food/coffeeshop_", "suffix": ".png"}, "primary": true}], "photos": {"count": 0, "groups": []}}, "referralId": "e-0-591d09530f013c6f219564c2-27"}, {"reasons": {"count": 0, "items": [{"summary": "This spot is popular", "type": "general", "reasonName": "globalInteractionReason"}]}, "venue": {"id": "4b8e87edf964a5202b2733e3", "name": "Starbucks", "location": {"address": "254-41 Horace Harding Expy", "crossStreet": "at Little Neck Plaza", "lat": 40.7643941, "lng": -73.72620242, "labeledLatLngs": [{"label": "display", "lat": 40.7643941, "lng": -73.72620242}], "postalCode": "11362", "cc": "US", "city": "Little Neck", "state": "NY", "country": "United States", "formattedAddress": ["254-41 Horace Harding Expy (at Little Neck Plaza)", "Little Neck, NY 11362", "United States"]}, "categories": [{"id": "4bf58dd8d48988d1e0931735", "name": "Coffee Shop", "pluralName": "Coffee Shops", "shortName": "Coffee Shop", "icon": {"prefix": "https://ss3.4sqi.net/img/categories_v2/food/coffeeshop_", "suffix": ".png"}, "primary": true}], "photos": {"count": 0, "groups": []}}, "referralId": "e-0-4b8e87edf964a5202b2733e3-28"}, {"reasons": {"count": 0, "items": [{"summary": "This spot is popular", "type": "general", "reasonName": "globalInteractionReason"}]}, "venue": {"id": "4e42c9261495387dc48aee4a", "name": "Starbucks", "location": {"address": "222-05 56th Ave", "lat": 40.755698600089104, "lng": -73.75626419939742, "labeledLatLngs": [{"label": "display", "lat": 40.755698600089104, "lng": -73.75626419939742}], "postalCode": "11364", "cc": "US", "city": "Bayside", "state": "NY", "country": "United States", "formattedAddress": ["222-05 56th Ave", "Bayside, NY 11364", "United States"]}, "categories": [{"id": "4bf58dd8d48988d1e0931735", "name": "Coffee Shop", "pluralName": "Coffee Shops", "shortName": "Coffee Shop", "icon": {"prefix": "https://ss3.4sqi.net/img/categories_v2/food/coffeeshop_", "suffix": ".png"}, "primary": true}], "photos": {"count": 0, "groups": []}}, "referralId": "e-0-4e42c9261495387dc48aee4a-29"}, {"reasons": {"count": 0, "items": [{"summary": "This spot is popular", "type": "general", "reasonName": "globalInteractionReason"}]}, "venue": {"id": "4b100aa8f964a520eb6723e3", "name": "Starbucks", "location": {"address": "Terminal 8", "crossStreet": "JFK International Airport", "lat": 40.6474786, "lng": -73.7909013, "labeledLatLngs": [{"label": "display", "lat": 40.6474786, "lng": -73.7909013}], "postalCode": "11430", "cc": "US", "city": "Jamaica", "state": "NY", "country": "United States", "formattedAddress": ["Terminal 8 (JFK International Airport)", "Jamaica, NY 11430", "United States"]}, "categories": [{"id": "4bf58dd8d48988d1e0931735", "name": "Coffee Shop", "pluralName": "Coffee Shops", "shortName": "Coffee Shop", "icon": {"prefix": "https://ss3.4sqi.net/img/categories_v2/food/coffeeshop_", "suffix": ".png"}, "primary": true}], "photos": {"count": 0, "groups": []}}, "referralId": "e-0-4b100aa8f964a520eb6723e3-30"}, {"reasons": {"count": 0, "items": [{"summary": "This spot is popular", "type": "general", "reasonName": "globalInteractionReason"}]}, "venue": {"id": "5286906b498e3289da6782dc", "name": "Starbucks", "location": {"address": "13505 20th Ave", "crossStreet": "at Target", "lat": 40.783417, "lng": -73.83329, "labeledLatLngs": [{"label": "display", "lat": 40.783417, "lng": -73.83329}], "postalCode": "11356", "cc": "US", "city": "Flushing", "state": "NY", "country": "United States", "formattedAddress": ["13505 20th Ave (at Target)", "Flushing, NY 11356", "United States"]}, "categories": [{"id": "4bf58dd8d48988d1e0931735", "name": "Coffee Shop", "pluralName": "Coffee Shops", "shortName": "Coffee Shop", "icon": {"prefix": "https://ss3.4sqi.net/img/categories_v2/food/coffeeshop_", "suffix": ".png"}, "primary": true}], "photos": {"count": 0, "groups": []}}, "referralId": "e-0-5286906b498e3289da6782dc-31"}, {"reasons": {"count": 0, "items": [{"summary": "This spot is popular", "type": "general", "reasonName": "globalInteractionReason"}]}, "venue": {"id": "4fc94581d4f24895b4467e27", "name": "Starbucks", "location": {"address": "40-24 College Point Blvd", "lat": 40.757267, "lng": -73.83406, "labeledLatLngs": [{"label": "display", "lat": 40.757267, "lng": -73.83406}], "postalCode": "11354", "cc": "US", "neighborhood": "Flushing, Queens, NY", "city": "Flushing", "state": "NY", "country": "United States", "formattedAddress": ["40-24 College Point Blvd", "Flushing, NY 11354", "United States"]}, "categories": [{"id": "4bf58dd8d48988d1e0931735", "name": "Coffee Shop", "pluralName": "Coffee Shops", "shortName": "Coffee Shop", "icon": {"prefix": "https://ss3.4sqi.net/img/categories_v2/food/coffeeshop_", "suffix": ".png"}, "primary": true}], "photos": {"count": 0, "groups": []}}, "referralId": "e-0-4fc94581d4f24895b4467e27-32"}, {"reasons": {"count": 0, "items": [{"summary": "This spot is popular", "type": "general", "reasonName": "globalInteractionReason"}]}, "venue": {"id": "4f32ae1e19836c91c7ef4239", "name": "Starbucks", "location": {"address": "5106 Northern Blvd", "lat": 40.75415, "lng": -73.89862, "labeledLatLngs": [{"label": "display", "lat": 40.75415, "lng": -73.89862}], "postalCode": "11377", "cc": "US", "city": "Woodside", "state": "NY", "country": "United States", "formattedAddress": ["5106 Northern Blvd", "Woodside, NY 11377", "United States"]}, "categories": [{"id": "4bf58dd8d48988d1e0931735", "name": "Coffee Shop", "pluralName": "Coffee Shops", "shortName": "Coffee Shop", "icon": {"prefix": "https://ss3.4sqi.net/img/categories_v2/food/coffeeshop_", "suffix": ".png"}, "primary": true}], "photos": {"count": 0, "groups": []}}, "referralId": "e-0-4f32ae1e19836c91c7ef4239-33"}, {"reasons": {"count": 0, "items": [{"summary": "This spot is popular", "type": "general", "reasonName": "globalInteractionReason"}]}, "venue": {"id": "5af37239c47cf9002c6b960e", "name": "Starbucks", "location": {"address": "66 Nassau Ave", "crossStreet": "Lorimer St", "lat": 40.72339148193317, "lng": -73.95168985676827, "labeledLatLngs": [{"label": "display", "lat": 40.72339148193317, "lng": -73.95168985676827}], "postalCode": "11222", "cc": "US", "city": "New York", "state": "NY", "country": "United States", "formattedAddress": ["66 Nassau Ave (Lorimer St)", "New York, NY 11222", "United States"]}, "categories": [{"id": "4bf58dd8d48988d1e0931735", "name": "Coffee Shop", "pluralName": "Coffee Shops", "shortName": "Coffee Shop", "icon": {"prefix": "https://ss3.4sqi.net/img/categories_v2/food/coffeeshop_", "suffix": ".png"}, "primary": true}], "photos": {"count": 0, "groups": []}}, "flags": {"outsideRadius": true}, "referralId": "e-0-5af37239c47cf9002c6b960e-34"}, {"reasons": {"count": 0, "items": [{"summary": "This spot is popular", "type": "general", "reasonName": "globalInteractionReason"}]}, "venue": {"id": "4a87563bf964a520f80320e3", "name": "Starbucks", "location": {"address": "31-44 Steinway Street", "crossStreet": "btwn 31st Ave & Broadway", "lat": 40.760227, "lng": -73.91822, "labeledLatLngs": [{"label": "display", "lat": 40.760227, "lng": -73.91822}], "postalCode": "11103", "cc": "US", "city": "Astoria", "state": "NY", "country": "United States", "formattedAddress": ["31-44 Steinway Street (btwn 31st Ave & Broadway)", "Astoria, NY 11103", "United States"]}, "categories": [{"id": "4bf58dd8d48988d1e0931735", "name": "Coffee Shop", "pluralName": "Coffee Shops", "shortName": "Coffee Shop", "icon": {"prefix": "https://ss3.4sqi.net/img/categories_v2/food/coffeeshop_", "suffix": ".png"}, "primary": true}], "photos": {"count": 0, "groups": []}}, "referralId": "e-0-4a87563bf964a520f80320e3-35"}, {"reasons": {"count": 0, "items": [{"summary": "This spot is popular", "type": "general", "reasonName": "globalInteractionReason"}]}, "venue": {"id": "4b3a4910f964a520d16325e3", "name": "Starbucks", "location": {"address": "51-06 Northern Blvd", "crossStreet": "at Tower Square", "lat": 40.752445, "lng": -73.9094, "labeledLatLngs": [{"label": "display", "lat": 40.752445, "lng": -73.9094}], "postalCode": "11377", "cc": "US", "city": "Woodside", "state": "NY", "country": "United States", "formattedAddress": ["51-06 Northern Blvd (at Tower Square)", "Woodside, NY 11377", "United States"]}, "categories": [{"id": "4bf58dd8d48988d1e0931735", "name": "Coffee Shop", "pluralName": "Coffee Shops", "shortName": "Coffee Shop", "icon": {"prefix": "https://ss3.4sqi.net/img/categories_v2/food/coffeeshop_", "suffix": ".png"}, "primary": true}], "photos": {"count": 0, "groups": []}}, "referralId": "e-0-4b3a4910f964a520d16325e3-36"}, {"reasons": {"count": 0, "items": [{"summary": "This spot is popular", "type": "general", "reasonName": "globalInteractionReason"}]}, "venue": {"id": "4aaadceff964a520c35720e3", "name": "Starbucks", "location": {"address": "46-09 Queens Blvd", "crossStreet": "at 46th St", "lat": 40.7434386661004, "lng": -73.91833037137985, "labeledLatLngs": [{"label": "display", "lat": 40.7434386661004, "lng": -73.91833037137985}], "postalCode": "11104", "cc": "US", "city": "Sunnyside", "state": "NY", "country": "United States", "formattedAddress": ["46-09 Queens Blvd (at 46th St)", "Sunnyside, NY 11104", "United States"]}, "categories": [{"id": "4bf58dd8d48988d1e0931735", "name": "Coffee Shop", "pluralName": "Coffee Shops", "shortName": "Coffee Shop", "icon": {"prefix": "https://ss3.4sqi.net/img/categories_v2/food/coffeeshop_", "suffix": ".png"}, "primary": true}], "photos": {"count": 0, "groups": []}}, "referralId": "e-0-4aaadceff964a520c35720e3-37"}, {"reasons": {"count": 0, "items": [{"summary": "This spot is popular", "type": "general", "reasonName": "globalInteractionReason"}]}, "venue": {"id": "4b0c09cbf964a520ff3523e3", "name": "Starbucks", "location": {"address": "7000 Austin St", "crossStreet": "at Barnes & Noble", "lat": 40.720978, "lng": -73.84737, "labeledLatLngs": [{"label": "display", "lat": 40.720978, "lng": -73.84737}], "postalCode": "11375", "cc": "US", "city": "Forest Hills", "state": "NY", "country": "United States", "formattedAddress": ["7000 Austin St (at Barnes & Noble)", "Forest Hills, NY 11375", "United States"]}, "categories": [{"id": "4bf58dd8d48988d1e0931735", "name": "Coffee Shop", "pluralName": "Coffee Shops", "shortName": "Coffee Shop", "icon": {"prefix": "https://ss3.4sqi.net/img/categories_v2/food/coffeeshop_", "suffix": ".png"}, "primary": true}], "photos": {"count": 0, "groups": []}}, "referralId": "e-0-4b0c09cbf964a520ff3523e3-38"}, {"reasons": {"count": 0, "items": [{"summary": "This spot is popular", "type": "general", "reasonName": "globalInteractionReason"}]}, "venue": {"id": "4bb208a7f964a5206eb33ce3", "name": "Starbucks", "location": {"address": "8000 Cooper Ave", "crossStreet": "at The Shops at Atlas Park", "lat": 40.70802415, "lng": -73.86921827, "labeledLatLngs": [{"label": "display", "lat": 40.70802415, "lng": -73.86921827}], "postalCode": "11385", "cc": "US", "city": "Glendale", "state": "NY", "country": "United States", "formattedAddress": ["8000 Cooper Ave (at The Shops at Atlas Park)", "Glendale, NY 11385", "United States"]}, "categories": [{"id": "4bf58dd8d48988d1e0931735", "name": "Coffee Shop", "pluralName": "Coffee Shops", "shortName": "Coffee Shop", "icon": {"prefix": "https://ss3.4sqi.net/img/categories_v2/food/coffeeshop_", "suffix": ".png"}, "primary": true}], "photos": {"count": 0, "groups": []}}, "referralId": "e-0-4bb208a7f964a5206eb33ce3-39"}, {"reasons": {"count": 0, "items": [{"summary": "This spot is popular", "type": "general", "reasonName": "globalInteractionReason"}]}, "venue": {"id": "4e4dcb1dbd41b76bef933483", "name": "Starbucks", "location": {"address": "3 New York Plz", "lat": 40.65516123131658, "lng": -73.92274683743103, "labeledLatLngs": [{"label": "display", "lat": 40.65516123131658, "lng": -73.92274683743103}], "postalCode": "10004", "cc": "US", "city": "New York", "state": "NY", "country": "United States", "formattedAddress": ["3 New York Plz", "New York, NY 10004", "United States"]}, "categories": [{"id": "4bf58dd8d48988d1e0931735", "name": "Coffee Shop", "pluralName": "Coffee Shops", "shortName": "Coffee Shop", "icon": {"prefix": "https://ss3.4sqi.net/img/categories_v2/food/coffeeshop_", "suffix": ".png"}, "primary": true}], "photos": {"count": 0, "groups": []}}, "flags": {"outsideRadius": true}, "referralId": "e-0-4e4dcb1dbd41b76bef933483-40"}, {"reasons": {"count": 0, "items": [{"summary": "This spot is popular", "type": "general", "reasonName": "globalInteractionReason"}]}, "venue": {"id": "55f81a32498ec5574f9470b8", "name": "Starbucks", "location": {"address": "329 Wyckoff Ave", "crossStreet": "at Palmetto St", "lat": 40.69970422217683, "lng": -73.9113513942507, "labeledLatLngs": [{"label": "display", "lat": 40.69970422217683, "lng": -73.9113513942507}], "postalCode": "11385", "cc": "US", "city": "Ridgewood", "state": "NY", "country": "United States", "formattedAddress": ["329 Wyckoff Ave (at Palmetto St)", "Ridgewood, NY 11385", "United States"]}, "categories": [{"id": "4bf58dd8d48988d1e0931735", "name": "Coffee Shop", "pluralName": "Coffee Shops", "shortName": "Coffee Shop", "icon": {"prefix": "https://ss3.4sqi.net/img/categories_v2/food/coffeeshop_", "suffix": ".png"}, "primary": true}], "photos": {"count": 0, "groups": []}}, "referralId": "e-0-55f81a32498ec5574f9470b8-41"}, {"reasons": {"count": 0, "items": [{"summary": "This spot is popular", "type": "general", "reasonName": "globalInteractionReason"}]}, "venue": {"id": "4a19aaebf964a520307a1fe3", "name": "Starbucks", "location": {"address": "41-02 Main St", "crossStreet": "at 41st Ave", "lat": 40.758087, "lng": -73.829544, "labeledLatLngs": [{"label": "display", "lat": 40.758087, "lng": -73.829544}], "postalCode": "11355", "cc": "US", "city": "Flushing", "state": "NY", "country": "United States", "formattedAddress": ["41-02 Main St (at 41st Ave)", "Flushing, NY 11355", "United States"]}, "categories": [{"id": "4bf58dd8d48988d1e0931735", "name": "Coffee Shop", "pluralName": "Coffee Shops", "shortName": "Coffee Shop", "icon": {"prefix": "https://ss3.4sqi.net/img/categories_v2/food/coffeeshop_", "suffix": ".png"}, "primary": true}], "photos": {"count": 0, "groups": []}}, "referralId": "e-0-4a19aaebf964a520307a1fe3-42"}, {"reasons": {"count": 0, "items": [{"summary": "This spot is popular", "type": "general", "reasonName": "globalInteractionReason"}]}, "venue": {"id": "4e68fee81838d179b13b402f", "name": "Starbucks", "location": {"address": "519 Gateway Dr", "crossStreet": "at Target", "lat": 40.652225, "lng": -73.867714, "labeledLatLngs": [{"label": "display", "lat": 40.652225, "lng": -73.867714}], "postalCode": "11239", "cc": "US", "city": "Brooklyn", "state": "NY", "country": "United States", "formattedAddress": ["519 Gateway Dr (at Target)", "Brooklyn, NY 11239", "United States"]}, "categories": [{"id": "4bf58dd8d48988d1e0931735", "name": "Coffee Shop", "pluralName": "Coffee Shops", "shortName": "Coffee Shop", "icon": {"prefix": "https://ss3.4sqi.net/img/categories_v2/food/coffeeshop_", "suffix": ".png"}, "primary": true}], "photos": {"count": 0, "groups": []}}, "flags": {"outsideRadius": true}, "referralId": "e-0-4e68fee81838d179b13b402f-43"}, {"reasons": {"count": 0, "items": [{"summary": "This spot is popular", "type": "general", "reasonName": "globalInteractionReason"}]}, "venue": {"id": "4c7d897cb33a224b0b6ad881", "name": "Starbucks", "location": {"address": "9420 Guy R Brewer Blvd", "crossStreet": "at Archer Ave", "lat": 40.70138312123458, "lng": -73.79670300712185, "labeledLatLngs": [{"label": "display", "lat": 40.70138312123458, "lng": -73.79670300712185}], "postalCode": "11451", "cc": "US", "neighborhood": "Jamaica", "city": "Jamaica", "state": "NY", "country": "United States", "formattedAddress": ["9420 Guy R Brewer Blvd (at Archer Ave)", "Jamaica, NY 11451", "United States"]}, "categories": [{"id": "4bf58dd8d48988d1e0931735", "name": "Coffee Shop", "pluralName": "Coffee Shops", "shortName": "Coffee Shop", "icon": {"prefix": "https://ss3.4sqi.net/img/categories_v2/food/coffeeshop_", "suffix": ".png"}, "primary": true}], "photos": {"count": 0, "groups": []}}, "referralId": "e-0-4c7d897cb33a224b0b6ad881-44"}, {"reasons": {"count": 0, "items": [{"summary": "This spot is popular", "type": "general", "reasonName": "globalInteractionReason"}]}, "venue": {"id": "4fc9457dd4f24895b4467952", "name": "Starbucks", "location": {"address": "8989 Union Tpke", "crossStreet": "at Stop & Shop", "lat": 40.707294, "lng": -73.85455, "labeledLatLngs": [{"label": "display", "lat": 40.707294, "lng": -73.85455}], "postalCode": "11375", "cc": "US", "city": "Forest Hills", "state": "NY", "country": "United States", "formattedAddress": ["8989 Union Tpke (at Stop & Shop)", "Forest Hills, NY 11375", "United States"]}, "categories": [{"id": "4bf58dd8d48988d1e0931735", "name": "Coffee Shop", "pluralName": "Coffee Shops", "shortName": "Coffee Shop", "icon": {"prefix": "https://ss3.4sqi.net/img/categories_v2/food/coffeeshop_", "suffix": ".png"}, "primary": true}], "photos": {"count": 0, "groups": []}}, "referralId": "e-0-4fc9457dd4f24895b4467952-45"}, {"reasons": {"count": 0, "items": [{"summary": "This spot is popular", "type": "general", "reasonName": "globalInteractionReason"}]}, "venue": {"id": "4ccf51e501eaf04d766eb25d", "name": "Starbucks", "location": {"crossStreet": "at Student Union", "lat": 40.73472693872872, "lng": -73.81604391884227, "labeledLatLngs": [{"label": "display", "lat": 40.73472693872872, "lng": -73.81604391884227}], "postalCode": "11367", "cc": "US", "city": "Flushing", "state": "NY", "country": "United States", "formattedAddress": ["Flushing, NY 11367", "United States"]}, "categories": [{"id": "4bf58dd8d48988d1e0931735", "name": "Coffee Shop", "pluralName": "Coffee Shops", "shortName": "Coffee Shop", "icon": {"prefix": "https://ss3.4sqi.net/img/categories_v2/food/coffeeshop_", "suffix": ".png"}, "primary": true}], "photos": {"count": 0, "groups": []}}, "referralId": "e-0-4ccf51e501eaf04d766eb25d-46"}, {"reasons": {"count": 0, "items": [{"summary": "This spot is popular", "type": "general", "reasonName": "globalInteractionReason"}]}, "venue": {"id": "4f4587c8e4b00ed049551a3b", "name": "Starbucks", "location": {"crossStreet": "at Hilton JFK", "lat": 40.66746270163481, "lng": -73.79587486157831, "labeledLatLngs": [{"label": "display", "lat": 40.66746270163481, "lng": -73.79587486157831}], "postalCode": "11430", "cc": "US", "city": "Jamaica", "state": "NY", "country": "United States", "formattedAddress": ["at Hilton JFK", "Jamaica, NY 11430", "United States"]}, "categories": [{"id": "4bf58dd8d48988d1e0931735", "name": "Coffee Shop", "pluralName": "Coffee Shops", "shortName": "Coffee Shop", "icon": {"prefix": "https://ss3.4sqi.net/img/categories_v2/food/coffeeshop_", "suffix": ".png"}, "primary": true}], "photos": {"count": 0, "groups": []}}, "referralId": "e-0-4f4587c8e4b00ed049551a3b-47"}, {"reasons": {"count": 0, "items": [{"summary": "This spot is popular", "type": "general", "reasonName": "globalInteractionReason"}]}, "venue": {"id": "5273704c11d24d55fe7c6ff9", "name": "Starbucks", "location": {"address": "Terminal 5", "crossStreet": "JFK International Airport", "lat": 40.64626210795609, "lng": -73.77548970567285, "labeledLatLngs": [{"label": "display", "lat": 40.64626210795609, "lng": -73.77548970567285}], "postalCode": "11430", "cc": "US", "city": "Jamaica", "state": "NY", "country": "United States", "formattedAddress": ["Terminal 5 (JFK International Airport)", "Jamaica, NY 11430", "United States"]}, "categories": [{"id": "4bf58dd8d48988d1e0931735", "name": "Coffee Shop", "pluralName": "Coffee Shops", "shortName": "Coffee Shop", "icon": {"prefix": "https://ss3.4sqi.net/img/categories_v2/food/coffeeshop_", "suffix": ".png"}, "primary": true}], "photos": {"count": 0, "groups": []}}, "referralId": "e-0-5273704c11d24d55fe7c6ff9-48"}, {"reasons": {"count": 0, "items": [{"summary": "This spot is popular", "type": "general", "reasonName": "globalInteractionReason"}]}, "venue": {"id": "4fc94580d4f24895b4467dc0", "name": "Starbucks", "location": {"address": "D'Angelo Center", "crossStreet": "at St. John's University", "lat": 40.72278120784277, "lng": -73.79607982554525, "labeledLatLngs": [{"label": "display", "lat": 40.72278120784277, "lng": -73.79607982554525}], "postalCode": "11439", "cc": "US", "neighborhood": "Northeastern Queens, Queens, NY", "city": "Queens", "state": "NY", "country": "United States", "formattedAddress": ["D'Angelo Center (at St. John's University)", "Queens, NY 11439", "United States"]}, "categories": [{"id": "4bf58dd8d48988d1e0931735", "name": "Coffee Shop", "pluralName": "Coffee Shops", "shortName": "Coffee Shop", "icon": {"prefix": "https://ss3.4sqi.net/img/categories_v2/food/coffeeshop_", "suffix": ".png"}, "primary": true}], "photos": {"count": 0, "groups": []}}, "referralId": "e-0-4fc94580d4f24895b4467dc0-49"}, {"reasons": {"count": 0, "items": [{"summary": "This spot is popular", "type": "general", "reasonName": "globalInteractionReason"}]}, "venue": {"id": "4c056eb3191f20a17415e314", "name": "Starbucks", "location": {"address": "Terminal 2", "crossStreet": "JFK International Airport", "lat": 40.64034483134369, "lng": -73.78977834994905, "labeledLatLngs": [{"label": "display", "lat": 40.64034483134369, "lng": -73.78977834994905}], "postalCode": "11430", "cc": "US", "city": "Jamaica", "state": "NY", "country": "United States", "formattedAddress": ["Terminal 2 (JFK International Airport)", "Jamaica, NY 11430", "United States"]}, "categories": [{"id": "4bf58dd8d48988d1e0931735", "name": "Coffee Shop", "pluralName": "Coffee Shops", "shortName": "Coffee Shop", "icon": {"prefix": "https://ss3.4sqi.net/img/categories_v2/food/coffeeshop_", "suffix": ".png"}, "primary": true}], "photos": {"count": 0, "groups": []}}, "referralId": "e-0-4c056eb3191f20a17415e314-50"}, {"reasons": {"count": 0, "items": [{"summary": "This spot is popular", "type": "general", "reasonName": "globalInteractionReason"}]}, "venue": {"id": "5807cd3b38fa7ce986dbab38", "name": "starbucks", "location": {"lat": 40.704639, "lng": -73.816826, "labeledLatLngs": [{"label": "display", "lat": 40.704639, "lng": -73.816826}], "cc": "US", "city": "Queens", "state": "NY", "country": "United States", "formattedAddress": ["Queens, NY", "United States"]}, "categories": [{"id": "4bf58dd8d48988d1e0931735", "name": "Coffee Shop", "pluralName": "Coffee Shops", "shortName": "Coffee Shop", "icon": {"prefix": "https://ss3.4sqi.net/img/categories_v2/food/coffeeshop_", "suffix": ".png"}, "primary": true}], "photos": {"count": 0, "groups": []}}, "referralId": "e-0-5807cd3b38fa7ce986dbab38-51"}, {"reasons": {"count": 0, "items": [{"summary": "This spot is popular", "type": "general", "reasonName": "globalInteractionReason"}]}, "venue": {"id": "4b9271cff964a52000fa33e3", "name": "Starbucks", "location": {"address": "Terminal 1", "crossStreet": "at JFK International Airport", "lat": 40.643447, "lng": -73.791165, "labeledLatLngs": [{"label": "display", "lat": 40.643447, "lng": -73.791165}], "postalCode": "11430", "cc": "US", "city": "Jamaica", "state": "NY", "country": "United States", "formattedAddress": ["Terminal 1 (at JFK International Airport)", "Jamaica, NY 11430", "United States"]}, "categories": [{"id": "4bf58dd8d48988d1e0931735", "name": "Coffee Shop", "pluralName": "Coffee Shops", "shortName": "Coffee Shop", "icon": {"prefix": "https://ss3.4sqi.net/img/categories_v2/food/coffeeshop_", "suffix": ".png"}, "primary": true}], "photos": {"count": 0, "groups": []}}, "referralId": "e-0-4b9271cff964a52000fa33e3-52"}]}]}}