{"meta": {"code": 200, "requestId": "5d1fe7d3531593002c8d84ab"}, "response": {"suggestedFilters": {"header": "Tap to show:", "filters": [{"name": "Open now", "key": "openNow"}, {"name": "$-$$$$", "key": "price"}]}, "geocode": {"what": "", "where": "brooklyn ny", "center": {"lat": 40.63439, "lng": -73.95027}, "displayString": "Brooklyn, NY, United States", "cc": "US", "geometry": {"bounds": {"ne": {"lat": 40.739446, "lng": -73.833365}, "sw": {"lat": 40.551041999999995, "lng": -74.05663}}}, "longId": "72057594044869711"}, "headerLocation": "Current map view", "headerFullLocation": "Current map view", "headerLocationGranularity": "unknown", "query": "starbucks", "totalResults": 55, "suggestedBounds": {"ne": {"lat": 40.7381644285, "lng": -73.83042775750832}, "sw": {"lat": 40.570207001499995, "lng": -74.04252406104669}}, "groups": [{"type": "Recommended Places", "name": "recommended", "items": [{"reasons": {"count": 0, "items": [{"summary": "This spot is popular", "type": "general", "reasonName": "globalInteractionReason"}]}, "venue": {"id": "4ce41f161594236ac316fb49", "name": "Starbucks Reserve", "location": {"address": "250 Vesey St", "crossStreet": "2nd Fl", "lat": 40.71417, "lng": -74.015434, "labeledLatLngs": [{"label": "display", "lat": 40.71417, "lng": -74.015434}], "postalCode": "10281", "cc": "US", "neighborhood": "Battery Park City", "city": "New York", "state": "NY", "country": "United States", "formattedAddress": ["250 Vesey St (2nd Fl)", "New York, NY 10281", "United States"]}, "categories": [{"id": "4bf58dd8d48988d1e0931735", "name": "Coffee Shop", "pluralName": "Coffee Shops", "shortName": "Coffee Shop", "icon": {"prefix": "https://ss3.4sqi.net/img/categories_v2/food/coffeeshop_", "suffix": ".png"}, "primary": true}], "photos": {"count": 0, "groups": []}}, "flags": {"outsideRadius": true}, "referralId": "e-0-4ce41f161594236ac316fb49-0"}, {"reasons": {"count": 0, "items": [{"summary": "This spot is popular", "type": "general", "reasonName": "globalInteractionReason"}]}, "venue": {"id": "4a9efc7af964a520103c20e3", "name": "Starbucks", "location": {"address": "157-41 Cross Bay Blvd.", "crossStreet": "at 157th Ave", "lat": 40.66139329280071, "lng": -73.84006849857825, "labeledLatLngs": [{"label": "display", "lat": 40.66139329280071, "lng": -73.84006849857825}], "postalCode": "11414", "cc": "US", "city": "Howard Beach", "state": "NY", "country": "United States", "formattedAddress": ["157-41 Cross Bay Blvd. (at 157th Ave)", "Howard Beach, NY 11414", "United States"]}, "categories": [{"id": "4bf58dd8d48988d1e0931735", "name": "Coffee Shop", "pluralName": "Coffee Shops", "shortName": "Coffee Shop", "icon": {"prefix": "https://ss3.4sqi.net/img/categories_v2/food/coffeeshop_", "suffix": ".png"}, "primary": true}], "photos": {"count": 0, "groups": []}}, "flags": {"outsideRadius": true}, "referralId": "e-0-4a9efc7af964a520103c20e3-1"}, {"reasons": {"count": 0, "items": [{"summary": "This spot is popular", "type": "general", "reasonName": "globalInteractionReason"}]}, "venue": {"id": "4b796b49f964a5208df82ee3", "name": "Starbucks", "location": {"address": "9202 Third Avenue", "crossStreet": "at 92nd St", "lat": 40.619260073370675, "lng": -74.03288331997678, "labeledLatLngs": [{"label": "display", "lat": 40.619260073370675, "lng": -74.03288331997678}], "postalCode": "11209", "cc": "US", "neighborhood": "Fort Hamilton", "city": "Brooklyn", "state": "NY", "country": "United States", "formattedAddress": ["9202 Third Avenue (at 92nd St)", "Brooklyn, NY 11209", "United States"]}, "categories": [{"id": "4bf58dd8d48988d1e0931735", "name": "Coffee Shop", "pluralName": "Coffee Shops", "shortName": "Coffee Shop", "icon": {"prefix": "https://ss3.4sqi.net/img/categories_v2/food/coffeeshop_", "suffix": ".png"}, "primary": true}], "photos": {"count": 0, "groups": []}}, "referralId": "e-0-4b796b49f964a5208df82ee3-2"}, {"reasons": {"count": 0, "items": [{"summary": "This spot is popular", "type": "general", "reasonName": "globalInteractionReason"}]}, "venue": {"id": "4a9ff5d9f964a520ba3d20e3", "name": "Starbucks", "location": {"address": "55 Broad St", "crossStreet": "at Beaver St", "lat": 40.705162, "lng": -74.0113, "labeledLatLngs": [{"label": "display", "lat": 40.705162, "lng": -74.0113}], "postalCode": "10004", "cc": "US", "city": "New York", "state": "NY", "country": "United States", "formattedAddress": ["55 Broad St (at Beaver St)", "New York, NY 10004", "United States"]}, "categories": [{"id": "4bf58dd8d48988d1e0931735", "name": "Coffee Shop", "pluralName": "Coffee Shops", "shortName": "Coffee Shop", "icon": {"prefix": "https://ss3.4sqi.net/img/categories_v2/food/coffeeshop_", "suffix": ".png"}, "primary": true}], "photos": {"count": 0, "groups": []}}, "flags": {"outsideRadius": true}, "referralId": "e-0-4a9ff5d9f964a520ba3d20e3-3"}, {"reasons": {"count": 0, "items": [{"summary": "This spot is popular", "type": "general", "reasonName": "globalInteractionReason"}]}, "venue": {"id": "546f2a1e498ec971bfa42c81", "name": "Starbucks", "location": {"address": "8973 Bay Parkway", "crossStreet": "at Caesar's Bay Shopping Cr", "lat": 40.59522682860779, "lng": -74.00001700705624, "labeledLatLngs": [{"label": "display", "lat": 40.59522682860779, "lng": -74.00001700705624}], "postalCode": "11214", "cc": "US", "city": "Brooklyn", "state": "NY", "country": "United States", "formattedAddress": ["8973 Bay Parkway (at Caesar's Bay Shopping Cr)", "Brooklyn, NY 11214", "United States"]}, "categories": [{"id": "4bf58dd8d48988d1e0931735", "name": "Coffee Shop", "pluralName": "Coffee Shops", "shortName": "Coffee Shop", "icon": {"prefix": "https://ss3.4sqi.net/img/categories_v2/food/coffeeshop_", "suffix": ".png"}, "primary": true}], "photos": {"count": 0, "groups": []}}, "referralId": "e-0-546f2a1e498ec971bfa42c81-4"}, {"reasons": {"count": 0, "items": [{"summary": "This spot is popular", "type": "general", "reasonName": "globalInteractionReason"}]}, "venue": {"id": "4ee3d902a69d89905b82e7e5", "name": "Starbucks", "location": {"address": "5296 Kings Plaza", "crossStreet": "at Macy's", "lat": 40.610795, "lng": -73.919635, "labeledLatLngs": [{"label": "display", "lat": 40.610795, "lng": -73.919635}], "postalCode": "11234", "cc": "US", "neighborhood": "Mill Basin, Brooklyn, NY", "city": "Brooklyn", "state": "NY", "country": "United States", "formattedAddress": ["5296 Kings Plaza (at Macy's)", "Brooklyn, NY 11234", "United States"]}, "categories": [{"id": "4bf58dd8d48988d1e0931735", "name": "Coffee Shop", "pluralName": "Coffee Shops", "shortName": "Coffee Shop", "icon": {"prefix": "https://ss3.4sqi.net/img/categories_v2/food/coffeeshop_", "suffix": ".png"}, "primary": true}], "photos": {"count": 0, "groups": []}}, "referralId": "e-0-4ee3d902a69d89905b82e7e5-5"}, {"reasons": {"count": 0, "items": [{"summary": "This spot is popular", "type": "general", "reasonName": "globalInteractionReason"}]}, "venue": {"id": "56e1827ccd107ea297479dc1", "name": "Starbucks", "location": {"address": "1933 Flatbush Ave", "crossStreet": "Kings Highway", "lat": 40.622770266554035, "lng": -73.93674540498883, "labeledLatLngs": [{"label": "display", "lat": 40.622770266554035, "lng": -73.93674540498883}], "postalCode": "11210", "cc": "US", "city": "Brooklyn", "state": "NY", "country": "United States", "formattedAddress": ["1933 Flatbush Ave (Kings Highway)", "Brooklyn, NY 11210", "United States"]}, "categories": [{"id": "4bf58dd8d48988d1e0931735", "name": "Coffee Shop", "pluralName": "Coffee Shops", "shortName": "Coffee Shop", "icon": {"prefix": "https://ss3.4sqi.net/img/categories_v2/food/coffeeshop_", "suffix": ".png"}, "primary": true}], "photos": {"count": 0, "groups": []}}, "referralId": "e-0-56e1827ccd107ea297479dc1-6"}, {"reasons": {"count": 0, "items": [{"summary": "This spot is popular", "type": "general", "reasonName": "globalInteractionReason"}]}, "venue": {"id": "4b3febc4f964a52019b225e3", "name": "Starbucks", "location": {"address": "6423 18th Ave", "lat": 40.61917, "lng": -73.989914, "labeledLatLngs": [{"label": "display", "lat": 40.61917, "lng": -73.989914}], "postalCode": "11204", "cc": "US", "neighborhood": "Bensonhurst", "city": "Brooklyn", "state": "NY", "country": "United States", "formattedAddress": ["6423 18th Ave", "Brooklyn, NY 11204", "United States"]}, "categories": [{"id": "4bf58dd8d48988d1e0931735", "name": "Coffee Shop", "pluralName": "Coffee Shops", "shortName": "Coffee Shop", "icon": {"prefix": "https://ss3.4sqi.net/img/categories_v2/food/coffeeshop_", "suffix": ".png"}, "primary": true}], "photos": {"count": 0, "groups": []}}, "referralId": "e-0-4b3febc4f964a52019b225e3-7"}, {"reasons": {"count": 0, "items": [{"summary": "This spot is popular", "type": "general", "reasonName": "globalInteractionReason"}]}, "venue": {"id": "545a349d498eb1f620efcf17", "name": "Starbucks Reserve", "location": {"address": "154 N 7th St", "crossStreet": "btwn Bedford Ave & Berry St", "lat": 40.717940482419294, "lng": -73.95808741450308, "labeledLatLngs": [{"label": "display", "lat": 40.717940482419294, "lng": -73.95808741450308}], "postalCode": "11211", "cc": "US", "city": "Brooklyn", "state": "NY", "country": "United States", "formattedAddress": ["154 N 7th St (btwn Bedford Ave & Berry St)", "Brooklyn, NY 11211", "United States"]}, "categories": [{"id": "4bf58dd8d48988d1e0931735", "name": "Coffee Shop", "pluralName": "Coffee Shops", "shortName": "Coffee Shop", "icon": {"prefix": "https://ss3.4sqi.net/img/categories_v2/food/coffeeshop_", "suffix": ".png"}, "primary": true}], "photos": {"count": 0, "groups": []}}, "referralId": "e-0-545a349d498eb1f620efcf17-8"}, {"reasons": {"count": 0, "items": [{"summary": "This spot is popular", "type": "general", "reasonName": "globalInteractionReason"}]}, "venue": {"id": "5bd33b9e46e1b6002c620f2d", "name": "Starbucks", "location": {"address": "4 World Trade Ctr", "crossStreet": "Wall St.", "lat": 40.7104074357571, "lng": -74.01170062726673, "labeledLatLngs": [{"label": "display", "lat": 40.7104074357571, "lng": -74.01170062726673}], "postalCode": "10007", "cc": "US", "city": "New York", "state": "NY", "country": "United States", "formattedAddress": ["4 World Trade Ctr (Wall St.)", "New York, NY 10007", "United States"]}, "categories": [{"id": "4bf58dd8d48988d1e0931735", "name": "Coffee Shop", "pluralName": "Coffee Shops", "shortName": "Coffee Shop", "icon": {"prefix": "https://ss3.4sqi.net/img/categories_v2/food/coffeeshop_", "suffix": ".png"}, "primary": true}], "photos": {"count": 0, "groups": []}}, "flags": {"outsideRadius": true}, "referralId": "e-0-5bd33b9e46e1b6002c620f2d-9"}, {"reasons": {"count": 0, "items": [{"summary": "This spot is popular", "type": "general", "reasonName": "globalInteractionReason"}]}, "venue": {"id": "599c281b0d173f04a2f62bb3", "name": "Starbucks", "location": {"address": "470 4th Ave", "crossStreet": "11th St", "lat": 40.66934279973316, "lng": -73.98982298230987, "labeledLatLngs": [{"label": "display", "lat": 40.66934279973316, "lng": -73.98982298230987}], "postalCode": "11215", "cc": "US", "city": "New York", "state": "NY", "country": "United States", "formattedAddress": ["470 4th Ave (11th St)", "New York, NY 11215", "United States"]}, "categories": [{"id": "4bf58dd8d48988d1e0931735", "name": "Coffee Shop", "pluralName": "Coffee Shops", "shortName": "Coffee Shop", "icon": {"prefix": "https://ss3.4sqi.net/img/categories_v2/food/coffeeshop_", "suffix": ".png"}, "primary": true}], "photos": {"count": 0, "groups": []}}, "referralId": "e-0-599c281b0d173f04a2f62bb3-10"}, {"reasons": {"count": 0, "items": [{"summary": "This spot is popular", "type": "general", "reasonName": "globalInteractionReason"}]}, "venue": {"id": "4ad76597f964a5200e0a21e3", "name": "Starbucks", "location": {"address": "233 Broadway", "crossStreet": "at Barclay St", "lat": 40.71220388, "lng": -74.00805192, "labeledLatLngs": [{"label": "display", "lat": 40.71220388, "lng": -74.00805192}], "postalCode": "10279", "cc": "US", "city": "New York", "state": "NY", "country": "United States", "formattedAddress": ["233 Broadway (at Barclay St)", "New York, NY 10279", "United States"]}, "categories": [{"id": "4bf58dd8d48988d1e0931735", "name": "Coffee Shop", "pluralName": "Coffee Shops", "shortName": "Coffee Shop", "icon": {"prefix": "https://ss3.4sqi.net/img/categories_v2/food/coffeeshop_", "suffix": ".png"}, "primary": true}], "photos": {"count": 0, "groups": []}}, "flags": {"outsideRadius": true}, "referralId": "e-0-4ad76597f964a5200e0a21e3-11"}, {"reasons": {"count": 0, "items": [{"summary": "This spot is popular", "type": "general", "reasonName": "globalInteractionReason"}]}, "venue": {"id": "53380618498ef6a766240fbc", "name": "Starbucks", "location": {"address": "60 Wall St", "crossStreet": "at Hanover St", "lat": 40.70608153062632, "lng": -74.00875582404637, "labeledLatLngs": [{"label": "display", "lat": 40.70608153062632, "lng": -74.00875582404637}], "postalCode": "10005", "cc": "US", "city": "New York", "state": "NY", "country": "United States", "formattedAddress": ["60 Wall St (at Hanover St)", "New York, NY 10005", "United States"]}, "categories": [{"id": "4bf58dd8d48988d1e0931735", "name": "Coffee Shop", "pluralName": "Coffee Shops", "shortName": "Coffee Shop", "icon": {"prefix": "https://ss3.4sqi.net/img/categories_v2/food/coffeeshop_", "suffix": ".png"}, "primary": true}], "photos": {"count": 0, "groups": []}}, "flags": {"outsideRadius": true}, "referralId": "e-0-53380618498ef6a766240fbc-12"}, {"reasons": {"count": 0, "items": [{"summary": "This spot is popular", "type": "general", "reasonName": "globalInteractionReason"}]}, "venue": {"id": "4b242ae5f964a520b76224e3", "name": "Starbucks", "location": {"address": "1971 86th St", "crossStreet": "at 20th Ave", "lat": 40.60492502971137, "lng": -73.9986815620759, "labeledLatLngs": [{"label": "display", "lat": 40.60492502971137, "lng": -73.9986815620759}], "postalCode": "11214", "cc": "US", "city": "Brooklyn", "state": "NY", "country": "United States", "formattedAddress": ["1971 86th St (at 20th Ave)", "Brooklyn, NY 11214", "United States"]}, "categories": [{"id": "4bf58dd8d48988d1e0931735", "name": "Coffee Shop", "pluralName": "Coffee Shops", "shortName": "Coffee Shop", "icon": {"prefix": "https://ss3.4sqi.net/img/categories_v2/food/coffeeshop_", "suffix": ".png"}, "primary": true}], "photos": {"count": 0, "groups": []}}, "referralId": "e-0-4b242ae5f964a520b76224e3-13"}, {"reasons": {"count": 0, "items": [{"summary": "This spot is popular", "type": "general", "reasonName": "globalInteractionReason"}]}, "venue": {"id": "4a93fc49f964a520192020e3", "name": "Starbucks", "location": {"address": "2 Broadway", "crossStreet": "at Stone St", "lat": 40.70435, "lng": -74.013016, "labeledLatLngs": [{"label": "display", "lat": 40.70435, "lng": -74.013016}], "postalCode": "10004", "cc": "US", "city": "New York", "state": "NY", "country": "United States", "formattedAddress": ["2 Broadway (at Stone St)", "New York, NY 10004", "United States"]}, "categories": [{"id": "4bf58dd8d48988d1e0931735", "name": "Coffee Shop", "pluralName": "Coffee Shops", "shortName": "Coffee Shop", "icon": {"prefix": "https://ss3.4sqi.net/img/categories_v2/food/coffeeshop_", "suffix": ".png"}, "primary": true}], "photos": {"count": 0, "groups": []}}, "flags": {"outsideRadius": true}, "referralId": "e-0-4a93fc49f964a520192020e3-14"}, {"reasons": {"count": 0, "items": [{"summary": "This spot is popular", "type": "general", "reasonName": "globalInteractionReason"}]}, "venue": {"id": "4abed54df964a5202a9020e3", "name": "Starbucks", "location": {"address": "514 86th St", "crossStreet": "btwn 5th & Gelston Ave", "lat": 40.62111098251337, "lng": -74.02591645717621, "labeledLatLngs": [{"label": "display", "lat": 40.62111098251337, "lng": -74.02591645717621}], "postalCode": "11209", "cc": "US", "city": "Brooklyn", "state": "NY", "country": "United States", "formattedAddress": ["514 86th St (btwn 5th & Gelston Ave)", "Brooklyn, NY 11209", "United States"]}, "categories": [{"id": "4bf58dd8d48988d1e0931735", "name": "Coffee Shop", "pluralName": "Coffee Shops", "shortName": "Coffee Shop", "icon": {"prefix": "https://ss3.4sqi.net/img/categories_v2/food/coffeeshop_", "suffix": ".png"}, "primary": true}], "photos": {"count": 0, "groups": []}}, "referralId": "e-0-4abed54df964a5202a9020e3-15"}, {"reasons": {"count": 0, "items": [{"summary": "This spot is popular", "type": "general", "reasonName": "globalInteractionReason"}]}, "venue": {"id": "4ae35fe1f964a520319421e3", "name": "Starbucks", "location": {"address": "7419 3rd Ave", "crossStreet": "at 75th St", "lat": 40.63147132540194, "lng": -74.02760484644702, "labeledLatLngs": [{"label": "display", "lat": 40.63147132540194, "lng": -74.02760484644702}], "postalCode": "11209", "cc": "US", "city": "Brooklyn", "state": "NY", "country": "United States", "formattedAddress": ["7419 3rd Ave (at 75th St)", "Brooklyn, NY 11209", "United States"]}, "categories": [{"id": "4bf58dd8d48988d1e0931735", "name": "Coffee Shop", "pluralName": "Coffee Shops", "shortName": "Coffee Shop", "icon": {"prefix": "https://ss3.4sqi.net/img/categories_v2/food/coffeeshop_", "suffix": ".png"}, "primary": true}], "photos": {"count": 0, "groups": []}}, "referralId": "e-0-4ae35fe1f964a520319421e3-16"}, {"reasons": {"count": 0, "items": [{"summary": "This spot is popular", "type": "general", "reasonName": "globalInteractionReason"}]}, "venue": {"id": "4b522de2f964a520c36d27e3", "name": "Starbucks", "location": {"address": "3035 Cropsey Ave", "crossStreet": "at Hart Pl", "lat": 40.58122896, "lng": -73.98545095, "labeledLatLngs": [{"label": "display", "lat": 40.58122896, "lng": -73.98545095}], "postalCode": "11224", "cc": "US", "city": "Brooklyn", "state": "NY", "country": "United States", "formattedAddress": ["3035 Cropsey Ave (at Hart Pl)", "Brooklyn, NY 11224", "United States"]}, "categories": [{"id": "4bf58dd8d48988d1e0931735", "name": "Coffee Shop", "pluralName": "Coffee Shops", "shortName": "Coffee Shop", "icon": {"prefix": "https://ss3.4sqi.net/img/categories_v2/food/coffeeshop_", "suffix": ".png"}, "primary": true}], "photos": {"count": 0, "groups": []}}, "referralId": "e-0-4b522de2f964a520c36d27e3-17"}, {"reasons": {"count": 0, "items": [{"summary": "This spot is popular", "type": "general", "reasonName": "globalInteractionReason"}]}, "venue": {"id": "4e95b4a34fc6e92e3c5a6ba7", "name": "Starbucks", "location": {"address": "99 Wall St", "crossStreet": "at Front St", "lat": 40.70480591, "lng": -74.00706045, "labeledLatLngs": [{"label": "display", "lat": 40.70480591, "lng": -74.00706045}], "postalCode": "10005", "cc": "US", "city": "New York", "state": "NY", "country": "United States", "formattedAddress": ["99 Wall St (at Front St)", "New York, NY 10005", "United States"]}, "categories": [{"id": "4bf58dd8d48988d1e0931735", "name": "Coffee Shop", "pluralName": "Coffee Shops", "shortName": "Coffee Shop", "icon": {"prefix": "https://ss3.4sqi.net/img/categories_v2/food/coffeeshop_", "suffix": ".png"}, "primary": true}], "photos": {"count": 0, "groups": []}}, "flags": {"outsideRadius": true}, "referralId": "e-0-4e95b4a34fc6e92e3c5a6ba7-18"}, {"reasons": {"count": 0, "items": [{"summary": "This spot is popular", "type": "general", "reasonName": "globalInteractionReason"}]}, "venue": {"id": "4aabc152f964a520f15920e3", "name": "Starbucks", "location": {"address": "120 Church Street", "crossStreet": "at Murray St", "lat": 40.713838516500275, "lng": -74.00902572737122, "labeledLatLngs": [{"label": "display", "lat": 40.713838516500275, "lng": -74.00902572737122}], "postalCode": "10007", "cc": "US", "city": "New York", "state": "NY", "country": "United States", "formattedAddress": ["120 Church Street (at Murray St)", "New York, NY 10007", "United States"]}, "categories": [{"id": "4bf58dd8d48988d1e0931735", "name": "Coffee Shop", "pluralName": "Coffee Shops", "shortName": "Coffee Shop", "icon": {"prefix": "https://ss3.4sqi.net/img/categories_v2/food/coffeeshop_", "suffix": ".png"}, "primary": true}], "photos": {"count": 0, "groups": []}}, "flags": {"outsideRadius": true}, "referralId": "e-0-4aabc152f964a520f15920e3-19"}, {"reasons": {"count": 0, "items": [{"summary": "This spot is popular", "type": "general", "reasonName": "globalInteractionReason"}]}, "venue": {"id": "5c0ae329898bdc002c5d08f9", "name": "Starbucks", "location": {"lat": 40.625874, "lng": -73.91746, "labeledLatLngs": [{"label": "display", "lat": 40.625874, "lng": -73.91746}], "postalCode": "11234", "cc": "US", "city": "Brooklyn", "state": "NY", "country": "United States", "formattedAddress": ["Brooklyn, NY 11234", "United States"]}, "categories": [{"id": "4bf58dd8d48988d1e0931735", "name": "Coffee Shop", "pluralName": "Coffee Shops", "shortName": "Coffee Shop", "icon": {"prefix": "https://ss3.4sqi.net/img/categories_v2/food/coffeeshop_", "suffix": ".png"}, "primary": true}], "photos": {"count": 0, "groups": []}}, "referralId": "e-0-5c0ae329898bdc002c5d08f9-20"}, {"reasons": {"count": 0, "items": [{"summary": "This spot is popular", "type": "general", "reasonName": "globalInteractionReason"}]}, "venue": {"id": "4fecb319e4b095ea88dbdb3a", "name": "Starbucks", "location": {"address": "348 Fulton Street", "lat": 40.691763, "lng": -73.988563, "labeledLatLngs": [{"label": "display", "lat": 40.691763, "lng": -73.988563}], "postalCode": "11201", "cc": "US", "city": "Brooklyn", "state": "NY", "country": "United States", "formattedAddress": ["348 Fulton Street", "Brooklyn, NY 11201", "United States"]}, "categories": [{"id": "4bf58dd8d48988d1e0931735", "name": "Coffee Shop", "pluralName": "Coffee Shops", "shortName": "Coffee Shop", "icon": {"prefix": "https://ss3.4sqi.net/img/categories_v2/food/coffeeshop_", "suffix": ".png"}, "primary": true}], "photos": {"count": 0, "groups": []}}, "referralId": "e-0-4fecb319e4b095ea88dbdb3a-21"}, {"reasons": {"count": 0, "items": [{"summary": "This spot is popular", "type": "general", "reasonName": "globalInteractionReason"}]}, "venue": {"id": "54173fc4498eda4d0bcc2be8", "name": "Starbucks", "location": {"address": "341 Eastern Pkwy", "crossStreet": "at Franklin Ave", "lat": 40.6711284292753, "lng": -73.95778421058986, "labeledLatLngs": [{"label": "display", "lat": 40.6711284292753, "lng": -73.95778421058986}], "postalCode": "11238", "cc": "US", "city": "Brooklyn", "state": "NY", "country": "United States", "formattedAddress": ["341 Eastern Pkwy (at Franklin Ave)", "Brooklyn, NY 11238", "United States"]}, "categories": [{"id": "4bf58dd8d48988d1e0931735", "name": "Coffee Shop", "pluralName": "Coffee Shops", "shortName": "Coffee Shop", "icon": {"prefix": "https://ss3.4sqi.net/img/categories_v2/food/coffeeshop_", "suffix": ".png"}, "primary": true}], "photos": {"count": 0, "groups": []}}, "referralId": "e-0-54173fc4498eda4d0bcc2be8-22"}, {"reasons": {"count": 0, "items": [{"summary": "This spot is popular", "type": "general", "reasonName": "globalInteractionReason"}]}, "venue": {"id": "59946d393b830745ce06bd87", "name": "Starbucks", "location": {"address": "4 Chase Metrotech Ctr", "lat": 40.693063052751626, "lng": -73.98360951708158, "labeledLatLngs": [{"label": "display", "lat": 40.693063052751626, "lng": -73.98360951708158}], "postalCode": "11245", "cc": "US", "city": "Brooklyn", "state": "NY", "country": "United States", "formattedAddress": ["4 Chase Metrotech Ctr", "Brooklyn, NY 11245", "United States"]}, "categories": [{"id": "4bf58dd8d48988d1e0931735", "name": "Coffee Shop", "pluralName": "Coffee Shops", "shortName": "Coffee Shop", "icon": {"prefix": "https://ss3.4sqi.net/img/categories_v2/food/coffeeshop_", "suffix": ".png"}, "primary": true}], "photos": {"count": 0, "groups": []}}, "referralId": "e-0-59946d393b830745ce06bd87-23"}, {"reasons": {"count": 0, "items": [{"summary": "This spot is popular", "type": "general", "reasonName": "globalInteractionReason"}]}, "venue": {"id": "5556b2e3498e8bc241d90ee1", "name": "Starbucks", "location": {"address": "309 Gold St", "crossStreet": "at Johnson St", "lat": 40.694713562848456, "lng": -73.98331701247406, "labeledLatLngs": [{"label": "display", "lat": 40.694713562848456, "lng": -73.98331701247406}], "postalCode": "11201", "cc": "US", "city": "Brooklyn", "state": "NY", "country": "United States", "formattedAddress": ["309 Gold St (at Johnson St)", "Brooklyn, NY 11201", "United States"]}, "categories": [{"id": "4bf58dd8d48988d1e0931735", "name": "Coffee Shop", "pluralName": "Coffee Shops", "shortName": "Coffee Shop", "icon": {"prefix": "https://ss3.4sqi.net/img/categories_v2/food/coffeeshop_", "suffix": ".png"}, "primary": true}], "photos": {"count": 0, "groups": []}}, "referralId": "e-0-5556b2e3498e8bc241d90ee1-24"}, {"reasons": {"count": 0, "items": [{"summary": "This spot is popular", "type": "general", "reasonName": "globalInteractionReason"}]}, "venue": {"id": "4a734456f964a520f8db1fe3", "name": "Starbucks", "location": {"address": "1 Battery Park Plz", "crossStreet": "at Pearl & State St", "lat": 40.70323823, "lng": -74.01428898, "labeledLatLngs": [{"label": "display", "lat": 40.70323823, "lng": -74.01428898}], "postalCode": "10004", "cc": "US", "city": "New York", "state": "NY", "country": "United States", "formattedAddress": ["1 Battery Park Plz (at Pearl & State St)", "New York, NY 10004", "United States"]}, "categories": [{"id": "4bf58dd8d48988d1e0931735", "name": "Coffee Shop", "pluralName": "Coffee Shops", "shortName": "Coffee Shop", "icon": {"prefix": "https://ss3.4sqi.net/img/categories_v2/food/coffeeshop_", "suffix": ".png"}, "primary": true}], "photos": {"count": 0, "groups": []}}, "flags": {"outsideRadius": true}, "referralId": "e-0-4a734456f964a520f8db1fe3-25"}, {"reasons": {"count": 0, "items": [{"summary": "This spot is popular", "type": "general", "reasonName": "globalInteractionReason"}]}, "venue": {"id": "5798ec7fcd10525b841f6c1f", "name": "Starbucks", "location": {"address": "4 New York Plz Fl 14", "lat": 40.702908, "lng": -74.009858, "labeledLatLngs": [{"label": "display", "lat": 40.702908, "lng": -74.009858}], "postalCode": "10004", "cc": "US", "city": "New York", "state": "NY", "country": "United States", "formattedAddress": ["4 New York Plz Fl 14", "New York, NY 10004", "United States"]}, "categories": [{"id": "4bf58dd8d48988d1e0931735", "name": "Coffee Shop", "pluralName": "Coffee Shops", "shortName": "Coffee Shop", "icon": {"prefix": "https://ss3.4sqi.net/img/categories_v2/food/coffeeshop_", "suffix": ".png"}, "primary": true}], "photos": {"count": 0, "groups": []}}, "flags": {"outsideRadius": true}, "referralId": "e-0-5798ec7fcd10525b841f6c1f-26"}, {"reasons": {"count": 0, "items": [{"summary": "This spot is popular", "type": "general", "reasonName": "globalInteractionReason"}]}, "venue": {"id": "59937667ba4a64332977d56c", "name": "Starbucks", "location": {"address": "445 Gold St", "lat": 40.69090564951046, "lng": -73.98388344987832, "labeledLatLngs": [{"label": "display", "lat": 40.69090564951046, "lng": -73.98388344987832}], "postalCode": "11201", "cc": "US", "city": "Brooklyn", "state": "NY", "country": "United States", "formattedAddress": ["445 Gold St", "Brooklyn, NY 11201", "United States"]}, "categories": [{"id": "4bf58dd8d48988d1e0931735", "name": "Coffee Shop", "pluralName": "Coffee Shops", "shortName": "Coffee Shop", "icon": {"prefix": "https://ss3.4sqi.net/img/categories_v2/food/coffeeshop_", "suffix": ".png"}, "primary": true}], "photos": {"count": 0, "groups": []}}, "referralId": "e-0-59937667ba4a64332977d56c-27"}, {"reasons": {"count": 0, "items": [{"summary": "This spot is popular", "type": "general", "reasonName": "globalInteractionReason"}]}, "venue": {"id": "4ea6be6c722e2c16d31f577d", "name": "Brooklyn College Starbucks Whitehead", "location": {"lat": 40.6317504988017, "lng": -73.9508696442926, "labeledLatLngs": [{"label": "display", "lat": 40.6317504988017, "lng": -73.9508696442926}], "cc": "US", "state": "New York", "country": "United States", "formattedAddress": ["New York", "United States"]}, "categories": [{"id": "4bf58dd8d48988d1e0931735", "name": "Coffee Shop", "pluralName": "Coffee Shops", "shortName": "Coffee Shop", "icon": {"prefix": "https://ss3.4sqi.net/img/categories_v2/food/coffeeshop_", "suffix": ".png"}, "primary": true}], "photos": {"count": 0, "groups": []}}, "referralId": "e-0-4ea6be6c722e2c16d31f577d-28"}, {"reasons": {"count": 0, "items": [{"summary": "This spot is popular", "type": "general", "reasonName": "globalInteractionReason"}]}, "venue": {"id": "517ad043e4b02da281c6dd3d", "name": "Starbucks", "location": {"address": "164 Park Pl", "crossStreet": "at Flatbush Ave", "lat": 40.677459, "lng": -73.973011, "labeledLatLngs": [{"label": "display", "lat": 40.677459, "lng": -73.973011}], "postalCode": "11217", "cc": "US", "city": "Brooklyn", "state": "NY", "country": "United States", "formattedAddress": ["164 Park Pl (at Flatbush Ave)", "Brooklyn, NY 11217", "United States"]}, "categories": [{"id": "4bf58dd8d48988d1e0931735", "name": "Coffee Shop", "pluralName": "Coffee Shops", "shortName": "Coffee Shop", "icon": {"prefix": "https://ss3.4sqi.net/img/categories_v2/food/coffeeshop_", "suffix": ".png"}, "primary": true}], "photos": {"count": 0, "groups": []}}, "referralId": "e-0-517ad043e4b02da281c6dd3d-29"}, {"reasons": {"count": 0, "items": [{"summary": "This spot is popular", "type": "general", "reasonName": "globalInteractionReason"}]}, "venue": {"id": "57e6b1b1498e32fd7c89bbfa", "name": "Starbucks", "location": {"address": "444 Ninth St", "crossStreet": "at 7th Av", "lat": 40.66690124644174, "lng": -73.9816363200331, "labeledLatLngs": [{"label": "display", "lat": 40.66690124644174, "lng": -73.9816363200331}], "postalCode": "11215", "cc": "US", "city": "Brooklyn", "state": "NY", "country": "United States", "formattedAddress": ["444 Ninth St (at 7th Av)", "Brooklyn, NY 11215", "United States"]}, "categories": [{"id": "4bf58dd8d48988d1e0931735", "name": "Coffee Shop", "pluralName": "Coffee Shops", "shortName": "Coffee Shop", "icon": {"prefix": "https://ss3.4sqi.net/img/categories_v2/food/coffeeshop_", "suffix": ".png"}, "primary": true}], "photos": {"count": 0, "groups": []}}, "referralId": "e-0-57e6b1b1498e32fd7c89bbfa-30"}, {"reasons": {"count": 0, "items": [{"summary": "This spot is popular", "type": "general", "reasonName": "globalInteractionReason"}]}, "venue": {"id": "4fc59083e4b090c5c6f5a6d9", "name": "Starbucks", "location": {"address": "870 7th Ave", "lat": 40.64514409047422, "lng": -73.89599223675205, "labeledLatLngs": [{"label": "display", "lat": 40.64514409047422, "lng": -73.89599223675205}], "postalCode": "11236", "cc": "US", "city": "Brooklyn", "state": "NY", "country": "United States", "formattedAddress": ["870 7th Ave", "Brooklyn, NY 11236", "United States"]}, "categories": [{"id": "4bf58dd8d48988d1e0931735", "name": "Coffee Shop", "pluralName": "Coffee Shops", "shortName": "Coffee Shop", "icon": {"prefix": "https://ss3.4sqi.net/img/categories_v2/food/coffeeshop_", "suffix": ".png"}, "primary": true}], "photos": {"count": 0, "groups": []}}, "referralId": "e-0-4fc59083e4b090c5c6f5a6d9-31"}, {"reasons": {"count": 0, "items": [{"summary": "This spot is popular", "type": "general", "reasonName": "globalInteractionReason"}]}, "venue": {"id": "506731fbe4b0e370b1e7e558", "name": "Starbucks", "location": {"address": "620 Atlantic Ave", "crossStreet": "at Barclays Ctr", "lat": 40.682636, "lng": -73.975945, "labeledLatLngs": [{"label": "display", "lat": 40.682636, "lng": -73.975945}], "postalCode": "11217", "cc": "US", "city": "Brooklyn", "state": "NY", "country": "United States", "formattedAddress": ["620 Atlantic Ave (at Barclays Ctr)", "Brooklyn, NY 11217", "United States"]}, "categories": [{"id": "4bf58dd8d48988d1e0931735", "name": "Coffee Shop", "pluralName": "Coffee Shops", "shortName": "Coffee Shop", "icon": {"prefix": "https://ss3.4sqi.net/img/categories_v2/food/coffeeshop_", "suffix": ".png"}, "primary": true}], "photos": {"count": 0, "groups": []}}, "referralId": "e-0-506731fbe4b0e370b1e7e558-32"}, {"reasons": {"count": 0, "items": [{"summary": "This spot is popular", "type": "general", "reasonName": "globalInteractionReason"}]}, "venue": {"id": "5241f52f498e1b6b50065edb", "name": "Starbucks", "location": {"address": "1417 Kings Hwy", "crossStreet": "at E 15th St", "lat": 40.6087822, "lng": -73.95859736, "labeledLatLngs": [{"label": "display", "lat": 40.6087822, "lng": -73.95859736}], "postalCode": "11229", "cc": "US", "neighborhood": "Midwood", "city": "Brooklyn", "state": "NY", "country": "United States", "formattedAddress": ["1417 Kings Hwy (at E 15th St)", "Brooklyn, NY 11229", "United States"]}, "categories": [{"id": "4bf58dd8d48988d1e0931735", "name": "Coffee Shop", "pluralName": "Coffee Shops", "shortName": "Coffee Shop", "icon": {"prefix": "https://ss3.4sqi.net/img/categories_v2/food/coffeeshop_", "suffix": ".png"}, "primary": true}], "photos": {"count": 0, "groups": []}}, "referralId": "e-0-5241f52f498e1b6b50065edb-33"}, {"reasons": {"count": 0, "items": [{"summary": "This spot is popular", "type": "general", "reasonName": "globalInteractionReason"}]}, "venue": {"id": "5b4f2d78a87921002cfe3db2", "name": "Starbucks", "location": {"crossStreet": "4th & Union", "lat": 40.677181106468794, "lng": -73.9831279142211, "labeledLatLngs": [{"label": "display", "lat": 40.677181106468794, "lng": -73.9831279142211}], "postalCode": "11215", "cc": "US", "city": "New York", "state": "NY", "country": "United States", "formattedAddress": ["4th & Union", "New York, NY 11215", "United States"]}, "categories": [{"id": "4bf58dd8d48988d1e0931735", "name": "Coffee Shop", "pluralName": "Coffee Shops", "shortName": "Coffee Shop", "icon": {"prefix": "https://ss3.4sqi.net/img/categories_v2/food/coffeeshop_", "suffix": ".png"}, "primary": true}], "photos": {"count": 0, "groups": []}}, "referralId": "e-0-5b4f2d78a87921002cfe3db2-34"}, {"reasons": {"count": 0, "items": [{"summary": "This spot is popular", "type": "general", "reasonName": "globalInteractionReason"}]}, "venue": {"id": "4e4dcb1dbd41b76bef933483", "name": "Starbucks", "location": {"address": "3 New York Plz", "lat": 40.65516123131658, "lng": -73.92274683743103, "labeledLatLngs": [{"label": "display", "lat": 40.65516123131658, "lng": -73.92274683743103}], "postalCode": "10004", "cc": "US", "city": "New York", "state": "NY", "country": "United States", "formattedAddress": ["3 New York Plz", "New York, NY 10004", "United States"]}, "categories": [{"id": "4bf58dd8d48988d1e0931735", "name": "Coffee Shop", "pluralName": "Coffee Shops", "shortName": "Coffee Shop", "icon": {"prefix": "https://ss3.4sqi.net/img/categories_v2/food/coffeeshop_", "suffix": ".png"}, "primary": true}], "photos": {"count": 0, "groups": []}}, "referralId": "e-0-4e4dcb1dbd41b76bef933483-35"}, {"reasons": {"count": 0, "items": [{"summary": "This spot is popular", "type": "general", "reasonName": "globalInteractionReason"}]}, "venue": {"id": "55f81a32498ec5574f9470b8", "name": "Starbucks", "location": {"address": "329 Wyckoff Ave", "crossStreet": "at Palmetto St", "lat": 40.69970422217683, "lng": -73.9113513942507, "labeledLatLngs": [{"label": "display", "lat": 40.69970422217683, "lng": -73.9113513942507}], "postalCode": "11385", "cc": "US", "city": "Ridgewood", "state": "NY", "country": "United States", "formattedAddress": ["329 Wyckoff Ave (at Palmetto St)", "Ridgewood, NY 11385", "United States"]}, "categories": [{"id": "4bf58dd8d48988d1e0931735", "name": "Coffee Shop", "pluralName": "Coffee Shops", "shortName": "Coffee Shop", "icon": {"prefix": "https://ss3.4sqi.net/img/categories_v2/food/coffeeshop_", "suffix": ".png"}, "primary": true}], "photos": {"count": 0, "groups": []}}, "referralId": "e-0-55f81a32498ec5574f9470b8-36"}, {"reasons": {"count": 0, "items": [{"summary": "This spot is popular", "type": "general", "reasonName": "globalInteractionReason"}]}, "venue": {"id": "4b59aedcf964a520999228e3", "name": "Starbucks", "location": {"address": "607 Brighton Beach Avenue", "crossStreet": "btwn Brighton 6th & Brighton 7th St", "lat": 40.57784143, "lng": -73.96120404, "labeledLatLngs": [{"label": "display", "lat": 40.57784143, "lng": -73.96120404}], "postalCode": "11235", "cc": "US", "city": "Brooklyn", "state": "NY", "country": "United States", "formattedAddress": ["607 Brighton Beach Avenue (btwn Brighton 6th & Brighton 7th St)", "Brooklyn, NY 11235", "United States"]}, "categories": [{"id": "4bf58dd8d48988d1e0931735", "name": "Coffee Shop", "pluralName": "Coffee Shops", "shortName": "Coffee Shop", "icon": {"prefix": "https://ss3.4sqi.net/img/categories_v2/food/coffeeshop_", "suffix": ".png"}, "primary": true}], "photos": {"count": 0, "groups": []}}, "referralId": "e-0-4b59aedcf964a520999228e3-37"}, {"reasons": {"count": 0, "items": [{"summary": "This spot is popular", "type": "general", "reasonName": "globalInteractionReason"}]}, "venue": {"id": "4acf7fb1f964a5201dd420e3", "name": "Starbucks", "location": {"address": "50 Court St", "crossStreet": "at Joralemon St", "lat": 40.69246853309529, "lng": -73.99097146988603, "labeledLatLngs": [{"label": "display", "lat": 40.69246853309529, "lng": -73.99097146988603}], "postalCode": "11201", "cc": "US", "city": "Brooklyn", "state": "NY", "country": "United States", "formattedAddress": ["50 Court St (at Joralemon St)", "Brooklyn, NY 11201", "United States"]}, "categories": [{"id": "4bf58dd8d48988d1e0931735", "name": "Coffee Shop", "pluralName": "Coffee Shops", "shortName": "Coffee Shop", "icon": {"prefix": "https://ss3.4sqi.net/img/categories_v2/food/coffeeshop_", "suffix": ".png"}, "primary": true}], "photos": {"count": 0, "groups": []}}, "referralId": "e-0-4acf7fb1f964a5201dd420e3-38"}, {"reasons": {"count": 0, "items": [{"summary": "This spot is popular", "type": "general", "reasonName": "globalInteractionReason"}]}, "venue": {"id": "4a9b025ef964a520f93320e3", "name": "Starbucks", "location": {"address": "6 Metrotech Ctr", "lat": 40.694019, "lng": -73.9868, "labeledLatLngs": [{"label": "display", "lat": 40.694019, "lng": -73.9868}], "postalCode": "11201", "cc": "US", "city": "Brooklyn", "state": "NY", "country": "United States", "formattedAddress": ["6 Metrotech Ctr", "Brooklyn, NY 11201", "United States"]}, "categories": [{"id": "4bf58dd8d48988d1e0931735", "name": "Coffee Shop", "pluralName": "Coffee Shops", "shortName": "Coffee Shop", "icon": {"prefix": "https://ss3.4sqi.net/img/categories_v2/food/coffeeshop_", "suffix": ".png"}, "primary": true}], "photos": {"count": 0, "groups": []}}, "referralId": "e-0-4a9b025ef964a520f93320e3-39"}, {"reasons": {"count": 0, "items": [{"summary": "This spot is popular", "type": "general", "reasonName": "globalInteractionReason"}]}, "venue": {"id": "49edd0a5f964a520fa671fe3", "name": "Starbucks", "location": {"address": "134 Montague Street", "crossStreet": "btwn Henry & Clinton St", "lat": 40.69455558, "lng": -73.99398646, "labeledLatLngs": [{"label": "display", "lat": 40.69455558, "lng": -73.99398646}], "postalCode": "11201", "cc": "US", "city": "Brooklyn", "state": "NY", "country": "United States", "formattedAddress": ["134 Montague Street (btwn Henry & Clinton St)", "Brooklyn, NY 11201", "United States"]}, "categories": [{"id": "4bf58dd8d48988d1e0931735", "name": "Coffee Shop", "pluralName": "Coffee Shops", "shortName": "Coffee Shop", "icon": {"prefix": "https://ss3.4sqi.net/img/categories_v2/food/coffeeshop_", "suffix": ".png"}, "primary": true}], "photos": {"count": 0, "groups": []}}, "referralId": "e-0-49edd0a5f964a520fa671fe3-40"}, {"reasons": {"count": 0, "items": [{"summary": "This spot is popular", "type": "general", "reasonName": "globalInteractionReason"}]}, "venue": {"id": "49e4a677f964a52014631fe3", "name": "Starbucks", "location": {"address": "67 Front St", "crossStreet": "at Main St", "lat": 40.702694, "lng": -73.990906, "labeledLatLngs": [{"label": "display", "lat": 40.702694, "lng": -73.990906}], "postalCode": "11201", "cc": "US", "city": "Brooklyn", "state": "NY", "country": "United States", "formattedAddress": ["67 Front St (at Main St)", "Brooklyn, NY 11201", "United States"]}, "categories": [{"id": "4bf58dd8d48988d1e0931735", "name": "Coffee Shop", "pluralName": "Coffee Shops", "shortName": "Coffee Shop", "icon": {"prefix": "https://ss3.4sqi.net/img/categories_v2/food/coffeeshop_", "suffix": ".png"}, "primary": true}], "photos": {"count": 0, "groups": []}}, "referralId": "e-0-49e4a677f964a52014631fe3-41"}, {"reasons": {"count": 0, "items": [{"summary": "This spot is popular", "type": "general", "reasonName": "globalInteractionReason"}]}, "venue": {"id": "5241d9cc11d2a19f90424037", "name": "Starbucks", "location": {"address": "395 Flatbush Ave Extension", "crossStreet": "at Fulton St", "lat": 40.68943, "lng": -73.98091, "labeledLatLngs": [{"label": "display", "lat": 40.68943, "lng": -73.98091}], "postalCode": "11201", "cc": "US", "city": "Brooklyn", "state": "NY", "country": "United States", "formattedAddress": ["395 Flatbush Ave Extension (at Fulton St)", "Brooklyn, NY 11201", "United States"]}, "categories": [{"id": "4bf58dd8d48988d1e0931735", "name": "Coffee Shop", "pluralName": "Coffee Shops", "shortName": "Coffee Shop", "icon": {"prefix": "https://ss3.4sqi.net/img/categories_v2/food/coffeeshop_", "suffix": ".png"}, "primary": true}], "photos": {"count": 0, "groups": []}}, "referralId": "e-0-5241d9cc11d2a19f90424037-42"}, {"reasons": {"count": 0, "items": [{"summary": "This spot is popular", "type": "general", "reasonName": "globalInteractionReason"}]}, "venue": {"id": "4b780846f964a520d2b22ee3", "name": "Starbucks", "location": {"address": "33 Hillel Pl", "crossStreet": "at Kenilworth Pl", "lat": 40.63234, "lng": -73.94857, "labeledLatLngs": [{"label": "display", "lat": 40.63234, "lng": -73.94857}], "postalCode": "11210", "cc": "US", "city": "Brooklyn", "state": "NY", "country": "United States", "formattedAddress": ["33 Hillel Pl (at Kenilworth Pl)", "Brooklyn, NY 11210", "United States"]}, "categories": [{"id": "4bf58dd8d48988d1e0931735", "name": "Coffee Shop", "pluralName": "Coffee Shops", "shortName": "Coffee Shop", "icon": {"prefix": "https://ss3.4sqi.net/img/categories_v2/food/coffeeshop_", "suffix": ".png"}, "primary": true}], "photos": {"count": 0, "groups": []}}, "referralId": "e-0-4b780846f964a520d2b22ee3-43"}, {"reasons": {"count": 0, "items": [{"summary": "This spot is popular", "type": "general", "reasonName": "globalInteractionReason"}]}, "venue": {"id": "4acd28eef964a52021cb20e3", "name": "Starbucks", "location": {"address": "164 Smith St", "crossStreet": "at Wyckoff St", "lat": 40.68612962611217, "lng": -73.99090540048812, "labeledLatLngs": [{"label": "display", "lat": 40.68612962611217, "lng": -73.99090540048812}], "postalCode": "11201", "cc": "US", "city": "Brooklyn", "state": "NY", "country": "United States", "formattedAddress": ["164 Smith St (at Wyckoff St)", "Brooklyn, NY 11201", "United States"]}, "categories": [{"id": "4bf58dd8d48988d1e0931735", "name": "Coffee Shop", "pluralName": "Coffee Shops", "shortName": "Coffee Shop", "icon": {"prefix": "https://ss3.4sqi.net/img/categories_v2/food/coffeeshop_", "suffix": ".png"}, "primary": true}], "photos": {"count": 0, "groups": []}}, "referralId": "e-0-4acd28eef964a52021cb20e3-44"}, {"reasons": {"count": 0, "items": [{"summary": "This spot is popular", "type": "general", "reasonName": "globalInteractionReason"}]}, "venue": {"id": "4e68fee81838d179b13b402f", "name": "Starbucks", "location": {"address": "519 Gateway Dr", "crossStreet": "at Target", "lat": 40.652225, "lng": -73.867714, "labeledLatLngs": [{"label": "display", "lat": 40.652225, "lng": -73.867714}], "postalCode": "11239", "cc": "US", "city": "Brooklyn", "state": "NY", "country": "United States", "formattedAddress": ["519 Gateway Dr (at Target)", "Brooklyn, NY 11239", "United States"]}, "categories": [{"id": "4bf58dd8d48988d1e0931735", "name": "Coffee Shop", "pluralName": "Coffee Shops", "shortName": "Coffee Shop", "icon": {"prefix": "https://ss3.4sqi.net/img/categories_v2/food/coffeeshop_", "suffix": ".png"}, "primary": true}], "photos": {"count": 0, "groups": []}}, "referralId": "e-0-4e68fee81838d179b13b402f-45"}, {"reasons": {"count": 0, "items": [{"summary": "This spot is popular", "type": "general", "reasonName": "globalInteractionReason"}]}, "venue": {"id": "4a11d75df964a52050771fe3", "name": "Starbucks", "location": {"address": "166 7th Ave", "crossStreet": "btwn 1st St & Garfield Pl", "lat": 40.671978, "lng": -73.97746, "labeledLatLngs": [{"label": "display", "lat": 40.671978, "lng": -73.97746}], "postalCode": "11215", "cc": "US", "city": "Brooklyn", "state": "NY", "country": "United States", "formattedAddress": ["166 7th Ave (btwn 1st St & Garfield Pl)", "Brooklyn, NY 11215", "United States"]}, "categories": [{"id": "4bf58dd8d48988d1e0931735", "name": "Coffee Shop", "pluralName": "Coffee Shops", "shortName": "Coffee Shop", "icon": {"prefix": "https://ss3.4sqi.net/img/categories_v2/food/coffeeshop_", "suffix": ".png"}, "primary": true}], "photos": {"count": 0, "groups": []}}, "referralId": "e-0-4a11d75df964a52050771fe3-46"}, {"reasons": {"count": 0, "items": [{"summary": "This spot is popular", "type": "general", "reasonName": "globalInteractionReason"}]}, "venue": {"id": "4c991ae9292a6dcbf776c376", "name": "Starbucks", "location": {"address": "1598 Flatbush Ave", "crossStreet": "at Target", "lat": 40.631556443248236, "lng": -73.94671947299318, "labeledLatLngs": [{"label": "display", "lat": 40.631556443248236, "lng": -73.94671947299318}], "postalCode": "11210", "cc": "US", "city": "Brooklyn", "state": "NY", "country": "United States", "formattedAddress": ["1598 Flatbush Ave (at Target)", "Brooklyn, NY 11210", "United States"]}, "categories": [{"id": "4bf58dd8d48988d1e0931735", "name": "Coffee Shop", "pluralName": "Coffee Shops", "shortName": "Coffee Shop", "icon": {"prefix": "https://ss3.4sqi.net/img/categories_v2/food/coffeeshop_", "suffix": ".png"}, "primary": true}], "photos": {"count": 0, "groups": []}}, "referralId": "e-0-4c991ae9292a6dcbf776c376-47"}, {"reasons": {"count": 0, "items": [{"summary": "This spot is popular", "type": "general", "reasonName": "globalInteractionReason"}]}, "venue": {"id": "4fb1796ce4b0e1e968dd0a0a", "name": "Starbucks", "location": {"address": "106 Court St", "crossStreet": "at Barnes & Noble", "lat": 40.69067089270092, "lng": -73.99192979458797, "labeledLatLngs": [{"label": "display", "lat": 40.69067089270092, "lng": -73.99192979458797}], "postalCode": "11201", "cc": "US", "city": "Brooklyn", "state": "NY", "country": "United States", "formattedAddress": ["106 Court St (at Barnes & Noble)", "Brooklyn, NY 11201", "United States"]}, "categories": [{"id": "4bf58dd8d48988d1e0931735", "name": "Coffee Shop", "pluralName": "Coffee Shops", "shortName": "Coffee Shop", "icon": {"prefix": "https://ss3.4sqi.net/img/categories_v2/food/coffeeshop_", "suffix": ".png"}, "primary": true}], "photos": {"count": 0, "groups": []}}, "referralId": "e-0-4fb1796ce4b0e1e968dd0a0a-48"}, {"reasons": {"count": 0, "items": [{"summary": "This spot is popular", "type": "general", "reasonName": "globalInteractionReason"}]}, "venue": {"id": "53cb03ce498ee4f4fb44e927", "name": "Starbucks", "location": {"address": "405-409 Union Avenue", "lat": 40.712518031675856, "lng": -73.9514553410572, "labeledLatLngs": [{"label": "display", "lat": 40.712518031675856, "lng": -73.9514553410572}], "postalCode": "11211", "cc": "US", "city": "Brooklyn", "state": "NY", "country": "United States", "formattedAddress": ["405-409 Union Avenue", "Brooklyn, NY 11211", "United States"]}, "categories": [{"id": "4bf58dd8d48988d1e0931735", "name": "Coffee Shop", "pluralName": "Coffee Shops", "shortName": "Coffee Shop", "icon": {"prefix": "https://ss3.4sqi.net/img/categories_v2/food/coffeeshop_", "suffix": ".png"}, "primary": true}], "photos": {"count": 0, "groups": []}}, "referralId": "e-0-53cb03ce498ee4f4fb44e927-49"}, {"reasons": {"count": 0, "items": [{"summary": "This spot is popular", "type": "general", "reasonName": "globalInteractionReason"}]}, "venue": {"id": "4b23dd84f964a520955b24e3", "name": "Starbucks", "location": {"address": "167 Court St", "crossStreet": "at Dean St", "lat": 40.68856768492465, "lng": -73.99290654664485, "labeledLatLngs": [{"label": "display", "lat": 40.68856768492465, "lng": -73.99290654664485}], "postalCode": "11201", "cc": "US", "city": "Brooklyn", "state": "NY", "country": "United States", "formattedAddress": ["167 Court St (at Dean St)", "Brooklyn, NY 11201", "United States"]}, "categories": [{"id": "4bf58dd8d48988d1e0931735", "name": "Coffee Shop", "pluralName": "Coffee Shops", "shortName": "Coffee Shop", "icon": {"prefix": "https://ss3.4sqi.net/img/categories_v2/food/coffeeshop_", "suffix": ".png"}, "primary": true}], "photos": {"count": 0, "groups": []}}, "referralId": "e-0-4b23dd84f964a520955b24e3-50"}, {"reasons": {"count": 0, "items": [{"summary": "This spot is popular", "type": "general", "reasonName": "globalInteractionReason"}]}, "venue": {"id": "4bc9ee9468f976b0032a5e83", "name": "Starbucks", "location": {"address": "139 Flatbush Ave", "crossStreet": "btwn 4th and Atlantic Ave", "lat": 40.68444, "lng": -73.977516, "labeledLatLngs": [{"label": "display", "lat": 40.68444, "lng": -73.977516}], "postalCode": "11217", "cc": "US", "city": "Brooklyn", "state": "NY", "country": "United States", "formattedAddress": ["139 Flatbush Ave (btwn 4th and Atlantic Ave)", "Brooklyn, NY 11217", "United States"]}, "categories": [{"id": "4bf58dd8d48988d1e0931735", "name": "Coffee Shop", "pluralName": "Coffee Shops", "shortName": "Coffee Shop", "icon": {"prefix": "https://ss3.4sqi.net/img/categories_v2/food/coffeeshop_", "suffix": ".png"}, "primary": true}], "photos": {"count": 0, "groups": []}}, "referralId": "e-0-4bc9ee9468f976b0032a5e83-51"}, {"reasons": {"count": 0, "items": [{"summary": "This spot is popular", "type": "general", "reasonName": "globalInteractionReason"}]}, "venue": {"id": "4a9189d6f964a5209a1a20e3", "name": "Starbucks", "location": {"address": "910 Manhattan Avenue", "crossStreet": "at Greenpoint Ave", "lat": 40.73053, "lng": -73.95414, "labeledLatLngs": [{"label": "display", "lat": 40.73053, "lng": -73.95414}], "postalCode": "11222", "cc": "US", "city": "Brooklyn", "state": "NY", "country": "United States", "formattedAddress": ["910 Manhattan Avenue (at Greenpoint Ave)", "Brooklyn, NY 11222", "United States"]}, "categories": [{"id": "4bf58dd8d48988d1e0931735", "name": "Coffee Shop", "pluralName": "Coffee Shops", "shortName": "Coffee Shop", "icon": {"prefix": "https://ss3.4sqi.net/img/categories_v2/food/coffeeshop_", "suffix": ".png"}, "primary": true}], "photos": {"count": 0, "groups": []}}, "referralId": "e-0-4a9189d6f964a5209a1a20e3-52"}, {"reasons": {"count": 0, "items": [{"summary": "This spot is popular", "type": "general", "reasonName": "globalInteractionReason"}]}, "venue": {"id": "521a282a11d2b33a42bd4869", "name": "Starbucks", "location": {"address": "228 Duffield St", "crossStreet": "at Sheraton Brooklyn New York Hotel", "lat": 40.6914388903637, "lng": -73.98431495963217, "labeledLatLngs": [{"label": "display", "lat": 40.6914388903637, "lng": -73.98431495963217}], "postalCode": "11201", "cc": "US", "city": "Brooklyn", "state": "NY", "country": "United States", "formattedAddress": ["228 Duffield St (at Sheraton Brooklyn New York Hotel)", "Brooklyn, NY 11201", "United States"]}, "categories": [{"id": "4bf58dd8d48988d1e0931735", "name": "Coffee Shop", "pluralName": "Coffee Shops", "shortName": "Coffee Shop", "icon": {"prefix": "https://ss3.4sqi.net/img/categories_v2/food/coffeeshop_", "suffix": ".png"}, "primary": true}], "photos": {"count": 0, "groups": []}}, "referralId": "e-0-521a282a11d2b33a42bd4869-53"}, {"reasons": {"count": 0, "items": [{"summary": "This spot is popular", "type": "general", "reasonName": "globalInteractionReason"}]}, "venue": {"id": "4c55efd5a724e21e5a84e2f8", "name": "Starbucks", "location": {"address": "267 7th Ave", "crossStreet": "at Barnes & Noble", "lat": 40.668831296194696, "lng": -73.9798931637053, "labeledLatLngs": [{"label": "display", "lat": 40.668831296194696, "lng": -73.9798931637053}], "postalCode": "11215", "cc": "US", "city": "Brooklyn", "state": "NY", "country": "United States", "formattedAddress": ["267 7th Ave (at Barnes & Noble)", "Brooklyn, NY 11215", "United States"]}, "categories": [{"id": "4bf58dd8d48988d1e0931735", "name": "Coffee Shop", "pluralName": "Coffee Shops", "shortName": "Coffee Shop", "icon": {"prefix": "https://ss3.4sqi.net/img/categories_v2/food/coffeeshop_", "suffix": ".png"}, "primary": true}], "photos": {"count": 0, "groups": []}}, "referralId": "e-0-4c55efd5a724e21e5a84e2f8-54"}]}]}}