{"meta": {"code": 200, "requestId": "5d1fe9496f0aa2002c09283a"}, "response": {"suggestedFilters": {"header": "Tap to show:", "filters": [{"name": "Open now", "key": "openNow"}, {"name": "$-$$$$", "key": "price"}]}, "geocode": {"what": "", "where": "new york ny", "center": {"lat": 40.742185, "lng": -73.992602}, "displayString": "New York, NY, United States", "cc": "US", "geometry": {"bounds": {"ne": {"lat": 40.882214, "lng": -73.907}, "sw": {"lat": 40.679548, "lng": -74.047285}}}, "slug": "new-york-city-new-york", "longId": "72057594043056517"}, "headerLocation": "New York", "headerFullLocation": "New York", "headerLocationGranularity": "city", "query": "starbucks", "totalResults": 106, "suggestedBounds": {"ne": {"lat": 40.76421897319368, "lng": -73.971076082289}, "sw": {"lat": 40.720602381333734, "lng": -74.00795134824558}}, "groups": [{"type": "Recommended Places", "name": "recommended", "items": [{"reasons": {"count": 0, "items": [{"summary": "This spot is popular", "type": "general", "reasonName": "globalInteractionReason"}]}, "venue": {"id": "5c13bf838afbe0002de55061", "name": "Starbucks Reserve Roastery", "location": {"address": "61 9th Ave", "crossStreet": "at W 15th St", "lat": 40.74166158826782, "lng": -74.00507982765883, "labeledLatLngs": [{"label": "display", "lat": 40.74166158826782, "lng": -74.00507982765883}], "postalCode": "10011", "cc": "US", "city": "New York", "state": "NY", "country": "United States", "formattedAddress": ["61 9th Ave (at W 15th St)", "New York, NY 10011", "United States"]}, "categories": [{"id": "4bf58dd8d48988d1e0931735", "name": "Coffee Shop", "pluralName": "Coffee Shops", "shortName": "Coffee Shop", "icon": {"prefix": "https://ss3.4sqi.net/img/categories_v2/food/coffeeshop_", "suffix": ".png"}, "primary": true}], "photos": {"count": 0, "groups": []}}, "referralId": "e-0-5c13bf838afbe0002de55061-0"}, {"reasons": {"count": 0, "items": [{"summary": "This spot is popular", "type": "general", "reasonName": "globalInteractionReason"}]}, "venue": {"id": "55a555fd498e1727ae82a345", "name": "Starbucks", "location": {"address": "11 Penn Plz", "crossStreet": "btwn 6th & 7th Ave", "lat": 40.74900081, "lng": -73.99035964, "labeledLatLngs": [{"label": "display", "lat": 40.74900081, "lng": -73.99035964}], "postalCode": "10001", "cc": "US", "city": "New York", "state": "NY", "country": "United States", "formattedAddress": ["11 Penn Plz (btwn 6th & 7th Ave)", "New York, NY 10001", "United States"]}, "categories": [{"id": "4bf58dd8d48988d1e0931735", "name": "Coffee Shop", "pluralName": "Coffee Shops", "shortName": "Coffee Shop", "icon": {"prefix": "https://ss3.4sqi.net/img/categories_v2/food/coffeeshop_", "suffix": ".png"}, "primary": true}], "photos": {"count": 0, "groups": []}}, "referralId": "e-0-55a555fd498e1727ae82a345-1"}, {"reasons": {"count": 0, "items": [{"summary": "This spot is popular", "type": "general", "reasonName": "globalInteractionReason"}]}, "venue": {"id": "520e0f34498e1c964d2c9ee6", "name": "Starbucks", "location": {"address": "625 8th Ave", "crossStreet": "at Port Authority Bus Terminal", "lat": 40.75663838, "lng": -73.99094694, "labeledLatLngs": [{"label": "display", "lat": 40.75663838, "lng": -73.99094694}], "postalCode": "10018", "cc": "US", "city": "New York", "state": "NY", "country": "United States", "formattedAddress": ["625 8th Ave (at Port Authority Bus Terminal)", "New York, NY 10018", "United States"]}, "categories": [{"id": "4bf58dd8d48988d1e0931735", "name": "Coffee Shop", "pluralName": "Coffee Shops", "shortName": "Coffee Shop", "icon": {"prefix": "https://ss3.4sqi.net/img/categories_v2/food/coffeeshop_", "suffix": ".png"}, "primary": true}], "photos": {"count": 0, "groups": []}}, "referralId": "e-0-520e0f34498e1c964d2c9ee6-2"}, {"reasons": {"count": 0, "items": [{"summary": "This spot is popular", "type": "general", "reasonName": "globalInteractionReason"}]}, "venue": {"id": "4b5f42a1f964a52094b029e3", "name": "Starbucks", "location": {"address": "1585 Broadway", "crossStreet": "at W 47th St", "lat": 40.75956289539102, "lng": -73.98512676844317, "labeledLatLngs": [{"label": "display", "lat": 40.75956289539102, "lng": -73.98512676844317}], "postalCode": "10036", "cc": "US", "city": "New York", "state": "NY", "country": "United States", "formattedAddress": ["1585 Broadway (at W 47th St)", "New York, NY 10036", "United States"]}, "categories": [{"id": "4bf58dd8d48988d1e0931735", "name": "Coffee Shop", "pluralName": "Coffee Shops", "shortName": "Coffee Shop", "icon": {"prefix": "https://ss3.4sqi.net/img/categories_v2/food/coffeeshop_", "suffix": ".png"}, "primary": true}], "photos": {"count": 0, "groups": []}}, "referralId": "e-0-4b5f42a1f964a52094b029e3-3"}, {"reasons": {"count": 0, "items": [{"summary": "This spot is popular", "type": "general", "reasonName": "globalInteractionReason"}]}, "venue": {"id": "57da31dacd10a259785fd379", "name": "Starbucks Reserve", "location": {"address": "10 Waverly Pl", "crossStreet": "at Mercer St", "lat": 40.72994333023035, "lng": -73.9939131949986, "labeledLatLngs": [{"label": "display", "lat": 40.72994333023035, "lng": -73.9939131949986}], "postalCode": "10003", "cc": "US", "city": "New York", "state": "NY", "country": "United States", "formattedAddress": ["10 Waverly Pl (at Mercer St)", "New York, NY 10003", "United States"]}, "categories": [{"id": "4bf58dd8d48988d1e0931735", "name": "Coffee Shop", "pluralName": "Coffee Shops", "shortName": "Coffee Shop", "icon": {"prefix": "https://ss3.4sqi.net/img/categories_v2/food/coffeeshop_", "suffix": ".png"}, "primary": true}], "photos": {"count": 0, "groups": []}}, "referralId": "e-0-57da31dacd10a259785fd379-4"}, {"reasons": {"count": 0, "items": [{"summary": "This spot is popular", "type": "general", "reasonName": "globalInteractionReason"}]}, "venue": {"id": "52985ac211d206dd7cdb01cf", "name": "Starbucks", "location": {"address": "151 W 34th St", "crossStreet": "at Mezzanine level", "lat": 40.75052701, "lng": -73.98815428, "labeledLatLngs": [{"label": "display", "lat": 40.75052701, "lng": -73.98815428}], "postalCode": "10001", "cc": "US", "city": "New York", "state": "NY", "country": "United States", "formattedAddress": ["151 W 34th St (at Mezzanine level)", "New York, NY 10001", "United States"]}, "categories": [{"id": "4bf58dd8d48988d1e0931735", "name": "Coffee Shop", "pluralName": "Coffee Shops", "shortName": "Coffee Shop", "icon": {"prefix": "https://ss3.4sqi.net/img/categories_v2/food/coffeeshop_", "suffix": ".png"}, "primary": true}], "photos": {"count": 0, "groups": []}}, "referralId": "e-0-52985ac211d206dd7cdb01cf-5"}, {"reasons": {"count": 0, "items": [{"summary": "This spot is popular", "type": "general", "reasonName": "globalInteractionReason"}]}, "venue": {"id": "4b4bc134f964a52093a626e3", "name": "Starbucks", "location": {"address": "750 Seventh Ave", "crossStreet": "at W 49th St", "lat": 40.76056698741214, "lng": -73.98380932982371, "labeledLatLngs": [{"label": "display", "lat": 40.76056698741214, "lng": -73.98380932982371}], "postalCode": "10019", "cc": "US", "city": "New York", "state": "NY", "country": "United States", "formattedAddress": ["750 Seventh Ave (at W 49th St)", "New York, NY 10019", "United States"]}, "categories": [{"id": "4bf58dd8d48988d1e0931735", "name": "Coffee Shop", "pluralName": "Coffee Shops", "shortName": "Coffee Shop", "icon": {"prefix": "https://ss3.4sqi.net/img/categories_v2/food/coffeeshop_", "suffix": ".png"}, "primary": true}], "photos": {"count": 0, "groups": []}}, "referralId": "e-0-4b4bc134f964a52093a626e3-6"}, {"reasons": {"count": 0, "items": [{"summary": "This spot is popular", "type": "general", "reasonName": "globalInteractionReason"}]}, "venue": {"id": "4a5e9b4af964a520e4be1fe3", "name": "Starbucks", "location": {"address": "1657 Broadway", "crossStreet": "at W 51st St", "lat": 40.762110813414644, "lng": -73.98363055436157, "labeledLatLngs": [{"label": "display", "lat": 40.762110813414644, "lng": -73.98363055436157}], "postalCode": "10019", "cc": "US", "city": "New York", "state": "NY", "country": "United States", "formattedAddress": ["1657 Broadway (at W 51st St)", "New York, NY 10019", "United States"]}, "categories": [{"id": "4bf58dd8d48988d1e0931735", "name": "Coffee Shop", "pluralName": "Coffee Shops", "shortName": "Coffee Shop", "icon": {"prefix": "https://ss3.4sqi.net/img/categories_v2/food/coffeeshop_", "suffix": ".png"}, "primary": true}], "photos": {"count": 0, "groups": []}}, "referralId": "e-0-4a5e9b4af964a520e4be1fe3-7"}, {"reasons": {"count": 0, "items": [{"summary": "This spot is popular", "type": "general", "reasonName": "globalInteractionReason"}]}, "venue": {"id": "56e845f3498e166a7f3d4f07", "name": "Starbucks", "location": {"address": "525 W 26th St", "crossStreet": "btwn 10th & 11th Ave", "lat": 40.75012123722105, "lng": -74.00397732719665, "labeledLatLngs": [{"label": "display", "lat": 40.75012123722105, "lng": -74.00397732719665}], "postalCode": "10001", "cc": "US", "city": "New York", "state": "NY", "country": "United States", "formattedAddress": ["525 W 26th St (btwn 10th & 11th Ave)", "New York, NY 10001", "United States"]}, "categories": [{"id": "4bf58dd8d48988d1e0931735", "name": "Coffee Shop", "pluralName": "Coffee Shops", "shortName": "Coffee Shop", "icon": {"prefix": "https://ss3.4sqi.net/img/categories_v2/food/coffeeshop_", "suffix": ".png"}, "primary": true}], "photos": {"count": 0, "groups": []}}, "referralId": "e-0-56e845f3498e166a7f3d4f07-8"}, {"reasons": {"count": 0, "items": [{"summary": "This spot is popular", "type": "general", "reasonName": "globalInteractionReason"}]}, "venue": {"id": "49c64908f964a52030571fe3", "name": "Starbucks", "location": {"address": "93 Greenwich Ave", "crossStreet": "at Bank St", "lat": 40.73725, "lng": -74.00172, "labeledLatLngs": [{"label": "display", "lat": 40.73725, "lng": -74.00172}], "postalCode": "10014", "cc": "US", "city": "New York", "state": "NY", "country": "United States", "formattedAddress": ["93 Greenwich Ave (at Bank St)", "New York, NY 10014", "United States"]}, "categories": [{"id": "4bf58dd8d48988d1e0931735", "name": "Coffee Shop", "pluralName": "Coffee Shops", "shortName": "Coffee Shop", "icon": {"prefix": "https://ss3.4sqi.net/img/categories_v2/food/coffeeshop_", "suffix": ".png"}, "primary": true}], "photos": {"count": 0, "groups": []}}, "referralId": "e-0-49c64908f964a52030571fe3-9"}, {"reasons": {"count": 0, "items": [{"summary": "This spot is popular", "type": "general", "reasonName": "globalInteractionReason"}]}, "venue": {"id": "56327079498eb65f4b17c8bd", "name": "Starbucks", "location": {"address": "151 W 34th St Fl 2", "crossStreet": "btwn 7th Ave & Broadway", "lat": 40.75093890185689, "lng": -73.98904681205748, "labeledLatLngs": [{"label": "display", "lat": 40.75093890185689, "lng": -73.98904681205748}], "postalCode": "10001", "cc": "US", "city": "New York", "state": "NY", "country": "United States", "formattedAddress": ["151 W 34th St Fl 2 (btwn 7th Ave & Broadway)", "New York, NY 10001", "United States"]}, "categories": [{"id": "4bf58dd8d48988d1e0931735", "name": "Coffee Shop", "pluralName": "Coffee Shops", "shortName": "Coffee Shop", "icon": {"prefix": "https://ss3.4sqi.net/img/categories_v2/food/coffeeshop_", "suffix": ".png"}, "primary": true}], "photos": {"count": 0, "groups": []}}, "referralId": "e-0-56327079498eb65f4b17c8bd-10"}, {"reasons": {"count": 0, "items": [{"summary": "This spot is popular", "type": "general", "reasonName": "globalInteractionReason"}]}, "venue": {"id": "4f2be987e4b06f82469542e1", "name": "Starbucks", "location": {"address": "977 Avenue of the Americas", "crossStreet": "at W 36th St", "lat": 40.751, "lng": -73.987015, "labeledLatLngs": [{"label": "display", "lat": 40.751, "lng": -73.987015}], "postalCode": "10018", "cc": "US", "city": "New York", "state": "NY", "country": "United States", "formattedAddress": ["977 Avenue of the Americas (at W 36th St)", "New York, NY 10018", "United States"]}, "categories": [{"id": "4bf58dd8d48988d1e0931735", "name": "Coffee Shop", "pluralName": "Coffee Shops", "shortName": "Coffee Shop", "icon": {"prefix": "https://ss3.4sqi.net/img/categories_v2/food/coffeeshop_", "suffix": ".png"}, "primary": true}], "photos": {"count": 0, "groups": []}}, "referralId": "e-0-4f2be987e4b06f82469542e1-11"}, {"reasons": {"count": 0, "items": [{"summary": "This spot is popular", "type": "general", "reasonName": "globalInteractionReason"}]}, "venue": {"id": "591eea6f6cf01a755db80c89", "name": "Starbucks", "location": {"address": "1411 Broadway", "crossStreet": "40th", "lat": 40.754292223412804, "lng": -73.98704612024362, "labeledLatLngs": [{"label": "display", "lat": 40.754292223412804, "lng": -73.98704612024362}], "postalCode": "10018", "cc": "US", "city": "New York", "state": "NY", "country": "United States", "formattedAddress": ["1411 Broadway (40th)", "New York, NY 10018", "United States"]}, "categories": [{"id": "4bf58dd8d48988d1e0931735", "name": "Coffee Shop", "pluralName": "Coffee Shops", "shortName": "Coffee Shop", "icon": {"prefix": "https://ss3.4sqi.net/img/categories_v2/food/coffeeshop_", "suffix": ".png"}, "primary": true}], "photos": {"count": 0, "groups": []}}, "referralId": "e-0-591eea6f6cf01a755db80c89-12"}, {"reasons": {"count": 0, "items": [{"summary": "This spot is popular", "type": "general", "reasonName": "globalInteractionReason"}]}, "venue": {"id": "4aa01922f964a520483e20e3", "name": "Starbucks", "location": {"address": "373 5th Ave", "crossStreet": "at E 35th St", "lat": 40.749138, "lng": -73.983826, "labeledLatLngs": [{"label": "display", "lat": 40.749138, "lng": -73.983826}], "postalCode": "10016", "cc": "US", "city": "New York", "state": "NY", "country": "United States", "formattedAddress": ["373 5th Ave (at E 35th St)", "New York, NY 10016", "United States"]}, "categories": [{"id": "4bf58dd8d48988d1e0931735", "name": "Coffee Shop", "pluralName": "Coffee Shops", "shortName": "Coffee Shop", "icon": {"prefix": "https://ss3.4sqi.net/img/categories_v2/food/coffeeshop_", "suffix": ".png"}, "primary": true}], "photos": {"count": 0, "groups": []}}, "referralId": "e-0-4aa01922f964a520483e20e3-13"}, {"reasons": {"count": 0, "items": [{"summary": "This spot is popular", "type": "general", "reasonName": "globalInteractionReason"}]}, "venue": {"id": "4ad71c45f964a520b50821e3", "name": "Starbucks", "location": {"address": "4 W. 21st Street", "crossStreet": "at 5th Ave", "lat": 40.740383, "lng": -73.991165, "labeledLatLngs": [{"label": "display", "lat": 40.740383, "lng": -73.991165}], "postalCode": "10010", "cc": "US", "city": "New York", "state": "NY", "country": "United States", "formattedAddress": ["4 W. 21st Street (at 5th Ave)", "New York, NY 10010", "United States"]}, "categories": [{"id": "4bf58dd8d48988d1e0931735", "name": "Coffee Shop", "pluralName": "Coffee Shops", "shortName": "Coffee Shop", "icon": {"prefix": "https://ss3.4sqi.net/img/categories_v2/food/coffeeshop_", "suffix": ".png"}, "primary": true}], "photos": {"count": 0, "groups": []}}, "referralId": "e-0-4ad71c45f964a520b50821e3-14"}, {"reasons": {"count": 0, "items": [{"summary": "This spot is popular", "type": "general", "reasonName": "globalInteractionReason"}]}, "venue": {"id": "58c8c7ca9900e624af24a199", "name": "Starbucks", "location": {"address": "28 W 48th St", "crossStreet": "btwen 5th & 6th Ave", "lat": 40.75814852475969, "lng": -73.97941981951507, "labeledLatLngs": [{"label": "display", "lat": 40.75814852475969, "lng": -73.97941981951507}], "postalCode": "10036", "cc": "US", "city": "New York", "state": "NY", "country": "United States", "formattedAddress": ["28 W 48th St (btwen 5th & 6th Ave)", "New York, NY 10036", "United States"]}, "categories": [{"id": "4bf58dd8d48988d1e0931735", "name": "Coffee Shop", "pluralName": "Coffee Shops", "shortName": "Coffee Shop", "icon": {"prefix": "https://ss3.4sqi.net/img/categories_v2/food/coffeeshop_", "suffix": ".png"}, "primary": true}], "photos": {"count": 0, "groups": []}}, "referralId": "e-0-58c8c7ca9900e624af24a199-15"}, {"reasons": {"count": 0, "items": [{"summary": "This spot is popular", "type": "general", "reasonName": "globalInteractionReason"}]}, "venue": {"id": "4acbdd2ef964a52016c820e3", "name": "Starbucks", "location": {"address": "684 8th Ave", "crossStreet": "at W 43rd St", "lat": 40.75799862, "lng": -73.98894971, "labeledLatLngs": [{"label": "display", "lat": 40.75799862, "lng": -73.98894971}], "postalCode": "10036", "cc": "US", "city": "New York", "state": "NY", "country": "United States", "formattedAddress": ["684 8th Ave (at W 43rd St)", "New York, NY 10036", "United States"]}, "categories": [{"id": "4bf58dd8d48988d1e0931735", "name": "Coffee Shop", "pluralName": "Coffee Shops", "shortName": "Coffee Shop", "icon": {"prefix": "https://ss3.4sqi.net/img/categories_v2/food/coffeeshop_", "suffix": ".png"}, "primary": true}], "photos": {"count": 0, "groups": []}}, "referralId": "e-0-4acbdd2ef964a52016c820e3-16"}, {"reasons": {"count": 0, "items": [{"summary": "This spot is popular", "type": "general", "reasonName": "globalInteractionReason"}]}, "venue": {"id": "52869069498e3289da674cea", "name": "Starbucks", "location": {"address": "11 E 42nd St", "crossStreet": "btwn E 42nd & E 43rd St", "lat": 40.75315692, "lng": -73.97975945, "labeledLatLngs": [{"label": "display", "lat": 40.75315692, "lng": -73.97975945}], "postalCode": "10017", "cc": "US", "city": "New York", "state": "NY", "country": "United States", "formattedAddress": ["11 E 42nd St (btwn E 42nd & E 43rd St)", "New York, NY 10017", "United States"]}, "categories": [{"id": "4bf58dd8d48988d1e0931735", "name": "Coffee Shop", "pluralName": "Coffee Shops", "shortName": "Coffee Shop", "icon": {"prefix": "https://ss3.4sqi.net/img/categories_v2/food/coffeeshop_", "suffix": ".png"}, "primary": true}], "photos": {"count": 0, "groups": []}}, "referralId": "e-0-52869069498e3289da674cea-17"}, {"reasons": {"count": 0, "items": [{"summary": "This spot is popular", "type": "general", "reasonName": "globalInteractionReason"}]}, "venue": {"id": "4b5b23bef964a52003e628e3", "name": "Starbucks", "location": {"address": "450 Fashion Ave", "crossStreet": "at W 34th St", "lat": 40.75119363, "lng": -73.99093502, "labeledLatLngs": [{"label": "display", "lat": 40.75119363, "lng": -73.99093502}], "postalCode": "10123", "cc": "US", "city": "New York", "state": "NY", "country": "United States", "formattedAddress": ["450 Fashion Ave (at W 34th St)", "New York, NY 10123", "United States"]}, "categories": [{"id": "4bf58dd8d48988d1e0931735", "name": "Coffee Shop", "pluralName": "Coffee Shops", "shortName": "Coffee Shop", "icon": {"prefix": "https://ss3.4sqi.net/img/categories_v2/food/coffeeshop_", "suffix": ".png"}, "primary": true}], "photos": {"count": 0, "groups": []}}, "referralId": "e-0-4b5b23bef964a52003e628e3-18"}, {"reasons": {"count": 0, "items": [{"summary": "This spot is popular", "type": "general", "reasonName": "globalInteractionReason"}]}, "venue": {"id": "506c7556e4b03bdbe5afda50", "name": "Starbucks", "location": {"address": "227 W 27th St", "crossStreet": "FIT Cafeteria", "lat": 40.747549574689174, "lng": -73.99562358856201, "labeledLatLngs": [{"label": "display", "lat": 40.747549574689174, "lng": -73.99562358856201}], "postalCode": "10001", "cc": "US", "city": "New York", "state": "NY", "country": "United States", "formattedAddress": ["227 W 27th St (FIT Cafeteria)", "New York, NY 10001", "United States"]}, "categories": [{"id": "4bf58dd8d48988d1e0931735", "name": "Coffee Shop", "pluralName": "Coffee Shops", "shortName": "Coffee Shop", "icon": {"prefix": "https://ss3.4sqi.net/img/categories_v2/food/coffeeshop_", "suffix": ".png"}, "primary": true}], "photos": {"count": 0, "groups": []}}, "referralId": "e-0-506c7556e4b03bdbe5afda50-19"}, {"reasons": {"count": 0, "items": [{"summary": "This spot is popular", "type": "general", "reasonName": "globalInteractionReason"}]}, "venue": {"id": "5cb61f46a4b51b002cb99bbe", "name": "Starbucks", "location": {"address": "277 Park, 17th Floor", "lat": 40.755613, "lng": -73.974741, "labeledLatLngs": [{"label": "display", "lat": 40.755613, "lng": -73.974741}], "postalCode": "10017", "cc": "US", "city": "New York", "state": "NY", "country": "United States", "formattedAddress": ["277 Park, 17th Floor", "New York, NY 10017", "United States"]}, "categories": [{"id": "4bf58dd8d48988d1e0931735", "name": "Coffee Shop", "pluralName": "Coffee Shops", "shortName": "Coffee Shop", "icon": {"prefix": "https://ss3.4sqi.net/img/categories_v2/food/coffeeshop_", "suffix": ".png"}, "primary": true}], "photos": {"count": 0, "groups": []}}, "referralId": "e-0-5cb61f46a4b51b002cb99bbe-20"}, {"reasons": {"count": 0, "items": [{"summary": "This spot is popular", "type": "general", "reasonName": "globalInteractionReason"}]}, "venue": {"id": "4ada106af964a520ed1d21e3", "name": "Starbucks", "location": {"address": "72 Grove St", "crossStreet": "at 7th Ave S", "lat": 40.73318, "lng": -74.00293, "labeledLatLngs": [{"label": "display", "lat": 40.73318, "lng": -74.00293}], "postalCode": "10014", "cc": "US", "city": "New York", "state": "NY", "country": "United States", "formattedAddress": ["72 Grove St (at 7th Ave S)", "New York, NY 10014", "United States"]}, "categories": [{"id": "4bf58dd8d48988d1e0931735", "name": "Coffee Shop", "pluralName": "Coffee Shops", "shortName": "Coffee Shop", "icon": {"prefix": "https://ss3.4sqi.net/img/categories_v2/food/coffeeshop_", "suffix": ".png"}, "primary": true}], "photos": {"count": 0, "groups": []}}, "referralId": "e-0-4ada106af964a520ed1d21e3-21"}, {"reasons": {"count": 0, "items": [{"summary": "This spot is popular", "type": "general", "reasonName": "globalInteractionReason"}]}, "venue": {"id": "4abe60d8f964a520198d20e3", "name": "Starbucks", "location": {"address": "177 Eighth Avenue", "crossStreet": "at W 19th St", "lat": 40.743, "lng": -74.00034, "labeledLatLngs": [{"label": "display", "lat": 40.743, "lng": -74.00034}], "postalCode": "10011", "cc": "US", "city": "New York", "state": "NY", "country": "United States", "formattedAddress": ["177 Eighth Avenue (at W 19th St)", "New York, NY 10011", "United States"]}, "categories": [{"id": "4bf58dd8d48988d1e0931735", "name": "Coffee Shop", "pluralName": "Coffee Shops", "shortName": "Coffee Shop", "icon": {"prefix": "https://ss3.4sqi.net/img/categories_v2/food/coffeeshop_", "suffix": ".png"}, "primary": true}], "photos": {"count": 0, "groups": []}}, "referralId": "e-0-4abe60d8f964a520198d20e3-22"}, {"reasons": {"count": 0, "items": [{"summary": "This spot is popular", "type": "general", "reasonName": "globalInteractionReason"}]}, "venue": {"id": "4b0835acf964a520540623e3", "name": "Starbucks", "location": {"address": "251 W 42nd St", "crossStreet": "at 8th Ave", "lat": 40.75696029208336, "lng": -73.98937805564258, "labeledLatLngs": [{"label": "display", "lat": 40.75696029208336, "lng": -73.98937805564258}], "postalCode": "10036", "cc": "US", "city": "New York", "state": "NY", "country": "United States", "formattedAddress": ["251 W 42nd St (at 8th Ave)", "New York, NY 10036", "United States"]}, "categories": [{"id": "4bf58dd8d48988d1e0931735", "name": "Coffee Shop", "pluralName": "Coffee Shops", "shortName": "Coffee Shop", "icon": {"prefix": "https://ss3.4sqi.net/img/categories_v2/food/coffeeshop_", "suffix": ".png"}, "primary": true}], "photos": {"count": 0, "groups": []}}, "referralId": "e-0-4b0835acf964a520540623e3-23"}, {"reasons": {"count": 0, "items": [{"summary": "This spot is popular", "type": "general", "reasonName": "globalInteractionReason"}]}, "venue": {"id": "5601a351498e93b8e86a4747", "name": "Starbucks", "location": {"address": "25 Union Sq W", "crossStreet": "btwn W 15th & W 16th St", "lat": 40.73628194, "lng": -73.99120667, "labeledLatLngs": [{"label": "display", "lat": 40.73628194, "lng": -73.99120667}], "postalCode": "10003", "cc": "US", "city": "New York", "state": "NY", "country": "United States", "formattedAddress": ["25 Union Sq W (btwn W 15th & W 16th St)", "New York, NY 10003", "United States"]}, "categories": [{"id": "4bf58dd8d48988d1e0931735", "name": "Coffee Shop", "pluralName": "Coffee Shops", "shortName": "Coffee Shop", "icon": {"prefix": "https://ss3.4sqi.net/img/categories_v2/food/coffeeshop_", "suffix": ".png"}, "primary": true}], "photos": {"count": 0, "groups": []}}, "referralId": "e-0-5601a351498e93b8e86a4747-24"}, {"reasons": {"count": 0, "items": [{"summary": "This spot is popular", "type": "general", "reasonName": "globalInteractionReason"}]}, "venue": {"id": "4c098316ed25952148fa1256", "name": "Starbucks", "location": {"address": "350 Fifth Ave", "crossStreet": "at Empire State Building", "lat": 40.748234, "lng": -73.98563, "labeledLatLngs": [{"label": "display", "lat": 40.748234, "lng": -73.98563}], "postalCode": "10001", "cc": "US", "neighborhood": "Midtown", "city": "New York", "state": "NY", "country": "United States", "formattedAddress": ["350 Fifth Ave (at Empire State Building)", "New York, NY 10001", "United States"]}, "categories": [{"id": "4bf58dd8d48988d1e0931735", "name": "Coffee Shop", "pluralName": "Coffee Shops", "shortName": "Coffee Shop", "icon": {"prefix": "https://ss3.4sqi.net/img/categories_v2/food/coffeeshop_", "suffix": ".png"}, "primary": true}], "photos": {"count": 0, "groups": []}}, "referralId": "e-0-4c098316ed25952148fa1256-25"}, {"reasons": {"count": 0, "items": [{"summary": "This spot is popular", "type": "general", "reasonName": "globalInteractionReason"}]}, "venue": {"id": "5902ef325d891b426a85c07a", "name": "Starbucks", "location": {"address": "475 Park Ave S", "lat": 40.745470714370505, "lng": -73.98241856073582, "labeledLatLngs": [{"label": "display", "lat": 40.745470714370505, "lng": -73.98241856073582}], "postalCode": "10016", "cc": "US", "city": "New York", "state": "NY", "country": "United States", "formattedAddress": ["475 Park Ave S", "New York, NY 10016", "United States"]}, "categories": [{"id": "4bf58dd8d48988d1e0931735", "name": "Coffee Shop", "pluralName": "Coffee Shops", "shortName": "Coffee Shop", "icon": {"prefix": "https://ss3.4sqi.net/img/categories_v2/food/coffeeshop_", "suffix": ".png"}, "primary": true}], "photos": {"count": 0, "groups": []}}, "referralId": "e-0-5902ef325d891b426a85c07a-26"}, {"reasons": {"count": 0, "items": [{"summary": "This spot is popular", "type": "general", "reasonName": "globalInteractionReason"}]}, "venue": {"id": "4b38d401f964a520d65025e3", "name": "Starbucks", "location": {"address": "770 Eighth Ave", "lat": 40.760445, "lng": -73.98719, "labeledLatLngs": [{"label": "display", "lat": 40.760445, "lng": -73.98719}], "postalCode": "10036", "cc": "US", "city": "New York", "state": "NY", "country": "United States", "formattedAddress": ["770 Eighth Ave", "New York, NY 10036", "United States"]}, "categories": [{"id": "4bf58dd8d48988d1e0931735", "name": "Coffee Shop", "pluralName": "Coffee Shops", "shortName": "Coffee Shop", "icon": {"prefix": "https://ss3.4sqi.net/img/categories_v2/food/coffeeshop_", "suffix": ".png"}, "primary": true}], "photos": {"count": 0, "groups": []}}, "referralId": "e-0-4b38d401f964a520d65025e3-27"}, {"reasons": {"count": 0, "items": [{"summary": "This spot is popular", "type": "general", "reasonName": "globalInteractionReason"}]}, "venue": {"id": "52dae98c498edf58d8862d1f", "name": "Starbucks", "location": {"address": "1 Herald Sq", "crossStreet": "at 34th St", "lat": 40.7503579115238, "lng": -73.98760854389359, "labeledLatLngs": [{"label": "display", "lat": 40.7503579115238, "lng": -73.98760854389359}], "postalCode": "10001", "cc": "US", "city": "New York", "state": "NY", "country": "United States", "formattedAddress": ["1 Herald Sq (at 34th St)", "New York, NY 10001", "United States"]}, "categories": [{"id": "4bf58dd8d48988d1e0931735", "name": "Coffee Shop", "pluralName": "Coffee Shops", "shortName": "Coffee Shop", "icon": {"prefix": "https://ss3.4sqi.net/img/categories_v2/food/coffeeshop_", "suffix": ".png"}, "primary": true}], "photos": {"count": 0, "groups": []}}, "referralId": "e-0-52dae98c498edf58d8862d1f-28"}, {"reasons": {"count": 0, "items": [{"summary": "This spot is popular", "type": "general", "reasonName": "globalInteractionReason"}]}, "venue": {"id": "49e3a2b3f964a520a6621fe3", "name": "Starbucks", "location": {"address": "3 Park Ave", "crossStreet": "at E 34th St", "lat": 40.746723, "lng": -73.981094, "labeledLatLngs": [{"label": "display", "lat": 40.746723, "lng": -73.981094}], "postalCode": "10016", "cc": "US", "city": "New York", "state": "NY", "country": "United States", "formattedAddress": ["3 Park Ave (at E 34th St)", "New York, NY 10016", "United States"]}, "categories": [{"id": "4bf58dd8d48988d1e0931735", "name": "Coffee Shop", "pluralName": "Coffee Shops", "shortName": "Coffee Shop", "icon": {"prefix": "https://ss3.4sqi.net/img/categories_v2/food/coffeeshop_", "suffix": ".png"}, "primary": true}], "photos": {"count": 0, "groups": []}}, "referralId": "e-0-49e3a2b3f964a520a6621fe3-29"}, {"reasons": {"count": 0, "items": [{"summary": "This spot is popular", "type": "general", "reasonName": "globalInteractionReason"}]}, "venue": {"id": "4b1e47faf964a5205d1824e3", "name": "Starbucks", "location": {"address": "125 Park Ave", "crossStreet": "at E 42nd St", "lat": 40.751863297718614, "lng": -73.97780339445329, "labeledLatLngs": [{"label": "display", "lat": 40.751863297718614, "lng": -73.97780339445329}], "postalCode": "10017", "cc": "US", "neighborhood": "Grand Central", "city": "New York", "state": "NY", "country": "United States", "formattedAddress": ["125 Park Ave (at E 42nd St)", "New York, NY 10017", "United States"]}, "categories": [{"id": "4bf58dd8d48988d1e0931735", "name": "Coffee Shop", "pluralName": "Coffee Shops", "shortName": "Coffee Shop", "icon": {"prefix": "https://ss3.4sqi.net/img/categories_v2/food/coffeeshop_", "suffix": ".png"}, "primary": true}], "photos": {"count": 0, "groups": []}}, "referralId": "e-0-4b1e47faf964a5205d1824e3-30"}, {"reasons": {"count": 0, "items": [{"summary": "This spot is popular", "type": "general", "reasonName": "globalInteractionReason"}]}, "venue": {"id": "52486d18498e1fc73902b4e6", "name": "Starbucks", "location": {"address": "400 E 23rd st", "crossStreet": "at 1st Ave", "lat": 40.736546, "lng": -73.97838, "labeledLatLngs": [{"label": "display", "lat": 40.736546, "lng": -73.97838}], "postalCode": "10010", "cc": "US", "city": "New York", "state": "NY", "country": "United States", "formattedAddress": ["400 E 23rd st (at 1st Ave)", "New York, NY 10010", "United States"]}, "categories": [{"id": "4bf58dd8d48988d1e0931735", "name": "Coffee Shop", "pluralName": "Coffee Shops", "shortName": "Coffee Shop", "icon": {"prefix": "https://ss3.4sqi.net/img/categories_v2/food/coffeeshop_", "suffix": ".png"}, "primary": true}], "photos": {"count": 0, "groups": []}}, "referralId": "e-0-52486d18498e1fc73902b4e6-31"}, {"reasons": {"count": 0, "items": [{"summary": "This spot is popular", "type": "general", "reasonName": "globalInteractionReason"}]}, "venue": {"id": "56e845f8498ed7a95f002d08", "name": "Starbucks", "location": {"address": "5 East 40th st", "crossStreet": "btwn 5th Ave & Madison", "lat": 40.752089954494195, "lng": -73.98135892901436, "labeledLatLngs": [{"label": "display", "lat": 40.752089954494195, "lng": -73.98135892901436}], "postalCode": "10016", "cc": "US", "city": "New York", "state": "NY", "country": "United States", "formattedAddress": ["5 East 40th st (btwn 5th Ave & Madison)", "New York, NY 10016", "United States"]}, "categories": [{"id": "4bf58dd8d48988d1e0931735", "name": "Coffee Shop", "pluralName": "Coffee Shops", "shortName": "Coffee Shop", "icon": {"prefix": "https://ss3.4sqi.net/img/categories_v2/food/coffeeshop_", "suffix": ".png"}, "primary": true}], "photos": {"count": 0, "groups": []}}, "referralId": "e-0-56e845f8498ed7a95f002d08-32"}, {"reasons": {"count": 0, "items": [{"summary": "This spot is popular", "type": "general", "reasonName": "globalInteractionReason"}]}, "venue": {"id": "4b5e5125f964a520488929e3", "name": "Starbucks", "location": {"address": "315 Seventh Ave", "crossStreet": "at W 28th St", "lat": 40.746975, "lng": -73.993324, "labeledLatLngs": [{"label": "display", "lat": 40.746975, "lng": -73.993324}], "postalCode": "10001", "cc": "US", "city": "New York", "state": "NY", "country": "United States", "formattedAddress": ["315 Seventh Ave (at W 28th St)", "New York, NY 10001", "United States"]}, "categories": [{"id": "4bf58dd8d48988d1e0931735", "name": "Coffee Shop", "pluralName": "Coffee Shops", "shortName": "Coffee Shop", "icon": {"prefix": "https://ss3.4sqi.net/img/categories_v2/food/coffeeshop_", "suffix": ".png"}, "primary": true}], "photos": {"count": 0, "groups": []}}, "referralId": "e-0-4b5e5125f964a520488929e3-33"}, {"reasons": {"count": 0, "items": [{"summary": "This spot is popular", "type": "general", "reasonName": "globalInteractionReason"}]}, "venue": {"id": "4dd3d4058877a55425c42e70", "name": "Starbucks", "location": {"address": "122 Greenwich Avenue", "lat": 40.739376, "lng": -74.00261, "labeledLatLngs": [{"label": "display", "lat": 40.739376, "lng": -74.00261}], "postalCode": "10011", "cc": "US", "city": "New York", "state": "NY", "country": "United States", "formattedAddress": ["122 Greenwich Avenue", "New York, NY 10011", "United States"]}, "categories": [{"id": "4bf58dd8d48988d1e0931735", "name": "Coffee Shop", "pluralName": "Coffee Shops", "shortName": "Coffee Shop", "icon": {"prefix": "https://ss3.4sqi.net/img/categories_v2/food/coffeeshop_", "suffix": ".png"}, "primary": true}], "photos": {"count": 0, "groups": []}}, "referralId": "e-0-4dd3d4058877a55425c42e70-34"}, {"reasons": {"count": 0, "items": [{"summary": "This spot is popular", "type": "general", "reasonName": "globalInteractionReason"}]}, "venue": {"id": "4ab966c3f964a5203c7f20e3", "name": "Starbucks", "location": {"address": "685 3rd Ave", "crossStreet": "at E 43rd St", "lat": 40.7515383, "lng": -73.97362889, "labeledLatLngs": [{"label": "display", "lat": 40.7515383, "lng": -73.97362889}], "postalCode": "10017", "cc": "US", "neighborhood": "Turtle Bay", "city": "New York", "state": "NY", "country": "United States", "formattedAddress": ["685 3rd Ave (at E 43rd St)", "New York, NY 10017", "United States"]}, "categories": [{"id": "4bf58dd8d48988d1e0931735", "name": "Coffee Shop", "pluralName": "Coffee Shops", "shortName": "Coffee Shop", "icon": {"prefix": "https://ss3.4sqi.net/img/categories_v2/food/coffeeshop_", "suffix": ".png"}, "primary": true}], "photos": {"count": 0, "groups": []}}, "referralId": "e-0-4ab966c3f964a5203c7f20e3-35"}, {"reasons": {"count": 0, "items": [{"summary": "This spot is popular", "type": "general", "reasonName": "globalInteractionReason"}]}, "venue": {"id": "53d82a5c498ebdc6681b0e13", "name": "Starbucks", "location": {"address": "239 Bleecker St", "lat": 40.730647126953016, "lng": -74.0026079003726, "labeledLatLngs": [{"label": "display", "lat": 40.730647126953016, "lng": -74.0026079003726}], "postalCode": "10014", "cc": "US", "city": "New York", "state": "NY", "country": "United States", "formattedAddress": ["239 Bleecker St", "New York, NY 10014", "United States"]}, "categories": [{"id": "4bf58dd8d48988d1e0931735", "name": "Coffee Shop", "pluralName": "Coffee Shops", "shortName": "Coffee Shop", "icon": {"prefix": "https://ss3.4sqi.net/img/categories_v2/food/coffeeshop_", "suffix": ".png"}, "primary": true}], "photos": {"count": 0, "groups": []}}, "referralId": "e-0-53d82a5c498ebdc6681b0e13-36"}, {"reasons": {"count": 0, "items": [{"summary": "This spot is popular", "type": "general", "reasonName": "globalInteractionReason"}]}, "venue": {"id": "4b697d7bf964a5205aa42be3", "name": "Starbucks", "location": {"address": "575 5th Ave", "crossStreet": "at E 47th St", "lat": 40.75645964, "lng": -73.97835262, "labeledLatLngs": [{"label": "display", "lat": 40.75645964, "lng": -73.97835262}], "postalCode": "10017", "cc": "US", "city": "New York", "state": "NY", "country": "United States", "formattedAddress": ["575 5th Ave (at E 47th St)", "New York, NY 10017", "United States"]}, "categories": [{"id": "4bf58dd8d48988d1e0931735", "name": "Coffee Shop", "pluralName": "Coffee Shops", "shortName": "Coffee Shop", "icon": {"prefix": "https://ss3.4sqi.net/img/categories_v2/food/coffeeshop_", "suffix": ".png"}, "primary": true}], "photos": {"count": 0, "groups": []}}, "referralId": "e-0-4b697d7bf964a5205aa42be3-37"}, {"reasons": {"count": 0, "items": [{"summary": "This spot is popular", "type": "general", "reasonName": "globalInteractionReason"}]}, "venue": {"id": "506583e2e4b084f8df2171dc", "name": "Starbucks", "location": {"address": "350 W 42nd St", "crossStreet": "at 9th Ave", "lat": 40.757996, "lng": -73.99196, "labeledLatLngs": [{"label": "display", "lat": 40.757996, "lng": -73.99196}], "postalCode": "10036", "cc": "US", "city": "New York", "state": "NY", "country": "United States", "formattedAddress": ["350 W 42nd St (at 9th Ave)", "New York, NY 10036", "United States"]}, "categories": [{"id": "4bf58dd8d48988d1e0931735", "name": "Coffee Shop", "pluralName": "Coffee Shops", "shortName": "Coffee Shop", "icon": {"prefix": "https://ss3.4sqi.net/img/categories_v2/food/coffeeshop_", "suffix": ".png"}, "primary": true}], "photos": {"count": 0, "groups": []}}, "referralId": "e-0-506583e2e4b084f8df2171dc-38"}, {"reasons": {"count": 0, "items": [{"summary": "This spot is popular", "type": "general", "reasonName": "globalInteractionReason"}]}, "venue": {"id": "4b45ece0f964a520651226e3", "name": "Starbucks", "location": {"address": "220 E 42nd St", "crossStreet": "at 2nd Ave", "lat": 40.74999880823681, "lng": -73.97275223074156, "labeledLatLngs": [{"label": "display", "lat": 40.74999880823681, "lng": -73.97275223074156}], "postalCode": "10017", "cc": "US", "city": "New York", "state": "NY", "country": "United States", "formattedAddress": ["220 E 42nd St (at 2nd Ave)", "New York, NY 10017", "United States"]}, "categories": [{"id": "4bf58dd8d48988d1e0931735", "name": "Coffee Shop", "pluralName": "Coffee Shops", "shortName": "Coffee Shop", "icon": {"prefix": "https://ss3.4sqi.net/img/categories_v2/food/coffeeshop_", "suffix": ".png"}, "primary": true}], "photos": {"count": 0, "groups": []}}, "referralId": "e-0-4b45ece0f964a520651226e3-39"}, {"reasons": {"count": 0, "items": [{"summary": "This spot is popular", "type": "general", "reasonName": "globalInteractionReason"}]}, "venue": {"id": "587ce04dc7ec6b7a1e5b72cd", "name": "Starbucks", "location": {"address": "1140 Bradway", "lat": 40.743789, "lng": -73.98567, "labeledLatLngs": [{"label": "display", "lat": 40.743789, "lng": -73.98567}], "postalCode": "10010", "cc": "US", "city": "New York", "state": "NY", "country": "United States", "formattedAddress": ["1140 Bradway", "New York, NY 10010", "United States"]}, "categories": [{"id": "4bf58dd8d48988d1e0931735", "name": "Coffee Shop", "pluralName": "Coffee Shops", "shortName": "Coffee Shop", "icon": {"prefix": "https://ss3.4sqi.net/img/categories_v2/food/coffeeshop_", "suffix": ".png"}, "primary": true}], "photos": {"count": 0, "groups": []}}, "referralId": "e-0-587ce04dc7ec6b7a1e5b72cd-40"}, {"reasons": {"count": 0, "items": [{"summary": "This spot is popular", "type": "general", "reasonName": "globalInteractionReason"}]}, "venue": {"id": "4a8177b4f964a520c5f61fe3", "name": "Starbucks", "location": {"address": "261 5th Ave", "crossStreet": "btwn E 28th & E 29th St", "lat": 40.745068, "lng": -73.98686, "labeledLatLngs": [{"label": "display", "lat": 40.745068, "lng": -73.98686}], "postalCode": "10016", "cc": "US", "city": "New York", "state": "NY", "country": "United States", "formattedAddress": ["261 5th Ave (btwn E 28th & E 29th St)", "New York, NY 10016", "United States"]}, "categories": [{"id": "4bf58dd8d48988d1e0931735", "name": "Coffee Shop", "pluralName": "Coffee Shops", "shortName": "Coffee Shop", "icon": {"prefix": "https://ss3.4sqi.net/img/categories_v2/food/coffeeshop_", "suffix": ".png"}, "primary": true}], "photos": {"count": 0, "groups": []}}, "referralId": "e-0-4a8177b4f964a520c5f61fe3-41"}, {"reasons": {"count": 0, "items": [{"summary": "This spot is popular", "type": "general", "reasonName": "globalInteractionReason"}]}, "venue": {"id": "4b4b7d50f964a520c29d26e3", "name": "Starbucks", "location": {"address": "1500 Broadway", "crossStreet": "btwn W 45th & W 46th St", "lat": 40.75661177752009, "lng": -73.98584961891174, "labeledLatLngs": [{"label": "display", "lat": 40.75661177752009, "lng": -73.98584961891174}], "postalCode": "10036", "cc": "US", "neighborhood": "Theater District", "city": "New York", "state": "NY", "country": "United States", "formattedAddress": ["1500 Broadway (btwn W 45th & W 46th St)", "New York, NY 10036", "United States"]}, "categories": [{"id": "4bf58dd8d48988d1e0931735", "name": "Coffee Shop", "pluralName": "Coffee Shops", "shortName": "Coffee Shop", "icon": {"prefix": "https://ss3.4sqi.net/img/categories_v2/food/coffeeshop_", "suffix": ".png"}, "primary": true}], "photos": {"count": 0, "groups": []}}, "referralId": "e-0-4b4b7d50f964a520c29d26e3-42"}, {"reasons": {"count": 0, "items": [{"summary": "This spot is popular", "type": "general", "reasonName": "globalInteractionReason"}]}, "venue": {"id": "512b7840e4b0173c03d940f8", "name": "Starbucks", "location": {"address": "393 3rd Ave", "crossStreet": "at E 28th St", "lat": 40.74179, "lng": -73.980774, "labeledLatLngs": [{"label": "display", "lat": 40.74179, "lng": -73.980774}], "postalCode": "10016", "cc": "US", "city": "New York", "state": "NY", "country": "United States", "formattedAddress": ["393 3rd Ave (at E 28th St)", "New York, NY 10016", "United States"]}, "categories": [{"id": "4bf58dd8d48988d1e0931735", "name": "Coffee Shop", "pluralName": "Coffee Shops", "shortName": "Coffee Shop", "icon": {"prefix": "https://ss3.4sqi.net/img/categories_v2/food/coffeeshop_", "suffix": ".png"}, "primary": true}], "photos": {"count": 0, "groups": []}}, "referralId": "e-0-512b7840e4b0173c03d940f8-43"}, {"reasons": {"count": 0, "items": [{"summary": "This spot is popular", "type": "general", "reasonName": "globalInteractionReason"}]}, "venue": {"id": "4bc9e211fb84c9b6d8cb1b3e", "name": "Starbucks", "location": {"address": "30 Rockefeller Plz", "crossStreet": "btwn W 49th & W 50th St", "lat": 40.75876, "lng": -73.97869, "labeledLatLngs": [{"label": "display", "lat": 40.75876, "lng": -73.97869}], "postalCode": "10112", "cc": "US", "neighborhood": "Midtown East", "city": "New York", "state": "NY", "country": "United States", "formattedAddress": ["30 Rockefeller Plz (btwn W 49th & W 50th St)", "New York, NY 10112", "United States"]}, "categories": [{"id": "4bf58dd8d48988d1e0931735", "name": "Coffee Shop", "pluralName": "Coffee Shops", "shortName": "Coffee Shop", "icon": {"prefix": "https://ss3.4sqi.net/img/categories_v2/food/coffeeshop_", "suffix": ".png"}, "primary": true}], "photos": {"count": 0, "groups": []}}, "referralId": "e-0-4bc9e211fb84c9b6d8cb1b3e-44"}, {"reasons": {"count": 0, "items": [{"summary": "This spot is popular", "type": "general", "reasonName": "globalInteractionReason"}]}, "venue": {"id": "44afd4e4f964a5202d351fe3", "name": "Starbucks", "location": {"address": "360 Lexington Ave", "crossStreet": "at E 40th St", "lat": 40.75033, "lng": -73.97704, "labeledLatLngs": [{"label": "display", "lat": 40.75033, "lng": -73.97704}], "postalCode": "10017", "cc": "US", "city": "New York", "state": "NY", "country": "United States", "formattedAddress": ["360 Lexington Ave (at E 40th St)", "New York, NY 10017", "United States"]}, "categories": [{"id": "4bf58dd8d48988d1e0931735", "name": "Coffee Shop", "pluralName": "Coffee Shops", "shortName": "Coffee Shop", "icon": {"prefix": "https://ss3.4sqi.net/img/categories_v2/food/coffeeshop_", "suffix": ".png"}, "primary": true}], "photos": {"count": 0, "groups": []}}, "referralId": "e-0-44afd4e4f964a5202d351fe3-45"}, {"reasons": {"count": 0, "items": [{"summary": "This spot is popular", "type": "general", "reasonName": "globalInteractionReason"}]}, "venue": {"id": "4ac51a7ff964a52058b020e3", "name": "Starbucks", "location": {"address": "1535 Broadway", "crossStreet": "at W 45th St", "lat": 40.75824934428419, "lng": -73.98588716983795, "labeledLatLngs": [{"label": "display", "lat": 40.75824934428419, "lng": -73.98588716983795}], "postalCode": "10036", "cc": "US", "city": "New York", "state": "NY", "country": "United States", "formattedAddress": ["1535 Broadway (at W 45th St)", "New York, NY 10036", "United States"]}, "categories": [{"id": "4bf58dd8d48988d1e0931735", "name": "Coffee Shop", "pluralName": "Coffee Shops", "shortName": "Coffee Shop", "icon": {"prefix": "https://ss3.4sqi.net/img/categories_v2/food/coffeeshop_", "suffix": ".png"}, "primary": true}], "photos": {"count": 0, "groups": []}}, "referralId": "e-0-4ac51a7ff964a52058b020e3-46"}, {"reasons": {"count": 0, "items": [{"summary": "This spot is popular", "type": "general", "reasonName": "globalInteractionReason"}]}, "venue": {"id": "4af4448cf964a520fbf021e3", "name": "Starbucks", "location": {"address": "378 6th Avenue", "crossStreet": "at Waverly Pl", "lat": 40.733033, "lng": -73.999677, "labeledLatLngs": [{"label": "display", "lat": 40.733033, "lng": -73.999677}], "postalCode": "10011", "cc": "US", "city": "New York", "state": "NY", "country": "United States", "formattedAddress": ["378 6th Avenue (at Waverly Pl)", "New York, NY 10011", "United States"]}, "categories": [{"id": "4bf58dd8d48988d1e0931735", "name": "Coffee Shop", "pluralName": "Coffee Shops", "shortName": "Coffee Shop", "icon": {"prefix": "https://ss3.4sqi.net/img/categories_v2/food/coffeeshop_", "suffix": ".png"}, "primary": true}], "photos": {"count": 0, "groups": []}}, "referralId": "e-0-4af4448cf964a520fbf021e3-47"}, {"reasons": {"count": 0, "items": [{"summary": "This spot is popular", "type": "general", "reasonName": "globalInteractionReason"}]}, "venue": {"id": "4b069e81f964a520cfed22e3", "name": "Starbucks", "location": {"address": "1 Penn Plaza", "crossStreet": "Concourse Level", "lat": 40.75097141255199, "lng": -73.99345099925995, "labeledLatLngs": [{"label": "display", "lat": 40.75097141255199, "lng": -73.99345099925995}], "postalCode": "10119", "cc": "US", "city": "New York", "state": "NY", "country": "United States", "formattedAddress": ["1 Penn Plaza (Concourse Level)", "New York, NY 10119", "United States"]}, "categories": [{"id": "4bf58dd8d48988d1e0931735", "name": "Coffee Shop", "pluralName": "Coffee Shops", "shortName": "Coffee Shop", "icon": {"prefix": "https://ss3.4sqi.net/img/categories_v2/food/coffeeshop_", "suffix": ".png"}, "primary": true}], "photos": {"count": 0, "groups": []}}, "referralId": "e-0-4b069e81f964a520cfed22e3-48"}, {"reasons": {"count": 0, "items": [{"summary": "This spot is popular", "type": "general", "reasonName": "globalInteractionReason"}]}, "venue": {"id": "566ef832498eb0ef6ba5e038", "name": "Starbucks", "location": {"address": "825 Eighth Ave", "crossStreet": "at W 49th St", "lat": 40.76190095, "lng": -73.98659719, "labeledLatLngs": [{"label": "display", "lat": 40.76190095, "lng": -73.98659719}], "postalCode": "10019", "cc": "US", "city": "New York", "state": "NY", "country": "United States", "formattedAddress": ["825 Eighth Ave (at W 49th St)", "New York, NY 10019", "United States"]}, "categories": [{"id": "4bf58dd8d48988d1e0931735", "name": "Coffee Shop", "pluralName": "Coffee Shops", "shortName": "Coffee Shop", "icon": {"prefix": "https://ss3.4sqi.net/img/categories_v2/food/coffeeshop_", "suffix": ".png"}, "primary": true}], "photos": {"count": 0, "groups": []}}, "referralId": "e-0-566ef832498eb0ef6ba5e038-49"}, {"reasons": {"count": 0, "items": [{"summary": "This spot is popular", "type": "general", "reasonName": "globalInteractionReason"}]}, "venue": {"id": "4f442814e4b05b69c87e38d6", "name": "Starbucks", "location": {"address": "55 Lexington Ave", "crossStreet": "btwn E 24th & E 25th St", "lat": 40.740205716753806, "lng": -73.9836729638957, "labeledLatLngs": [{"label": "display", "lat": 40.740205716753806, "lng": -73.9836729638957}], "postalCode": "10010", "cc": "US", "city": "New York", "state": "NY", "country": "United States", "formattedAddress": ["55 Lexington Ave (btwn E 24th & E 25th St)", "New York, NY 10010", "United States"]}, "categories": [{"id": "4bf58dd8d48988d1e0931735", "name": "Coffee Shop", "pluralName": "Coffee Shops", "shortName": "Coffee Shop", "icon": {"prefix": "https://ss3.4sqi.net/img/categories_v2/food/coffeeshop_", "suffix": ".png"}, "primary": true}], "photos": {"count": 0, "groups": []}}, "referralId": "e-0-4f442814e4b05b69c87e38d6-50"}, {"reasons": {"count": 0, "items": [{"summary": "This spot is popular", "type": "general", "reasonName": "globalInteractionReason"}]}, "venue": {"id": "4a85b1b3f964a520eefe1fe3", "name": "Starbucks", "location": {"address": "370 7th Ave", "crossStreet": "at W 31st St", "lat": 40.7489585, "lng": -73.99231501, "labeledLatLngs": [{"label": "display", "lat": 40.7489585, "lng": -73.99231501}], "postalCode": "10001", "cc": "US", "city": "New York", "state": "NY", "country": "United States", "formattedAddress": ["370 7th Ave (at W 31st St)", "New York, NY 10001", "United States"]}, "categories": [{"id": "4bf58dd8d48988d1e0931735", "name": "Coffee Shop", "pluralName": "Coffee Shops", "shortName": "Coffee Shop", "icon": {"prefix": "https://ss3.4sqi.net/img/categories_v2/food/coffeeshop_", "suffix": ".png"}, "primary": true}], "photos": {"count": 0, "groups": []}}, "referralId": "e-0-4a85b1b3f964a520eefe1fe3-51"}, {"reasons": {"count": 0, "items": [{"summary": "This spot is popular", "type": "general", "reasonName": "globalInteractionReason"}]}, "venue": {"id": "4af57814f964a52043f921e3", "name": "Starbucks", "location": {"address": "229 Seventh Ave", "crossStreet": "btwn W 23rd & W 24th St", "lat": 40.7443074129684, "lng": -73.99546217797482, "labeledLatLngs": [{"label": "display", "lat": 40.7443074129684, "lng": -73.99546217797482}], "postalCode": "10011", "cc": "US", "city": "New York", "state": "NY", "country": "United States", "formattedAddress": ["229 Seventh Ave (btwn W 23rd & W 24th St)", "New York, NY 10011", "United States"]}, "categories": [{"id": "4bf58dd8d48988d1e0931735", "name": "Coffee Shop", "pluralName": "Coffee Shops", "shortName": "Coffee Shop", "icon": {"prefix": "https://ss3.4sqi.net/img/categories_v2/food/coffeeshop_", "suffix": ".png"}, "primary": true}], "photos": {"count": 0, "groups": []}}, "referralId": "e-0-4af57814f964a52043f921e3-52"}, {"reasons": {"count": 0, "items": [{"summary": "This spot is popular", "type": "general", "reasonName": "globalInteractionReason"}]}, "venue": {"id": "55af9e85498eba541053c76e", "name": "Starbucks", "location": {"address": "2 Grand Central Tower", "crossStreet": "at 3rd Ave", "lat": 40.75313643552165, "lng": -73.97411150254091, "labeledLatLngs": [{"label": "display", "lat": 40.75313643552165, "lng": -73.97411150254091}], "postalCode": "10017", "cc": "US", "city": "New York", "state": "NY", "country": "United States", "formattedAddress": ["2 Grand Central Tower (at 3rd Ave)", "New York, NY 10017", "United States"]}, "categories": [{"id": "4bf58dd8d48988d1e0931735", "name": "Coffee Shop", "pluralName": "Coffee Shops", "shortName": "Coffee Shop", "icon": {"prefix": "https://ss3.4sqi.net/img/categories_v2/food/coffeeshop_", "suffix": ".png"}, "primary": true}], "photos": {"count": 0, "groups": []}}, "referralId": "e-0-55af9e85498eba541053c76e-53"}, {"reasons": {"count": 0, "items": [{"summary": "This spot is popular", "type": "general", "reasonName": "globalInteractionReason"}]}, "venue": {"id": "4a5dd98ef964a520c2bd1fe3", "name": "Starbucks", "location": {"address": "240 Park Avenue South", "crossStreet": "at E 19th St", "lat": 40.73790176, "lng": -73.98835362, "labeledLatLngs": [{"label": "display", "lat": 40.73790176, "lng": -73.98835362}], "postalCode": "10003", "cc": "US", "city": "New York", "state": "NY", "country": "United States", "formattedAddress": ["240 Park Avenue South (at E 19th St)", "New York, NY 10003", "United States"]}, "categories": [{"id": "4bf58dd8d48988d1e0931735", "name": "Coffee Shop", "pluralName": "Coffee Shops", "shortName": "Coffee Shop", "icon": {"prefix": "https://ss3.4sqi.net/img/categories_v2/food/coffeeshop_", "suffix": ".png"}, "primary": true}], "photos": {"count": 0, "groups": []}}, "referralId": "e-0-4a5dd98ef964a520c2bd1fe3-54"}, {"reasons": {"count": 0, "items": [{"summary": "This spot is popular", "type": "general", "reasonName": "globalInteractionReason"}]}, "venue": {"id": "51a3785d498e3030c7184a3d", "name": "Starbucks", "location": {"address": "425 Madison Ave", "crossStreet": "at E 49th St", "lat": 40.75696, "lng": -73.9759, "labeledLatLngs": [{"label": "display", "lat": 40.75696, "lng": -73.9759}], "postalCode": "10017", "cc": "US", "city": "New York", "state": "NY", "country": "United States", "formattedAddress": ["425 Madison Ave (at E 49th St)", "New York, NY 10017", "United States"]}, "categories": [{"id": "4bf58dd8d48988d1e0931735", "name": "Coffee Shop", "pluralName": "Coffee Shops", "shortName": "Coffee Shop", "icon": {"prefix": "https://ss3.4sqi.net/img/categories_v2/food/coffeeshop_", "suffix": ".png"}, "primary": true}], "photos": {"count": 0, "groups": []}}, "referralId": "e-0-51a3785d498e3030c7184a3d-55"}, {"reasons": {"count": 0, "items": [{"summary": "This spot is popular", "type": "general", "reasonName": "globalInteractionReason"}]}, "venue": {"id": "4b5f0221f964a520fea129e3", "name": "Starbucks", "location": {"address": "230 Park Ave", "crossStreet": "45th St", "lat": 40.75403694, "lng": -73.97650216, "labeledLatLngs": [{"label": "display", "lat": 40.75403694, "lng": -73.97650216}], "postalCode": "10169", "cc": "US", "city": "New York", "state": "NY", "country": "United States", "formattedAddress": ["230 Park Ave (45th St)", "New York, NY 10169", "United States"]}, "categories": [{"id": "4bf58dd8d48988d1e0931735", "name": "Coffee Shop", "pluralName": "Coffee Shops", "shortName": "Coffee Shop", "icon": {"prefix": "https://ss3.4sqi.net/img/categories_v2/food/coffeeshop_", "suffix": ".png"}, "primary": true}], "photos": {"count": 0, "groups": []}}, "referralId": "e-0-4b5f0221f964a520fea129e3-56"}, {"reasons": {"count": 0, "items": [{"summary": "This spot is popular", "type": "general", "reasonName": "globalInteractionReason"}]}, "venue": {"id": "4a8c37ddf964a520540d20e3", "name": "Starbucks", "location": {"address": "525 Fashion Ave", "crossStreet": "at W 38th St", "lat": 40.753647, "lng": -73.988434, "labeledLatLngs": [{"label": "display", "lat": 40.753647, "lng": -73.988434}], "postalCode": "10018", "cc": "US", "city": "New York", "state": "NY", "country": "United States", "formattedAddress": ["525 Fashion Ave (at W 38th St)", "New York, NY 10018", "United States"]}, "categories": [{"id": "4bf58dd8d48988d1e0931735", "name": "Coffee Shop", "pluralName": "Coffee Shops", "shortName": "Coffee Shop", "icon": {"prefix": "https://ss3.4sqi.net/img/categories_v2/food/coffeeshop_", "suffix": ".png"}, "primary": true}], "photos": {"count": 0, "groups": []}}, "referralId": "e-0-4a8c37ddf964a520540d20e3-57"}, {"reasons": {"count": 0, "items": [{"summary": "This spot is popular", "type": "general", "reasonName": "globalInteractionReason"}]}, "venue": {"id": "45c76421f964a52066421fe3", "name": "Starbucks", "location": {"address": "424 Park Ave S", "crossStreet": "at E 29th St", "lat": 40.74405161, "lng": -73.98373659, "labeledLatLngs": [{"label": "display", "lat": 40.74405161, "lng": -73.98373659}], "postalCode": "10016", "cc": "US", "city": "New York", "state": "NY", "country": "United States", "formattedAddress": ["424 Park Ave S (at E 29th St)", "New York, NY 10016", "United States"]}, "categories": [{"id": "4bf58dd8d48988d1e0931735", "name": "Coffee Shop", "pluralName": "Coffee Shops", "shortName": "Coffee Shop", "icon": {"prefix": "https://ss3.4sqi.net/img/categories_v2/food/coffeeshop_", "suffix": ".png"}, "primary": true}], "photos": {"count": 0, "groups": []}}, "referralId": "e-0-45c76421f964a52066421fe3-58"}, {"reasons": {"count": 0, "items": [{"summary": "This spot is popular", "type": "general", "reasonName": "globalInteractionReason"}]}, "venue": {"id": "4a5f4a08f964a5205abf1fe3", "name": "Starbucks", "location": {"address": "325 W 49th St", "crossStreet": "btwn 8th & 9th Ave", "lat": 40.76223640083641, "lng": -73.98763905244529, "labeledLatLngs": [{"label": "display", "lat": 40.76223640083641, "lng": -73.98763905244529}], "postalCode": "10019", "cc": "US", "city": "New York", "state": "NY", "country": "United States", "formattedAddress": ["325 W 49th St (btwn 8th & 9th Ave)", "New York, NY 10019", "United States"]}, "categories": [{"id": "4bf58dd8d48988d1e0931735", "name": "Coffee Shop", "pluralName": "Coffee Shops", "shortName": "Coffee Shop", "icon": {"prefix": "https://ss3.4sqi.net/img/categories_v2/food/coffeeshop_", "suffix": ".png"}, "primary": true}], "photos": {"count": 0, "groups": []}}, "referralId": "e-0-4a5f4a08f964a5205abf1fe3-59"}, {"reasons": {"count": 0, "items": [{"summary": "This spot is popular", "type": "general", "reasonName": "globalInteractionReason"}]}, "venue": {"id": "4a1c91b1f964a520527b1fe3", "name": "Starbucks", "location": {"address": "510 Sixth Ave", "crossStreet": "at W 14th St", "lat": 40.73698, "lng": -73.9964, "labeledLatLngs": [{"label": "display", "lat": 40.73698, "lng": -73.9964}], "postalCode": "10011", "cc": "US", "city": "New York", "state": "NY", "country": "United States", "formattedAddress": ["510 Sixth Ave (at W 14th St)", "New York, NY 10011", "United States"]}, "categories": [{"id": "4bf58dd8d48988d1e0931735", "name": "Coffee Shop", "pluralName": "Coffee Shops", "shortName": "Coffee Shop", "icon": {"prefix": "https://ss3.4sqi.net/img/categories_v2/food/coffeeshop_", "suffix": ".png"}, "primary": true}], "photos": {"count": 0, "groups": []}}, "referralId": "e-0-4a1c91b1f964a520527b1fe3-60"}, {"reasons": {"count": 0, "items": [{"summary": "This spot is popular", "type": "general", "reasonName": "globalInteractionReason"}]}, "venue": {"id": "4a97cf92f964a520c42920e3", "name": "Starbucks", "location": {"address": "90 Park Ave", "crossStreet": "at E 39th St", "lat": 40.75041692, "lng": -73.97917487, "labeledLatLngs": [{"label": "display", "lat": 40.75041692, "lng": -73.97917487}], "postalCode": "10016", "cc": "US", "city": "New York", "state": "NY", "country": "United States", "formattedAddress": ["90 Park Ave (at E 39th St)", "New York, NY 10016", "United States"]}, "categories": [{"id": "4bf58dd8d48988d1e0931735", "name": "Coffee Shop", "pluralName": "Coffee Shops", "shortName": "Coffee Shop", "icon": {"prefix": "https://ss3.4sqi.net/img/categories_v2/food/coffeeshop_", "suffix": ".png"}, "primary": true}], "photos": {"count": 0, "groups": []}}, "referralId": "e-0-4a97cf92f964a520c42920e3-61"}, {"reasons": {"count": 0, "items": [{"summary": "This spot is popular", "type": "general", "reasonName": "globalInteractionReason"}]}, "venue": {"id": "4a746847f964a5200ade1fe3", "name": "Starbucks", "location": {"address": "200 Madison Ave", "crossStreet": "at E 36th St", "lat": 40.748974, "lng": -73.98229, "labeledLatLngs": [{"label": "display", "lat": 40.748974, "lng": -73.98229}], "postalCode": "10016", "cc": "US", "city": "New York", "state": "NY", "country": "United States", "formattedAddress": ["200 Madison Ave (at E 36th St)", "New York, NY 10016", "United States"]}, "categories": [{"id": "4bf58dd8d48988d1e0931735", "name": "Coffee Shop", "pluralName": "Coffee Shops", "shortName": "Coffee Shop", "icon": {"prefix": "https://ss3.4sqi.net/img/categories_v2/food/coffeeshop_", "suffix": ".png"}, "primary": true}], "photos": {"count": 0, "groups": []}}, "referralId": "e-0-4a746847f964a5200ade1fe3-62"}, {"reasons": {"count": 0, "items": [{"summary": "This spot is popular", "type": "general", "reasonName": "globalInteractionReason"}]}, "venue": {"id": "4b33f294f964a5209e2225e3", "name": "Starbucks", "location": {"address": "300 W 23rd St", "crossStreet": "at 8th Ave", "lat": 40.745102, "lng": -73.99874, "labeledLatLngs": [{"label": "display", "lat": 40.745102, "lng": -73.99874}], "postalCode": "10011", "cc": "US", "city": "New York", "state": "NY", "country": "United States", "formattedAddress": ["300 W 23rd St (at 8th Ave)", "New York, NY 10011", "United States"]}, "categories": [{"id": "4bf58dd8d48988d1e0931735", "name": "Coffee Shop", "pluralName": "Coffee Shops", "shortName": "Coffee Shop", "icon": {"prefix": "https://ss3.4sqi.net/img/categories_v2/food/coffeeshop_", "suffix": ".png"}, "primary": true}], "photos": {"count": 0, "groups": []}}, "referralId": "e-0-4b33f294f964a5209e2225e3-63"}, {"reasons": {"count": 0, "items": [{"summary": "This spot is popular", "type": "general", "reasonName": "globalInteractionReason"}]}, "venue": {"id": "4b040c7df964a5201d5122e3", "name": "Starbucks", "location": {"address": "450 W 33rd St", "crossStreet": "at 10th Ave", "lat": 40.75374802982616, "lng": -73.9993136594133, "labeledLatLngs": [{"label": "display", "lat": 40.75374802982616, "lng": -73.9993136594133}], "postalCode": "10001", "cc": "US", "neighborhood": "Chelsea", "city": "New York", "state": "NY", "country": "United States", "formattedAddress": ["450 W 33rd St (at 10th Ave)", "New York, NY 10001", "United States"]}, "categories": [{"id": "4bf58dd8d48988d1e0931735", "name": "Coffee Shop", "pluralName": "Coffee Shops", "shortName": "Coffee Shop", "icon": {"prefix": "https://ss3.4sqi.net/img/categories_v2/food/coffeeshop_", "suffix": ".png"}, "primary": true}], "photos": {"count": 0, "groups": []}}, "referralId": "e-0-4b040c7df964a5201d5122e3-64"}, {"reasons": {"count": 0, "items": [{"summary": "This spot is popular", "type": "general", "reasonName": "globalInteractionReason"}]}, "venue": {"id": "4a20b852f964a520b97c1fe3", "name": "Starbucks", "location": {"address": "10 Union Sq E", "crossStreet": "at E 15th St", "lat": 40.735023, "lng": -73.989845, "labeledLatLngs": [{"label": "display", "lat": 40.735023, "lng": -73.989845}], "postalCode": "10003", "cc": "US", "city": "New York", "state": "NY", "country": "United States", "formattedAddress": ["10 Union Sq E (at E 15th St)", "New York, NY 10003", "United States"]}, "categories": [{"id": "4bf58dd8d48988d1e0931735", "name": "Coffee Shop", "pluralName": "Coffee Shops", "shortName": "Coffee Shop", "icon": {"prefix": "https://ss3.4sqi.net/img/categories_v2/food/coffeeshop_", "suffix": ".png"}, "primary": true}], "photos": {"count": 0, "groups": []}}, "referralId": "e-0-4a20b852f964a520b97c1fe3-65"}, {"reasons": {"count": 0, "items": [{"summary": "This spot is popular", "type": "general", "reasonName": "globalInteractionReason"}]}, "venue": {"id": "4a71e101f964a520c4d91fe3", "name": "Starbucks", "location": {"address": "14 W. 23rd St", "crossStreet": "btwn 5th & 6th Ave", "lat": 40.74166, "lng": -73.99031, "labeledLatLngs": [{"label": "display", "lat": 40.74166, "lng": -73.99031}], "postalCode": "10010", "cc": "US", "city": "New York", "state": "NY", "country": "United States", "formattedAddress": ["14 W. 23rd St (btwn 5th & 6th Ave)", "New York, NY 10010", "United States"]}, "categories": [{"id": "4bf58dd8d48988d1e0931735", "name": "Coffee Shop", "pluralName": "Coffee Shops", "shortName": "Coffee Shop", "icon": {"prefix": "https://ss3.4sqi.net/img/categories_v2/food/coffeeshop_", "suffix": ".png"}, "primary": true}], "photos": {"count": 0, "groups": []}}, "referralId": "e-0-4a71e101f964a520c4d91fe3-66"}, {"reasons": {"count": 0, "items": [{"summary": "This spot is popular", "type": "general", "reasonName": "globalInteractionReason"}]}, "venue": {"id": "4a663fe9f964a5204ac81fe3", "name": "Starbucks", "location": {"address": "482 West Broadway", "crossStreet": "at W Houston St", "lat": 40.72689, "lng": -74.00026, "labeledLatLngs": [{"label": "display", "lat": 40.72689, "lng": -74.00026}], "postalCode": "10012", "cc": "US", "city": "New York", "state": "NY", "country": "United States", "formattedAddress": ["482 West Broadway (at W Houston St)", "New York, NY 10012", "United States"]}, "categories": [{"id": "4bf58dd8d48988d1e0931735", "name": "Coffee Shop", "pluralName": "Coffee Shops", "shortName": "Coffee Shop", "icon": {"prefix": "https://ss3.4sqi.net/img/categories_v2/food/coffeeshop_", "suffix": ".png"}, "primary": true}], "photos": {"count": 0, "groups": []}}, "referralId": "e-0-4a663fe9f964a5204ac81fe3-67"}, {"reasons": {"count": 0, "items": [{"summary": "This spot is popular", "type": "general", "reasonName": "globalInteractionReason"}]}, "venue": {"id": "4ab26766f964a520146b20e3", "name": "Starbucks", "location": {"address": "600 8th Ave", "crossStreet": "at W 39th St", "lat": 40.755393094045175, "lng": -73.9910754150045, "labeledLatLngs": [{"label": "display", "lat": 40.755393094045175, "lng": -73.9910754150045}], "postalCode": "10018", "cc": "US", "city": "New York", "state": "NY", "country": "United States", "formattedAddress": ["600 8th Ave (at W 39th St)", "New York, NY 10018", "United States"]}, "categories": [{"id": "4bf58dd8d48988d1e0931735", "name": "Coffee Shop", "pluralName": "Coffee Shops", "shortName": "Coffee Shop", "icon": {"prefix": "https://ss3.4sqi.net/img/categories_v2/food/coffeeshop_", "suffix": ".png"}, "primary": true}], "photos": {"count": 0, "groups": []}}, "referralId": "e-0-4ab26766f964a520146b20e3-68"}, {"reasons": {"count": 0, "items": [{"summary": "This spot is popular", "type": "general", "reasonName": "globalInteractionReason"}]}, "venue": {"id": "4ab26682f964a520106b20e3", "name": "Starbucks", "location": {"address": "494 8th Ave", "crossStreet": "at W 35th St", "lat": 40.752632, "lng": -73.992905, "labeledLatLngs": [{"label": "display", "lat": 40.752632, "lng": -73.992905}], "postalCode": "10001", "cc": "US", "city": "New York", "state": "NY", "country": "United States", "formattedAddress": ["494 8th Ave (at W 35th St)", "New York, NY 10001", "United States"]}, "categories": [{"id": "4bf58dd8d48988d1e0931735", "name": "Coffee Shop", "pluralName": "Coffee Shops", "shortName": "Coffee Shop", "icon": {"prefix": "https://ss3.4sqi.net/img/categories_v2/food/coffeeshop_", "suffix": ".png"}, "primary": true}], "photos": {"count": 0, "groups": []}}, "referralId": "e-0-4ab26682f964a520106b20e3-69"}, {"reasons": {"count": 0, "items": [{"summary": "This spot is popular", "type": "general", "reasonName": "globalInteractionReason"}]}, "venue": {"id": "4aef4d35f964a52061d721e3", "name": "Starbucks", "location": {"address": "1185 Avenue of the Americas", "crossStreet": "at W 47th St", "lat": 40.75779604, "lng": -73.98251187, "labeledLatLngs": [{"label": "display", "lat": 40.75779604, "lng": -73.98251187}], "postalCode": "10036", "cc": "US", "city": "New York", "state": "NY", "country": "United States", "formattedAddress": ["1185 Avenue of the Americas (at W 47th St)", "New York, NY 10036", "United States"]}, "categories": [{"id": "4bf58dd8d48988d1e0931735", "name": "Coffee Shop", "pluralName": "Coffee Shops", "shortName": "Coffee Shop", "icon": {"prefix": "https://ss3.4sqi.net/img/categories_v2/food/coffeeshop_", "suffix": ".png"}, "primary": true}], "photos": {"count": 0, "groups": []}}, "referralId": "e-0-4aef4d35f964a52061d721e3-70"}, {"reasons": {"count": 0, "items": [{"summary": "This spot is popular", "type": "general", "reasonName": "globalInteractionReason"}]}, "venue": {"id": "49e644c6f964a5202f641fe3", "name": "Starbucks", "location": {"address": "72 Spring St", "crossStreet": "at Crosby St", "lat": 40.722584953691005, "lng": -73.9980228047693, "labeledLatLngs": [{"label": "display", "lat": 40.722584953691005, "lng": -73.9980228047693}], "postalCode": "10012", "cc": "US", "neighborhood": "SoHo", "city": "New York", "state": "NY", "country": "United States", "formattedAddress": ["72 Spring St (at Crosby St)", "New York, NY 10012", "United States"]}, "categories": [{"id": "4bf58dd8d48988d1e0931735", "name": "Coffee Shop", "pluralName": "Coffee Shops", "shortName": "Coffee Shop", "icon": {"prefix": "https://ss3.4sqi.net/img/categories_v2/food/coffeeshop_", "suffix": ".png"}, "primary": true}], "photos": {"count": 0, "groups": []}}, "referralId": "e-0-49e644c6f964a5202f641fe3-71"}, {"reasons": {"count": 0, "items": [{"summary": "This spot is popular", "type": "general", "reasonName": "globalInteractionReason"}]}, "venue": {"id": "49da74aef964a5208b5e1fe3", "name": "Starbucks", "location": {"address": "13-25 Astor Pl", "crossStreet": "at Lafayette St", "lat": 40.72990798225845, "lng": -73.99140743961189, "labeledLatLngs": [{"label": "display", "lat": 40.72990798225845, "lng": -73.99140743961189}], "postalCode": "10004", "cc": "US", "city": "New York", "state": "NY", "country": "United States", "formattedAddress": ["13-25 Astor Pl (at Lafayette St)", "New York, NY 10004", "United States"]}, "categories": [{"id": "4bf58dd8d48988d1e0931735", "name": "Coffee Shop", "pluralName": "Coffee Shops", "shortName": "Coffee Shop", "icon": {"prefix": "https://ss3.4sqi.net/img/categories_v2/food/coffeeshop_", "suffix": ".png"}, "primary": true}], "photos": {"count": 0, "groups": []}}, "referralId": "e-0-49da74aef964a5208b5e1fe3-72"}, {"reasons": {"count": 0, "items": [{"summary": "This spot is popular", "type": "general", "reasonName": "globalInteractionReason"}]}, "venue": {"id": "4b4b82fef964a520a99e26e3", "name": "Starbucks", "location": {"address": "1100 Avenue of the Americas", "crossStreet": "at W 42nd St", "lat": 40.75485889, "lng": -73.98390393, "labeledLatLngs": [{"label": "display", "lat": 40.75485889, "lng": -73.98390393}], "postalCode": "10036", "cc": "US", "city": "New York", "state": "NY", "country": "United States", "formattedAddress": ["1100 Avenue of the Americas (at W 42nd St)", "New York, NY 10036", "United States"]}, "categories": [{"id": "4bf58dd8d48988d1e0931735", "name": "Coffee Shop", "pluralName": "Coffee Shops", "shortName": "Coffee Shop", "icon": {"prefix": "https://ss3.4sqi.net/img/categories_v2/food/coffeeshop_", "suffix": ".png"}, "primary": true}], "photos": {"count": 0, "groups": []}}, "referralId": "e-0-4b4b82fef964a520a99e26e3-73"}, {"reasons": {"count": 0, "items": [{"summary": "This spot is popular", "type": "general", "reasonName": "globalInteractionReason"}]}, "venue": {"id": "5046b813e4b0875cbaa77dcf", "name": "Starbucks", "location": {"address": "50 Lexington Avenue", "crossStreet": "btwn E 24th & E 25th St", "lat": 40.74051, "lng": -73.98433, "labeledLatLngs": [{"label": "display", "lat": 40.74051, "lng": -73.98433}], "postalCode": "10010", "cc": "US", "city": "New York", "state": "NY", "country": "United States", "formattedAddress": ["50 Lexington Avenue (btwn E 24th & E 25th St)", "New York, NY 10010", "United States"]}, "categories": [{"id": "4bf58dd8d48988d1e0931735", "name": "Coffee Shop", "pluralName": "Coffee Shops", "shortName": "Coffee Shop", "icon": {"prefix": "https://ss3.4sqi.net/img/categories_v2/food/coffeeshop_", "suffix": ".png"}, "primary": true}], "photos": {"count": 0, "groups": []}}, "referralId": "e-0-5046b813e4b0875cbaa77dcf-74"}, {"reasons": {"count": 0, "items": [{"summary": "This spot is popular", "type": "general", "reasonName": "globalInteractionReason"}]}, "venue": {"id": "4a802155f964a520a9f41fe3", "name": "Starbucks", "location": {"address": "875 Avenue of the Americas", "crossStreet": "at W 31st St", "lat": 40.74927198, "lng": -73.98927764, "labeledLatLngs": [{"label": "display", "lat": 40.74927198, "lng": -73.98927764}], "postalCode": "10001", "cc": "US", "city": "New York", "state": "NY", "country": "United States", "formattedAddress": ["875 Avenue of the Americas (at W 31st St)", "New York, NY 10001", "United States"]}, "categories": [{"id": "4bf58dd8d48988d1e0931735", "name": "Coffee Shop", "pluralName": "Coffee Shops", "shortName": "Coffee Shop", "icon": {"prefix": "https://ss3.4sqi.net/img/categories_v2/food/coffeeshop_", "suffix": ".png"}, "primary": true}], "photos": {"count": 0, "groups": []}}, "referralId": "e-0-4a802155f964a520a9f41fe3-75"}, {"reasons": {"count": 0, "items": [{"summary": "This spot is popular", "type": "general", "reasonName": "globalInteractionReason"}]}, "venue": {"id": "5730c666498e1f30668e6679", "name": "Starbucks", "location": {"address": "55 West 46th st", "crossStreet": "btwn 5th & 6th Ave", "lat": 40.7569017629723, "lng": -73.98128721212817, "labeledLatLngs": [{"label": "display", "lat": 40.7569017629723, "lng": -73.98128721212817}], "postalCode": "10036", "cc": "US", "city": "New York", "state": "NY", "country": "United States", "formattedAddress": ["55 West 46th st (btwn 5th & 6th Ave)", "New York, NY 10036", "United States"]}, "categories": [{"id": "4bf58dd8d48988d1e0931735", "name": "Coffee Shop", "pluralName": "Coffee Shops", "shortName": "Coffee Shop", "icon": {"prefix": "https://ss3.4sqi.net/img/categories_v2/food/coffeeshop_", "suffix": ".png"}, "primary": true}], "photos": {"count": 0, "groups": []}}, "referralId": "e-0-5730c666498e1f30668e6679-76"}, {"reasons": {"count": 0, "items": [{"summary": "This spot is popular", "type": "general", "reasonName": "globalInteractionReason"}]}, "venue": {"id": "4afb634af964a520951d22e3", "name": "Starbucks", "location": {"address": "545 5th Ave", "crossStreet": "at E 45th St", "lat": 40.755463, "lng": -73.98015, "labeledLatLngs": [{"label": "display", "lat": 40.755463, "lng": -73.98015}], "postalCode": "10017", "cc": "US", "city": "New York", "state": "NY", "country": "United States", "formattedAddress": ["545 5th Ave (at E 45th St)", "New York, NY 10017", "United States"]}, "categories": [{"id": "4bf58dd8d48988d1e0931735", "name": "Coffee Shop", "pluralName": "Coffee Shops", "shortName": "Coffee Shop", "icon": {"prefix": "https://ss3.4sqi.net/img/categories_v2/food/coffeeshop_", "suffix": ".png"}, "primary": true}], "photos": {"count": 0, "groups": []}}, "referralId": "e-0-4afb634af964a520951d22e3-77"}, {"reasons": {"count": 0, "items": [{"summary": "This spot is popular", "type": "general", "reasonName": "globalInteractionReason"}]}, "venue": {"id": "4c3abbc9b2289521d209f70c", "name": "Starbucks", "location": {"address": "518 Hudson Street", "lat": 40.73371260231791, "lng": -74.00627519979301, "labeledLatLngs": [{"label": "display", "lat": 40.73371260231791, "lng": -74.00627519979301}], "postalCode": "10014", "cc": "US", "city": "New York", "state": "NY", "country": "United States", "formattedAddress": ["518 Hudson Street", "New York, NY 10014", "United States"]}, "categories": [{"id": "4bf58dd8d48988d1e0931735", "name": "Coffee Shop", "pluralName": "Coffee Shops", "shortName": "Coffee Shop", "icon": {"prefix": "https://ss3.4sqi.net/img/categories_v2/food/coffeeshop_", "suffix": ".png"}, "primary": true}], "photos": {"count": 0, "groups": []}}, "referralId": "e-0-4c3abbc9b2289521d209f70c-78"}, {"reasons": {"count": 0, "items": [{"summary": "This spot is popular", "type": "general", "reasonName": "globalInteractionReason"}]}, "venue": {"id": "4a809c7df964a520b2f51fe3", "name": "Starbucks", "location": {"address": "665 Broadway", "crossStreet": "at Bond St", "lat": 40.727192, "lng": -73.99546, "labeledLatLngs": [{"label": "display", "lat": 40.727192, "lng": -73.99546}], "postalCode": "10012", "cc": "US", "city": "New York", "state": "NY", "country": "United States", "formattedAddress": ["665 Broadway (at Bond St)", "New York, NY 10012", "United States"]}, "categories": [{"id": "4bf58dd8d48988d1e0931735", "name": "Coffee Shop", "pluralName": "Coffee Shops", "shortName": "Coffee Shop", "icon": {"prefix": "https://ss3.4sqi.net/img/categories_v2/food/coffeeshop_", "suffix": ".png"}, "primary": true}], "photos": {"count": 0, "groups": []}}, "referralId": "e-0-4a809c7df964a520b2f51fe3-79"}, {"reasons": {"count": 0, "items": [{"summary": "This spot is popular", "type": "general", "reasonName": "globalInteractionReason"}]}, "venue": {"id": "4a3fbfacf964a520eaa31fe3", "name": "Starbucks", "location": {"address": "304 Park Avenue South", "crossStreet": "at E 23rd St", "lat": 40.74016, "lng": -73.98697, "labeledLatLngs": [{"label": "display", "lat": 40.74016, "lng": -73.98697}], "postalCode": "10010", "cc": "US", "city": "New York", "state": "NY", "country": "United States", "formattedAddress": ["304 Park Avenue South (at E 23rd St)", "New York, NY 10010", "United States"]}, "categories": [{"id": "4bf58dd8d48988d1e0931735", "name": "Coffee Shop", "pluralName": "Coffee Shops", "shortName": "Coffee Shop", "icon": {"prefix": "https://ss3.4sqi.net/img/categories_v2/food/coffeeshop_", "suffix": ".png"}, "primary": true}], "photos": {"count": 0, "groups": []}}, "referralId": "e-0-4a3fbfacf964a520eaa31fe3-80"}, {"reasons": {"count": 0, "items": [{"summary": "This spot is popular", "type": "general", "reasonName": "globalInteractionReason"}]}, "venue": {"id": "4df7f3f5d164d347cc714631", "name": "Starbucks", "location": {"address": "1 Penn Plaza, Concourse level", "crossStreet": "at Concourse Level", "lat": 40.750164, "lng": -73.992035, "labeledLatLngs": [{"label": "display", "lat": 40.750164, "lng": -73.992035}], "postalCode": "10119", "cc": "US", "city": "New York", "state": "NY", "country": "United States", "formattedAddress": ["1 Penn Plaza, Concourse level (at Concourse Level)", "New York, NY 10119", "United States"]}, "categories": [{"id": "4bf58dd8d48988d1e0931735", "name": "Coffee Shop", "pluralName": "Coffee Shops", "shortName": "Coffee Shop", "icon": {"prefix": "https://ss3.4sqi.net/img/categories_v2/food/coffeeshop_", "suffix": ".png"}, "primary": true}], "photos": {"count": 0, "groups": []}}, "referralId": "e-0-4df7f3f5d164d347cc714631-81"}, {"reasons": {"count": 0, "items": [{"summary": "This spot is popular", "type": "general", "reasonName": "globalInteractionReason"}]}, "venue": {"id": "4aabdb37f964a520775a20e3", "name": "Starbucks", "location": {"address": "750 Avenue of the Americas", "crossStreet": "at W 24th St", "lat": 40.743572, "lng": -73.99203, "labeledLatLngs": [{"label": "display", "lat": 40.743572, "lng": -73.99203}], "postalCode": "10010", "cc": "US", "neighborhood": "Chelsea", "city": "New York", "state": "NY", "country": "United States", "formattedAddress": ["750 Avenue of the Americas (at W 24th St)", "New York, NY 10010", "United States"]}, "categories": [{"id": "4bf58dd8d48988d1e0931735", "name": "Coffee Shop", "pluralName": "Coffee Shops", "shortName": "Coffee Shop", "icon": {"prefix": "https://ss3.4sqi.net/img/categories_v2/food/coffeeshop_", "suffix": ".png"}, "primary": true}], "photos": {"count": 0, "groups": []}}, "referralId": "e-0-4aabdb37f964a520775a20e3-82"}, {"reasons": {"count": 0, "items": [{"summary": "This spot is popular", "type": "general", "reasonName": "globalInteractionReason"}]}, "venue": {"id": "4a9320d2f964a520e31e20e3", "name": "Starbucks", "location": {"address": "150 Varick Street", "crossStreet": "at Spring St", "lat": 40.72572004349832, "lng": -74.00568558837828, "labeledLatLngs": [{"label": "display", "lat": 40.72572004349832, "lng": -74.00568558837828}], "postalCode": "10013", "cc": "US", "city": "New York", "state": "NY", "country": "United States", "formattedAddress": ["150 Varick Street (at Spring St)", "New York, NY 10013", "United States"]}, "categories": [{"id": "4bf58dd8d48988d1e0931735", "name": "Coffee Shop", "pluralName": "Coffee Shops", "shortName": "Coffee Shop", "icon": {"prefix": "https://ss3.4sqi.net/img/categories_v2/food/coffeeshop_", "suffix": ".png"}, "primary": true}], "photos": {"count": 0, "groups": []}}, "referralId": "e-0-4a9320d2f964a520e31e20e3-83"}, {"reasons": {"count": 0, "items": [{"summary": "This spot is popular", "type": "general", "reasonName": "globalInteractionReason"}]}, "venue": {"id": "4a7f0913f964a5208af21fe3", "name": "Starbucks", "location": {"address": "585 2nd Ave", "lat": 40.74365595, "lng": -73.97696425, "labeledLatLngs": [{"label": "display", "lat": 40.74365595, "lng": -73.97696425}], "postalCode": "10016", "cc": "US", "city": "New York", "state": "NY", "country": "United States", "formattedAddress": ["585 2nd Ave", "New York, NY 10016", "United States"]}, "categories": [{"id": "4bf58dd8d48988d1e0931735", "name": "Coffee Shop", "pluralName": "Coffee Shops", "shortName": "Coffee Shop", "icon": {"prefix": "https://ss3.4sqi.net/img/categories_v2/food/coffeeshop_", "suffix": ".png"}, "primary": true}], "photos": {"count": 0, "groups": []}}, "referralId": "e-0-4a7f0913f964a5208af21fe3-84"}, {"reasons": {"count": 0, "items": [{"summary": "This spot is popular", "type": "general", "reasonName": "globalInteractionReason"}]}, "venue": {"id": "4a75f517f964a520cbe11fe3", "name": "Starbucks Reserve", "location": {"address": "151 W 34th St Fl 6", "crossStreet": "btwn 7th Ave & Broadway", "lat": 40.750605666315835, "lng": -73.98925065994263, "labeledLatLngs": [{"label": "display", "lat": 40.750605666315835, "lng": -73.98925065994263}], "postalCode": "10001", "cc": "US", "neighborhood": "Herald Square", "city": "New York", "state": "NY", "country": "United States", "formattedAddress": ["151 W 34th St Fl 6 (btwn 7th Ave & Broadway)", "New York, NY 10001", "United States"]}, "categories": [{"id": "4bf58dd8d48988d1e0931735", "name": "Coffee Shop", "pluralName": "Coffee Shops", "shortName": "Coffee Shop", "icon": {"prefix": "https://ss3.4sqi.net/img/categories_v2/food/coffeeshop_", "suffix": ".png"}, "primary": true}], "photos": {"count": 0, "groups": []}}, "referralId": "e-0-4a75f517f964a520cbe11fe3-85"}, {"reasons": {"count": 0, "items": [{"summary": "This spot is popular", "type": "general", "reasonName": "globalInteractionReason"}]}, "venue": {"id": "4a704000f964a52040d71fe3", "name": "Starbucks", "location": {"address": "286 First Avenue", "crossStreet": "at E 17th St", "lat": 40.73323, "lng": -73.98082, "labeledLatLngs": [{"label": "display", "lat": 40.73323, "lng": -73.98082}], "postalCode": "10009", "cc": "US", "city": "New York", "state": "NY", "country": "United States", "formattedAddress": ["286 First Avenue (at E 17th St)", "New York, NY 10009", "United States"]}, "categories": [{"id": "4bf58dd8d48988d1e0931735", "name": "Coffee Shop", "pluralName": "Coffee Shops", "shortName": "Coffee Shop", "icon": {"prefix": "https://ss3.4sqi.net/img/categories_v2/food/coffeeshop_", "suffix": ".png"}, "primary": true}], "photos": {"count": 0, "groups": []}}, "referralId": "e-0-4a704000f964a52040d71fe3-86"}, {"reasons": {"count": 0, "items": [{"summary": "This spot is popular", "type": "general", "reasonName": "globalInteractionReason"}]}, "venue": {"id": "4ad3d174f964a5207be620e3", "name": "Starbucks", "location": {"address": "296-300 Third Avenue", "crossStreet": "at E 23rd St", "lat": 40.738792, "lng": -73.9834, "labeledLatLngs": [{"label": "display", "lat": 40.738792, "lng": -73.9834}], "postalCode": "10010", "cc": "US", "city": "New York", "state": "NY", "country": "United States", "formattedAddress": ["296-300 Third Avenue (at E 23rd St)", "New York, NY 10010", "United States"]}, "categories": [{"id": "4bf58dd8d48988d1e0931735", "name": "Coffee Shop", "pluralName": "Coffee Shops", "shortName": "Coffee Shop", "icon": {"prefix": "https://ss3.4sqi.net/img/categories_v2/food/coffeeshop_", "suffix": ".png"}, "primary": true}], "photos": {"count": 0, "groups": []}}, "referralId": "e-0-4ad3d174f964a5207be620e3-87"}, {"reasons": {"count": 0, "items": [{"summary": "This spot is popular", "type": "general", "reasonName": "globalInteractionReason"}]}, "venue": {"id": "4a81ecabf964a520fdf71fe3", "name": "Starbucks", "location": {"address": "124 Eighth Ave", "crossStreet": "at W 16th St", "lat": 40.741154, "lng": -74.0013, "labeledLatLngs": [{"label": "display", "lat": 40.741154, "lng": -74.0013}], "postalCode": "10011", "cc": "US", "city": "New York", "state": "NY", "country": "United States", "formattedAddress": ["124 Eighth Ave (at W 16th St)", "New York, NY 10011", "United States"]}, "categories": [{"id": "4bf58dd8d48988d1e0931735", "name": "Coffee Shop", "pluralName": "Coffee Shops", "shortName": "Coffee Shop", "icon": {"prefix": "https://ss3.4sqi.net/img/categories_v2/food/coffeeshop_", "suffix": ".png"}, "primary": true}], "photos": {"count": 0, "groups": []}}, "referralId": "e-0-4a81ecabf964a520fdf71fe3-88"}, {"reasons": {"count": 0, "items": [{"summary": "This spot is popular", "type": "general", "reasonName": "globalInteractionReason"}]}, "venue": {"id": "4aeee85af964a520a2d421e3", "name": "Starbucks", "location": {"address": "340 Madison Ave", "crossStreet": "at E 44th St", "lat": 40.75351314, "lng": -73.97850542, "labeledLatLngs": [{"label": "display", "lat": 40.75351314, "lng": -73.97850542}], "postalCode": "10173", "cc": "US", "city": "New York", "state": "NY", "country": "United States", "formattedAddress": ["340 Madison Ave (at E 44th St)", "New York, NY 10173", "United States"]}, "categories": [{"id": "4bf58dd8d48988d1e0931735", "name": "Coffee Shop", "pluralName": "Coffee Shops", "shortName": "Coffee Shop", "icon": {"prefix": "https://ss3.4sqi.net/img/categories_v2/food/coffeeshop_", "suffix": ".png"}, "primary": true}], "photos": {"count": 0, "groups": []}}, "referralId": "e-0-4aeee85af964a520a2d421e3-89"}, {"reasons": {"count": 0, "items": [{"summary": "This spot is popular", "type": "general", "reasonName": "globalInteractionReason"}]}, "venue": {"id": "4a58d0acf964a520f6b71fe3", "name": "Starbucks", "location": {"address": "684 Avenue of the Americas", "crossStreet": "at W 22nd St", "lat": 40.741844, "lng": -73.99324, "labeledLatLngs": [{"label": "display", "lat": 40.741844, "lng": -73.99324}], "postalCode": "10010", "cc": "US", "city": "New York", "state": "NY", "country": "United States", "formattedAddress": ["684 Avenue of the Americas (at W 22nd St)", "New York, NY 10010", "United States"]}, "categories": [{"id": "4bf58dd8d48988d1e0931735", "name": "Coffee Shop", "pluralName": "Coffee Shops", "shortName": "Coffee Shop", "icon": {"prefix": "https://ss3.4sqi.net/img/categories_v2/food/coffeeshop_", "suffix": ".png"}, "primary": true}], "photos": {"count": 0, "groups": []}}, "referralId": "e-0-4a58d0acf964a520f6b71fe3-90"}, {"reasons": {"count": 0, "items": [{"summary": "This spot is popular", "type": "general", "reasonName": "globalInteractionReason"}]}, "venue": {"id": "52869069498e3289da675f09", "name": "Starbucks", "location": {"address": "1140 Broadway", "crossStreet": "at W 26th St", "lat": 40.74383, "lng": -73.988884, "labeledLatLngs": [{"label": "display", "lat": 40.74383, "lng": -73.988884}], "postalCode": "10010", "cc": "US", "city": "New York", "state": "NY", "country": "United States", "formattedAddress": ["1140 Broadway (at W 26th St)", "New York, NY 10010", "United States"]}, "categories": [{"id": "4bf58dd8d48988d1e0931735", "name": "Coffee Shop", "pluralName": "Coffee Shops", "shortName": "Coffee Shop", "icon": {"prefix": "https://ss3.4sqi.net/img/categories_v2/food/coffeeshop_", "suffix": ".png"}, "primary": true}], "photos": {"count": 0, "groups": []}}, "referralId": "e-0-52869069498e3289da675f09-91"}, {"reasons": {"count": 0, "items": [{"summary": "This spot is popular", "type": "general", "reasonName": "globalInteractionReason"}]}, "venue": {"id": "4b5f3f33f964a520c8af29e3", "name": "Starbucks", "location": {"address": "593 Ninth Ave", "crossStreet": "at W 43rd St", "lat": 40.758934, "lng": -73.992516, "labeledLatLngs": [{"label": "display", "lat": 40.758934, "lng": -73.992516}], "postalCode": "10036", "cc": "US", "city": "New York", "state": "NY", "country": "United States", "formattedAddress": ["593 Ninth Ave (at W 43rd St)", "New York, NY 10036", "United States"]}, "categories": [{"id": "4bf58dd8d48988d1e0931735", "name": "Coffee Shop", "pluralName": "Coffee Shops", "shortName": "Coffee Shop", "icon": {"prefix": "https://ss3.4sqi.net/img/categories_v2/food/coffeeshop_", "suffix": ".png"}, "primary": true}], "photos": {"count": 0, "groups": []}}, "referralId": "e-0-4b5f3f33f964a520c8af29e3-92"}, {"reasons": {"count": 0, "items": [{"summary": "This spot is popular", "type": "general", "reasonName": "globalInteractionReason"}]}, "venue": {"id": "50415ea8e4b0f300417d4e68", "name": "Starbucks", "location": {"address": "219 First Ave", "crossStreet": "at E 13th St", "lat": 40.7309, "lng": -73.9832, "labeledLatLngs": [{"label": "display", "lat": 40.7309, "lng": -73.9832}], "postalCode": "10003", "cc": "US", "city": "New York", "state": "NY", "country": "United States", "formattedAddress": ["219 First Ave (at E 13th St)", "New York, NY 10003", "United States"]}, "categories": [{"id": "4bf58dd8d48988d1e0931735", "name": "Coffee Shop", "pluralName": "Coffee Shops", "shortName": "Coffee Shop", "icon": {"prefix": "https://ss3.4sqi.net/img/categories_v2/food/coffeeshop_", "suffix": ".png"}, "primary": true}], "photos": {"count": 0, "groups": []}}, "referralId": "e-0-50415ea8e4b0f300417d4e68-93"}, {"reasons": {"count": 0, "items": [{"summary": "This spot is popular", "type": "general", "reasonName": "globalInteractionReason"}]}, "venue": {"id": "4a8df0c5f964a5207e1120e3", "name": "Starbucks", "location": {"address": "450 Lexington Ave", "crossStreet": "at E 45th St", "lat": 40.75302053, "lng": -73.97508865, "labeledLatLngs": [{"label": "display", "lat": 40.75302053, "lng": -73.97508865}], "postalCode": "10017", "cc": "US", "city": "New York", "state": "NY", "country": "United States", "formattedAddress": ["450 Lexington Ave (at E 45th St)", "New York, NY 10017", "United States"]}, "categories": [{"id": "4bf58dd8d48988d1e0931735", "name": "Coffee Shop", "pluralName": "Coffee Shops", "shortName": "Coffee Shop", "icon": {"prefix": "https://ss3.4sqi.net/img/categories_v2/food/coffeeshop_", "suffix": ".png"}, "primary": true}], "photos": {"count": 0, "groups": []}}, "referralId": "e-0-4a8df0c5f964a5207e1120e3-94"}, {"reasons": {"count": 0, "items": [{"summary": "This spot is popular", "type": "general", "reasonName": "globalInteractionReason"}]}, "venue": {"id": "45be0276f964a52012421fe3", "name": "Starbucks", "location": {"address": "145 3rd Ave", "crossStreet": "at E 15th St", "lat": 40.73375, "lng": -73.986595, "labeledLatLngs": [{"label": "display", "lat": 40.73375, "lng": -73.986595}], "postalCode": "10003", "cc": "US", "neighborhood": "Gramercy Park", "city": "New York", "state": "NY", "country": "United States", "formattedAddress": ["145 3rd Ave (at E 15th St)", "New York, NY 10003", "United States"]}, "categories": [{"id": "4bf58dd8d48988d1e0931735", "name": "Coffee Shop", "pluralName": "Coffee Shops", "shortName": "Coffee Shop", "icon": {"prefix": "https://ss3.4sqi.net/img/categories_v2/food/coffeeshop_", "suffix": ".png"}, "primary": true}], "photos": {"count": 0, "groups": []}}, "referralId": "e-0-45be0276f964a52012421fe3-95"}, {"reasons": {"count": 0, "items": [{"summary": "This spot is popular", "type": "general", "reasonName": "globalInteractionReason"}]}, "venue": {"id": "4b9d9a4ef964a520edb536e3", "name": "Starbucks", "location": {"address": "425 Lexington Ave", "crossStreet": "between 43rd St. and 44th St.", "lat": 40.7521661695701, "lng": -73.97538900375366, "labeledLatLngs": [{"label": "display", "lat": 40.7521661695701, "lng": -73.97538900375366}], "postalCode": "10017", "cc": "US", "neighborhood": "Turtle Bay", "city": "New York", "state": "NY", "country": "United States", "formattedAddress": ["425 Lexington Ave (between 43rd St. and 44th St.)", "New York, NY 10017", "United States"]}, "categories": [{"id": "4bf58dd8d48988d1e0931735", "name": "Coffee Shop", "pluralName": "Coffee Shops", "shortName": "Coffee Shop", "icon": {"prefix": "https://ss3.4sqi.net/img/categories_v2/food/coffeeshop_", "suffix": ".png"}, "primary": true}], "photos": {"count": 0, "groups": []}}, "referralId": "e-0-4b9d9a4ef964a520edb536e3-96"}, {"reasons": {"count": 0, "items": [{"summary": "This spot is popular", "type": "general", "reasonName": "globalInteractionReason"}]}, "venue": {"id": "56e84611498e6c8f31b385c9", "name": "Starbucks", "location": {"address": "1040 Avenue of the Americas", "crossStreet": "btwn W 39th & W 40th St", "lat": 40.75312, "lng": -73.985115, "labeledLatLngs": [{"label": "display", "lat": 40.75312, "lng": -73.985115}], "postalCode": "10018", "cc": "US", "city": "New York", "state": "NY", "country": "United States", "formattedAddress": ["1040 Avenue of the Americas (btwn W 39th & W 40th St)", "New York, NY 10018", "United States"]}, "categories": [{"id": "4bf58dd8d48988d1e0931735", "name": "Coffee Shop", "pluralName": "Coffee Shops", "shortName": "Coffee Shop", "icon": {"prefix": "https://ss3.4sqi.net/img/categories_v2/food/coffeeshop_", "suffix": ".png"}, "primary": true}], "photos": {"count": 0, "groups": []}}, "referralId": "e-0-56e84611498e6c8f31b385c9-97"}, {"reasons": {"count": 0, "items": [{"summary": "This spot is popular", "type": "general", "reasonName": "globalInteractionReason"}]}, "venue": {"id": "4f3bc487e4b09bd62749cbb9", "name": "Starbucks", "location": {"address": "49 1/2 1st Ave", "crossStreet": "at E 3rd St", "lat": 40.72449233, "lng": -73.98771484, "labeledLatLngs": [{"label": "display", "lat": 40.72449233, "lng": -73.98771484}], "postalCode": "10003", "cc": "US", "city": "New York", "state": "NY", "country": "United States", "formattedAddress": ["49 1/2 1st Ave (at E 3rd St)", "New York, NY 10003", "United States"]}, "categories": [{"id": "4bf58dd8d48988d1e0931735", "name": "Coffee Shop", "pluralName": "Coffee Shops", "shortName": "Coffee Shop", "icon": {"prefix": "https://ss3.4sqi.net/img/categories_v2/food/coffeeshop_", "suffix": ".png"}, "primary": true}], "photos": {"count": 0, "groups": []}}, "referralId": "e-0-4f3bc487e4b09bd62749cbb9-98"}, {"reasons": {"count": 0, "items": [{"summary": "This spot is popular", "type": "general", "reasonName": "globalInteractionReason"}]}, "venue": {"id": "4b62f569f964a520cb5a2ae3", "name": "Starbucks", "location": {"address": "655 W 34th St", "crossStreet": "Level 2", "lat": 40.75669304729343, "lng": -74.00173902511597, "labeledLatLngs": [{"label": "display", "lat": 40.75669304729343, "lng": -74.00173902511597}], "postalCode": "10001", "cc": "US", "city": "New York", "state": "NY", "country": "United States", "formattedAddress": ["655 W 34th St (Level 2)", "New York, NY 10001", "United States"]}, "categories": [{"id": "4bf58dd8d48988d1e0931735", "name": "Coffee Shop", "pluralName": "Coffee Shops", "shortName": "Coffee Shop", "icon": {"prefix": "https://ss3.4sqi.net/img/categories_v2/food/coffeeshop_", "suffix": ".png"}, "primary": true}], "photos": {"count": 0, "groups": []}}, "referralId": "e-0-4b62f569f964a520cb5a2ae3-99"}]}]}}