{"meta": {"code": 200, "requestId": "5d213d756adbf5002c3433a9"}, "response": {"warning": {"text": "There aren't a lot of results near you. Try something more general, reset your filters, or expand the search area."}, "headerLocation": "East Flatbush", "headerFullLocation": "East Flatbush, Brooklyn", "headerLocationGranularity": "neighborhood", "totalResults": 3, "suggestedBounds": {"ne": {"lat": 40.64972860225, "lng": -73.91454005907636}, "sw": {"lat": 40.64522859775, "lng": -73.92045994092365}}, "groups": [{"type": "Recommended Places", "name": "recommended", "items": [{"reasons": {"count": 0, "items": [{"summary": "This spot is popular", "type": "general", "reasonName": "globalInteractionReason"}]}, "venue": {"id": "4e058a0bfa767637fd1ed157", "name": "Trendz", "location": {"address": "8906 Ditmas Ave", "lat": 40.647681498504646, "lng": -73.91514925141007, "labeledLatLngs": [{"label": "display", "lat": 40.647681498504646, "lng": -73.91514925141007}], "distance": 199, "postalCode": "11236", "cc": "US", "city": "Brooklyn", "state": "NY", "country": "United States", "formattedAddress": ["8906 Ditmas Ave", "Brooklyn, NY 11236", "United States"]}, "categories": [{"id": "4bf58dd8d48988d11f941735", "name": "Nightclub", "pluralName": "Nightclubs", "shortName": "Nightclub", "icon": {"prefix": "https://ss3.4sqi.net/img/categories_v2/nightlife/nightclub_", "suffix": ".png"}, "primary": true}], "photos": {"count": 0, "groups": []}}, "referralId": "e-0-4e058a0bfa767637fd1ed157-0"}, {"reasons": {"count": 0, "items": [{"summary": "This spot is popular", "type": "general", "reasonName": "globalInteractionReason"}]}, "venue": {"id": "4e7e346a93ade6841af1cda2", "name": "MTA Bus - Av B & Remsen Av (B8)", "location": {"address": "Avenue B", "crossStreet": "at Remsen Ave", "lat": 40.64940373466838, "lng": -73.91660302877426, "labeledLatLngs": [{"label": "display", "lat": 40.64940373466838, "lng": -73.91660302877426}], "distance": 227, "cc": "US", "state": "New York", "country": "United States", "formattedAddress": ["Avenue B (at Remsen Ave)", "New York", "United States"]}, "categories": [{"id": "52f2ab2ebcbc57f1066b8b4f", "name": "Bus Stop", "pluralName": "Bus Stops", "shortName": "Bus Stop", "icon": {"prefix": "https://ss3.4sqi.net/img/categories_v2/travel/busstation_", "suffix": ".png"}, "primary": true}], "photos": {"count": 0, "groups": []}}, "referralId": "e-0-4e7e346a93ade6841af1cda2-1"}, {"reasons": {"count": 0, "items": [{"summary": "This spot is popular", "type": "general", "reasonName": "globalInteractionReason"}]}, "venue": {"id": "4fe5efd3e4b09fd3738bb73c", "name": "Canarsie Plaza", "location": {"lat": 40.64804700077908, "lng": -73.92028970127237, "labeledLatLngs": [{"label": "display", "lat": 40.64804700077908, "lng": -73.92028970127237}], "distance": 243, "postalCode": "11236", "cc": "US", "city": "Brooklyn", "state": "NY", "country": "United States", "formattedAddress": ["Brooklyn, NY 11236", "United States"]}, "categories": [{"id": "4bf58dd8d48988d164941735", "name": "Plaza", "pluralName": "Plazas", "shortName": "Plaza", "icon": {"prefix": "https://ss3.4sqi.net/img/categories_v2/parks_outdoors/plaza_", "suffix": ".png"}, "primary": true}], "photos": {"count": 0, "groups": []}}, "referralId": "e-0-4fe5efd3e4b09fd3738bb73c-2"}]}]}}