{"meta": {"code": 200, "requestId": "5d213d7ff19f4400257749e2"}, "response": {"headerLocation": "Morris Heights", "headerFullLocation": "Morris Heights, Bronx", "headerLocationGranularity": "neighborhood", "totalResults": 12, "suggestedBounds": {"ne": {"lat": 40.84938195225, "lng": -73.91453115923957}, "sw": {"lat": 40.84488194775, "lng": -73.92046884076044}}, "groups": [{"type": "Recommended Places", "name": "recommended", "items": [{"reasons": {"count": 0, "items": [{"summary": "This spot is popular", "type": "general", "reasonName": "globalInteractionReason"}]}, "venue": {"id": "4e39863dae60f589a5dc0dcb", "name": "Yoly Restaurant", "location": {"address": "Featherbed Lane & Nelson Ave.", "lat": 40.8460420585989, "lng": -73.91971559956264, "labeledLatLngs": [{"label": "display", "lat": 40.8460420585989, "lng": -73.91971559956264}], "distance": 222, "postalCode": "10453", "cc": "US", "city": "Bronx", "state": "NY", "country": "United States", "formattedAddress": ["Featherbed Lane & Nelson Ave.", "Bronx, NY 10453", "United States"]}, "categories": [{"id": "4bf58dd8d48988d150941735", "name": "Spanish Restaurant", "pluralName": "Spanish Restaurants", "shortName": "Spanish", "icon": {"prefix": "https://ss3.4sqi.net/img/categories_v2/food/spanish_", "suffix": ".png"}, "primary": true}], "photos": {"count": 0, "groups": []}}, "referralId": "e-0-4e39863dae60f589a5dc0dcb-0"}, {"reasons": {"count": 0, "items": [{"summary": "This spot is popular", "type": "general", "reasonName": "globalInteractionReason"}]}, "venue": {"id": "4bb2434d14cfd13a4eb314ab", "name": "Rite Aid", "location": {"address": "88 Featherbed Ln", "lat": 40.845969, "lng": -73.918525, "labeledLatLngs": [{"label": "display", "lat": 40.845969, "lng": -73.918525}], "distance": 155, "postalCode": "10452", "cc": "US", "city": "Bronx", "state": "NY", "country": "United States", "formattedAddress": ["88 Featherbed Ln", "Bronx, NY 10452", "United States"]}, "categories": [{"id": "4bf58dd8d48988d10f951735", "name": "Pharmacy", "pluralName": "Pharmacies", "shortName": "Pharmacy", "icon": {"prefix": "https://ss3.4sqi.net/img/categories_v2/shops/pharmacy_", "suffix": ".png"}, "primary": true}], "photos": {"count": 0, "groups": []}}, "referralId": "e-0-4bb2434d14cfd13a4eb314ab-1"}, {"reasons": {"count": 0, "items": [{"summary": "This spot is popular", "type": "general", "reasonName": "globalInteractionReason"}]}, "venue": {"id": "4b9fa254f964a5204d3037e3", "name": "CTown Supermarkets", "location": {"address": "1750 University Ave", "lat": 40.84921753311762, "lng": -73.91694343560889, "labeledLatLngs": [{"label": "display", "lat": 40.84921753311762, "lng": -73.91694343560889}], "distance": 236, "postalCode": "10453", "cc": "US", "city": "Bronx", "state": "NY", "country": "United States", "formattedAddress": ["1750 University Ave", "Bronx, NY 10453", "United States"]}, "categories": [{"id": "4bf58dd8d48988d118951735", "name": "Grocery Store", "pluralName": "Grocery Stores", "shortName": "Grocery Store", "icon": {"prefix": "https://ss3.4sqi.net/img/categories_v2/shops/food_grocery_", "suffix": ".png"}, "primary": true}], "photos": {"count": 0, "groups": []}}, "referralId": "e-0-4b9fa254f964a5204d3037e3-2"}, {"reasons": {"count": 0, "items": [{"summary": "This spot is popular", "type": "general", "reasonName": "globalInteractionReason"}]}, "venue": {"id": "4c1c2f22b306c928f78d63b7", "name": "Caridad Kitchen Restaurant", "location": {"address": "1708 Dr Martin L King Jr Blvd", "lat": 40.848427, "lng": -73.91799276732671, "labeledLatLngs": [{"label": "display", "lat": 40.848427, "lng": -73.91799276732671}], "distance": 150, "postalCode": "10453", "cc": "US", "city": "Bronx", "state": "NY", "country": "United States", "formattedAddress": ["1708 Dr Martin L King Jr Blvd", "Bronx, NY 10453", "United States"]}, "categories": [{"id": "4bf58dd8d48988d150941735", "name": "Spanish Restaurant", "pluralName": "Spanish Restaurants", "shortName": "Spanish", "icon": {"prefix": "https://ss3.4sqi.net/img/categories_v2/food/spanish_", "suffix": ".png"}, "primary": true}], "photos": {"count": 0, "groups": []}}, "referralId": "e-0-4c1c2f22b306c928f78d63b7-3"}, {"reasons": {"count": 0, "items": [{"summary": "This spot is popular", "type": "general", "reasonName": "globalInteractionReason"}]}, "venue": {"id": "4f805670e4b0c0cb034a95d1", "name": "Gomez Food Corporation", "location": {"address": "73 Featherbed Ln", "lat": 40.84629109261885, "lng": -73.91736176483087, "labeledLatLngs": [{"label": "display", "lat": 40.84629109261885, "lng": -73.91736176483087}], "distance": 94, "postalCode": "10452", "cc": "US", "city": "Bronx", "state": "NY", "country": "United States", "formattedAddress": ["73 Featherbed Ln", "Bronx, NY 10452", "United States"]}, "categories": [{"id": "4d954b0ea243a5684a65b473", "name": "Convenience Store", "pluralName": "Convenience Stores", "shortName": "Convenience Store", "icon": {"prefix": "https://ss3.4sqi.net/img/categories_v2/shops/conveniencestore_", "suffix": ".png"}, "primary": true}], "photos": {"count": 0, "groups": []}}, "referralId": "e-0-4f805670e4b0c0cb034a95d1-4"}, {"reasons": {"count": 0, "items": [{"summary": "This spot is popular", "type": "general", "reasonName": "globalInteractionReason"}]}, "venue": {"id": "4c0315d89a7920a1f67ccf79", "name": "Xing Sheng", "location": {"address": "115 Featherbed Ln", "lat": 40.84621958482719, "lng": -73.9189290774682, "labeledLatLngs": [{"label": "display", "lat": 40.84621958482719, "lng": -73.9189290774682}], "distance": 157, "postalCode": "10452", "cc": "US", "city": "Bronx", "state": "NY", "country": "United States", "formattedAddress": ["115 Featherbed Ln", "Bronx, NY 10452", "United States"]}, "categories": [{"id": "4bf58dd8d48988d145941735", "name": "Chinese Restaurant", "pluralName": "Chinese Restaurants", "shortName": "Chinese", "icon": {"prefix": "https://ss3.4sqi.net/img/categories_v2/food/asian_", "suffix": ".png"}, "primary": true}], "photos": {"count": 0, "groups": []}}, "referralId": "e-0-4c0315d89a7920a1f67ccf79-5"}, {"reasons": {"count": 0, "items": [{"summary": "This spot is popular", "type": "general", "reasonName": "globalInteractionReason"}]}, "venue": {"id": "4d139e019844b60c0f3ec4d4", "name": "Fine Fare Supermarket", "location": {"lat": 40.84606066933297, "lng": -73.91772345348363, "labeledLatLngs": [{"label": "display", "lat": 40.84606066933297, "lng": -73.91772345348363}], "distance": 120, "cc": "US", "state": "New York", "country": "United States", "formattedAddress": ["New York", "United States"]}, "categories": [{"id": "4bf58dd8d48988d118951735", "name": "Grocery Store", "pluralName": "Grocery Stores", "shortName": "Grocery Store", "icon": {"prefix": "https://ss3.4sqi.net/img/categories_v2/shops/food_grocery_", "suffix": ".png"}, "primary": true}], "photos": {"count": 0, "groups": []}}, "referralId": "e-0-4d139e019844b60c0f3ec4d4-6"}, {"reasons": {"count": 0, "items": [{"summary": "This spot is popular", "type": "general", "reasonName": "globalInteractionReason"}]}, "venue": {"id": "51302444e4b03f298a2f910b", "name": "El Valle Restaurant Bar", "location": {"address": "69 Featherbed Lane", "lat": 40.84641528306658, "lng": -73.91725842509227, "labeledLatLngs": [{"label": "display", "lat": 40.84641528306658, "lng": -73.91725842509227}], "distance": 82, "postalCode": "10453", "cc": "US", "city": "New York", "state": "NY", "country": "United States", "formattedAddress": ["69 Featherbed Lane", "New York, NY 10453", "United States"]}, "categories": [{"id": "4bf58dd8d48988d150941735", "name": "Spanish Restaurant", "pluralName": "Spanish Restaurants", "shortName": "Spanish", "icon": {"prefix": "https://ss3.4sqi.net/img/categories_v2/food/spanish_", "suffix": ".png"}, "primary": true}], "delivery": {"id": "1232694", "url": "https://www.seamless.com/menu/my-valle-restaurant-69-featherbed-ln-bronx/1232694?affiliate=1131&utm_source=foursquare-affiliate-network&utm_medium=affiliate&utm_campaign=1131&utm_content=1232694", "provider": {"name": "seamless", "icon": {"prefix": "https://fastly.4sqi.net/img/general/cap/", "sizes": [40, 50], "name": "/delivery_provider_seamless_20180129.png"}}}, "photos": {"count": 0, "groups": []}}, "referralId": "e-0-51302444e4b03f298a2f910b-7"}, {"reasons": {"count": 0, "items": [{"summary": "This spot is popular", "type": "general", "reasonName": "globalInteractionReason"}]}, "venue": {"id": "4b96cca5f964a52066e534e3", "name": "El Taco Loco", "location": {"address": "23 E Tremont Ave", "lat": 40.84885725267238, "lng": -73.91725842509227, "labeledLatLngs": [{"label": "display", "lat": 40.84885725267238, "lng": -73.91725842509227}], "distance": 193, "postalCode": "10453", "cc": "US", "city": "Bronx", "state": "NY", "country": "United States", "formattedAddress": ["23 E Tremont Ave", "Bronx, NY 10453", "United States"]}, "categories": [{"id": "4bf58dd8d48988d153941735", "name": "Burrito Place", "pluralName": "Burrito Places", "shortName": "Burritos", "icon": {"prefix": "https://ss3.4sqi.net/img/categories_v2/food/burrito_", "suffix": ".png"}, "primary": true}], "photos": {"count": 0, "groups": []}}, "referralId": "e-0-4b96cca5f964a52066e534e3-8"}, {"reasons": {"count": 0, "items": [{"summary": "This spot is popular", "type": "general", "reasonName": "globalInteractionReason"}]}, "venue": {"id": "51e6a49a498ecebf9ea286b7", "name": "Hayden Lord Park", "location": {"lat": 40.848837, "lng": -73.919091, "labeledLatLngs": [{"label": "display", "lat": 40.848837, "lng": -73.919091}], "distance": 232, "cc": "US", "city": "Bronx", "state": "NY", "country": "United States", "formattedAddress": ["Bronx, NY", "United States"]}, "categories": [{"id": "4bf58dd8d48988d163941735", "name": "Park", "pluralName": "Parks", "shortName": "Park", "icon": {"prefix": "https://ss3.4sqi.net/img/categories_v2/parks_outdoors/park_", "suffix": ".png"}, "primary": true}], "photos": {"count": 0, "groups": []}}, "referralId": "e-0-51e6a49a498ecebf9ea286b7-9"}, {"reasons": {"count": 0, "items": [{"summary": "This spot is popular", "type": "general", "reasonName": "globalInteractionReason"}]}, "venue": {"id": "4f3260fb19836c91c7d1fa9b", "name": "Kennedy Chicken", "location": {"address": "124 Featherbed Ln", "lat": 40.846126, "lng": -73.920017, "labeledLatLngs": [{"label": "display", "lat": 40.846126, "lng": -73.920017}], "distance": 239, "postalCode": "10452", "cc": "US", "city": "Bronx", "state": "NY", "country": "United States", "formattedAddress": ["124 Featherbed Ln", "Bronx, NY 10452", "United States"]}, "categories": [{"id": "4d4b7105d754a06374d81259", "name": "Food", "pluralName": "Food", "shortName": "Food", "icon": {"prefix": "https://ss3.4sqi.net/img/categories_v2/food/default_", "suffix": ".png"}, "primary": true}], "delivery": {"id": "834172", "url": "https://www.seamless.com/menu/us-kennedy-fried-chicken-124-featherbed-ln-bronx/834172?affiliate=1131&utm_source=foursquare-affiliate-network&utm_medium=affiliate&utm_campaign=1131&utm_content=834172", "provider": {"name": "seamless", "icon": {"prefix": "https://fastly.4sqi.net/img/general/cap/", "sizes": [40, 50], "name": "/delivery_provider_seamless_20180129.png"}}}, "photos": {"count": 0, "groups": []}}, "referralId": "e-0-4f3260fb19836c91c7d1fa9b-10"}, {"reasons": {"count": 0, "items": [{"summary": "This spot is popular", "type": "general", "reasonName": "globalInteractionReason"}]}, "venue": {"id": "4e393decd4c046ee86b78531", "name": "PAYOMATIC", "location": {"address": "120 Featherbed Ln", "crossStreet": "Nelson Ave", "lat": 40.84596977101564, "lng": -73.92002150416374, "labeledLatLngs": [{"label": "display", "lat": 40.84596977101564, "lng": -73.92002150416374}], "distance": 248, "postalCode": "10452", "cc": "US", "city": "Bronx", "state": "NY", "country": "United States", "formattedAddress": ["120 Featherbed Ln (Nelson Ave)", "Bronx, NY 10452", "United States"]}, "categories": [{"id": "52f2ab2ebcbc57f1066b8b2d", "name": "Check Cashing Service", "pluralName": "Check Cashing Services", "shortName": "Check Cashing Service", "icon": {"prefix": "https://ss3.4sqi.net/img/categories_v2/shops/financial_", "suffix": ".png"}, "primary": true}], "photos": {"count": 0, "groups": []}}, "referralId": "e-0-4e393decd4c046ee86b78531-11"}]}]}}