{"meta": {"code": 200, "requestId": "5d213d7f531593002cbc5a68"}, "response": {"suggestedFilters": {"header": "Tap to show:", "filters": [{"name": "Open now", "key": "openNow"}, {"name": "$-$$$$", "key": "price"}]}, "headerLocation": "Inwood", "headerFullLocation": "Inwood, New York", "headerLocationGranularity": "neighborhood", "totalResults": 21, "suggestedBounds": {"ne": {"lat": 40.86786735307342, "lng": -73.9145303306923}, "sw": {"lat": 40.86336734857342, "lng": -73.9204696693077}}, "groups": [{"type": "Recommended Places", "name": "recommended", "items": [{"reasons": {"count": 0, "items": [{"summary": "This spot is popular", "type": "general", "reasonName": "globalInteractionReason"}]}, "venue": {"id": "536d733b498ed4eaf742c67e", "name": "fantastic lounge", "location": {"address": "238 Sherman Ave", "crossStreet": "207 St", "lat": 40.866419544801566, "lng": -73.91964785830075, "labeledLatLngs": [{"label": "display", "lat": 40.866419544801566, "lng": -73.91964785830075}], "distance": 201, "postalCode": "10034", "cc": "US", "city": "New York", "state": "NY", "country": "United States", "formattedAddress": ["238 Sherman Ave (207 St)", "New York, NY 10034", "United States"]}, "categories": [{"id": "4bf58dd8d48988d1be941735", "name": "Latin American Restaurant", "pluralName": "Latin American Restaurants", "shortName": "Latin American", "icon": {"prefix": "https://ss3.4sqi.net/img/categories_v2/food/latinamerican_", "suffix": ".png"}, "primary": true}], "photos": {"count": 0, "groups": []}}, "referralId": "e-0-536d733b498ed4eaf742c67e-0"}, {"reasons": {"count": 0, "items": [{"summary": "This spot is popular", "type": "general", "reasonName": "globalInteractionReason"}]}, "venue": {"id": "53e58cd0498e01b8fae39b41", "name": "Made in Mexico", "location": {"address": "3950 10th Ave", "lat": 40.86727537546098, "lng": -73.91708993197774, "labeledLatLngs": [{"label": "display", "lat": 40.86727537546098, "lng": -73.91708993197774}], "distance": 187, "postalCode": "10034", "cc": "US", "city": "New York", "state": "NY", "country": "United States", "formattedAddress": ["3950 10th Ave", "New York, NY 10034", "United States"]}, "categories": [{"id": "4bf58dd8d48988d1c1941735", "name": "Mexican Restaurant", "pluralName": "Mexican Restaurants", "shortName": "Mexican", "icon": {"prefix": "https://ss3.4sqi.net/img/categories_v2/food/mexican_", "suffix": ".png"}, "primary": true}], "photos": {"count": 0, "groups": []}}, "referralId": "e-0-53e58cd0498e01b8fae39b41-1"}, {"reasons": {"count": 0, "items": [{"summary": "This spot is popular", "type": "general", "reasonName": "globalInteractionReason"}]}, "venue": {"id": "4bb93e047421a5933fa7c240", "name": "El Tina Seafood Restaurant", "location": {"address": "500 W 207th St", "lat": 40.86445981289547, "lng": -73.91909750842994, "labeledLatLngs": [{"label": "display", "lat": 40.86445981289547, "lng": -73.91909750842994}], "distance": 186, "postalCode": "10034", "cc": "US", "city": "New York", "state": "NY", "country": "United States", "formattedAddress": ["500 W 207th St", "New York, NY 10034", "United States"]}, "categories": [{"id": "4bf58dd8d48988d1ce941735", "name": "Seafood Restaurant", "pluralName": "Seafood Restaurants", "shortName": "Seafood", "icon": {"prefix": "https://ss3.4sqi.net/img/categories_v2/food/seafood_", "suffix": ".png"}, "primary": true}], "photos": {"count": 0, "groups": []}}, "referralId": "e-0-4bb93e047421a5933fa7c240-2"}, {"reasons": {"count": 0, "items": [{"summary": "This spot is popular", "type": "general", "reasonName": "globalInteractionReason"}]}, "venue": {"id": "4be6f989d4f7c9b62e472720", "name": "Bizcocho De Colores", "location": {"address": "241 Sherman Ave", "lat": 40.866035195034456, "lng": -73.91939635323097, "labeledLatLngs": [{"label": "display", "lat": 40.866035195034456, "lng": -73.91939635323097}], "distance": 166, "postalCode": "10034", "cc": "US", "city": "New York", "state": "NY", "country": "United States", "formattedAddress": ["241 Sherman Ave", "New York, NY 10034", "United States"]}, "categories": [{"id": "4bf58dd8d48988d16a941735", "name": "Bakery", "pluralName": "Bakeries", "shortName": "Bakery", "icon": {"prefix": "https://ss3.4sqi.net/img/categories_v2/food/bakery_", "suffix": ".png"}, "primary": true}], "photos": {"count": 0, "groups": []}}, "referralId": "e-0-4be6f989d4f7c9b62e472720-3"}, {"reasons": {"count": 0, "items": [{"summary": "This spot is popular", "type": "general", "reasonName": "globalInteractionReason"}]}, "venue": {"id": "4e78ffe6d4c01c5f77f14a4f", "name": "disFruta", "location": {"address": "510 W 207th St", "crossStreet": "Post Ave", "lat": 40.86461291878351, "lng": -73.91919854494306, "labeledLatLngs": [{"label": "display", "lat": 40.86461291878351, "lng": -73.91919854494306}], "distance": 181, "postalCode": "10034", "cc": "US", "city": "New York", "state": "NY", "country": "United States", "formattedAddress": ["510 W 207th St (Post Ave)", "New York, NY 10034", "United States"]}, "categories": [{"id": "4bf58dd8d48988d112941735", "name": "Juice Bar", "pluralName": "Juice Bars", "shortName": "Juice Bar", "icon": {"prefix": "https://ss3.4sqi.net/img/categories_v2/food/juicebar_", "suffix": ".png"}, "primary": true}], "photos": {"count": 0, "groups": []}}, "referralId": "e-0-4e78ffe6d4c01c5f77f14a4f-4"}, {"reasons": {"count": 0, "items": [{"summary": "This spot is popular", "type": "general", "reasonName": "globalInteractionReason"}]}, "venue": {"id": "4bf4b935e5eba593d40c2090", "name": "John's Fried Chicken", "location": {"address": "512 W 207th St", "crossStreet": "Post Ave", "lat": 40.864795924590695, "lng": -73.91947030101764, "labeledLatLngs": [{"label": "display", "lat": 40.864795924590695, "lng": -73.91947030101764}], "distance": 189, "postalCode": "10034", "cc": "US", "neighborhood": "Inwood", "city": "New York", "state": "NY", "country": "United States", "formattedAddress": ["512 W 207th St (Post Ave)", "New York, NY 10034", "United States"]}, "categories": [{"id": "4bf58dd8d48988d16e941735", "name": "Fast Food Restaurant", "pluralName": "Fast Food Restaurants", "shortName": "Fast Food", "icon": {"prefix": "https://ss3.4sqi.net/img/categories_v2/food/fastfood_", "suffix": ".png"}, "primary": true}], "photos": {"count": 0, "groups": []}}, "referralId": "e-0-4bf4b935e5eba593d40c2090-5"}, {"reasons": {"count": 0, "items": [{"summary": "This spot is popular", "type": "general", "reasonName": "globalInteractionReason"}]}, "venue": {"id": "4d9b780b91863704ffd522f9", "name": "Empanadas Monumental", "location": {"address": "522 W 207th St", "lat": 40.86524925422833, "lng": -73.91967324208582, "labeledLatLngs": [{"label": "display", "lat": 40.86524925422833, "lng": -73.91967324208582}], "distance": 187, "postalCode": "10034", "cc": "US", "city": "New York", "state": "NY", "country": "United States", "formattedAddress": ["522 W 207th St", "New York, NY 10034", "United States"]}, "categories": [{"id": "52939a8c3cf9994f4e043a35", "name": "Empanada Restaurant", "pluralName": "Empanada Restaurants", "shortName": "Empanada", "icon": {"prefix": "https://ss3.4sqi.net/img/categories_v2/food/latinamerican_", "suffix": ".png"}, "primary": true}], "photos": {"count": 0, "groups": []}}, "referralId": "e-0-4d9b780b91863704ffd522f9-6"}, {"reasons": {"count": 0, "items": [{"summary": "This spot is popular", "type": "general", "reasonName": "globalInteractionReason"}]}, "venue": {"id": "4d824d2dbede548186840fd1", "name": "Azteca", "location": {"address": "10 Avenue A", "crossStreet": "207 street", "lat": 40.864, "lng": -73.91912427302933, "labeledLatLngs": [{"label": "display", "lat": 40.864, "lng": -73.91912427302933}], "distance": 226, "postalCode": "10009", "cc": "US", "city": "New York", "state": "NY", "country": "United States", "formattedAddress": ["10 Avenue A (207 street)", "New York, NY 10009", "United States"]}, "categories": [{"id": "4bf58dd8d48988d1c1941735", "name": "Mexican Restaurant", "pluralName": "Mexican Restaurants", "shortName": "Mexican", "icon": {"prefix": "https://ss3.4sqi.net/img/categories_v2/food/mexican_", "suffix": ".png"}, "primary": true}], "photos": {"count": 0, "groups": []}}, "referralId": "e-0-4d824d2dbede548186840fd1-7"}, {"reasons": {"count": 0, "items": [{"summary": "This spot is popular", "type": "general", "reasonName": "globalInteractionReason"}]}, "venue": {"id": "4bf8024c5efe2d7f49e56934", "name": "Dunkin'", "location": {"address": "3936 10th Ave", "crossStreet": "Isham", "lat": 40.86613889931998, "lng": -73.91825349390001, "labeledLatLngs": [{"label": "display", "lat": 40.86613889931998, "lng": -73.91825349390001}], "distance": 85, "postalCode": "10034", "cc": "US", "city": "New York", "state": "NY", "country": "United States", "formattedAddress": ["3936 10th Ave (Isham)", "New York, NY 10034", "United States"]}, "categories": [{"id": "4bf58dd8d48988d148941735", "name": "Donut Shop", "pluralName": "Donut Shops", "shortName": "Donuts", "icon": {"prefix": "https://ss3.4sqi.net/img/categories_v2/food/donuts_", "suffix": ".png"}, "primary": true}], "photos": {"count": 0, "groups": []}}, "referralId": "e-0-4bf8024c5efe2d7f49e56934-8"}, {"reasons": {"count": 0, "items": [{"summary": "This spot is popular", "type": "general", "reasonName": "globalInteractionReason"}]}, "venue": {"id": "5ab938c70a08ab3d01c96d08", "name": "Papa John's Pizza", "location": {"address": "523 W 207th St", "crossStreet": "Post Ave", "lat": 40.8653592194442, "lng": -73.91942530090887, "labeledLatLngs": [{"label": "display", "lat": 40.8653592194442, "lng": -73.91942530090887}], "distance": 164, "postalCode": "10034", "cc": "US", "city": "New York", "state": "NY", "country": "United States", "formattedAddress": ["523 W 207th St (Post Ave)", "New York, NY 10034", "United States"]}, "categories": [{"id": "4bf58dd8d48988d1ca941735", "name": "Pizza Place", "pluralName": "Pizza Places", "shortName": "Pizza", "icon": {"prefix": "https://ss3.4sqi.net/img/categories_v2/food/pizza_", "suffix": ".png"}, "primary": true}], "delivery": {"id": "688871", "url": "https://www.seamless.com/menu/papa-johns-pizza---4889-523-w-207th-st-new-york/688871?affiliate=1131&utm_source=foursquare-affiliate-network&utm_medium=affiliate&utm_campaign=1131&utm_content=688871", "provider": {"name": "seamless", "icon": {"prefix": "https://fastly.4sqi.net/img/general/cap/", "sizes": [40, 50], "name": "/delivery_provider_seamless_20180129.png"}}}, "photos": {"count": 0, "groups": []}}, "referralId": "e-0-5ab938c70a08ab3d01c96d08-9"}, {"reasons": {"count": 0, "items": [{"summary": "This spot is popular", "type": "general", "reasonName": "globalInteractionReason"}]}, "venue": {"id": "4bb78b10314e9521f346479d", "name": "Jimbo's", "location": {"address": "3869 10th Ave", "crossStreet": "207th Street", "lat": 40.864432382908255, "lng": -73.91885747678715, "labeledLatLngs": [{"label": "display", "lat": 40.864432382908255, "lng": -73.91885747678715}], "distance": 174, "postalCode": "10034", "cc": "US", "city": "New York", "state": "NY", "country": "United States", "formattedAddress": ["3869 10th Ave (207th Street)", "New York, NY 10034", "United States"]}, "categories": [{"id": "4bf58dd8d48988d16c941735", "name": "Burger Joint", "pluralName": "Burger Joints", "shortName": "Burgers", "icon": {"prefix": "https://ss3.4sqi.net/img/categories_v2/food/burger_", "suffix": ".png"}, "primary": true}], "photos": {"count": 0, "groups": []}}, "referralId": "e-0-4bb78b10314e9521f346479d-10"}, {"reasons": {"count": 0, "items": [{"summary": "This spot is popular", "type": "general", "reasonName": "globalInteractionReason"}]}, "venue": {"id": "5111a756e4b0d9f7bdfb845a", "name": "Little Ceasars", "location": {"address": "525 W 207th St", "crossStreet": "207th Street between Sherman & Post", "lat": 40.86528495450077, "lng": -73.9198131969729, "labeledLatLngs": [{"label": "display", "lat": 40.86528495450077, "lng": -73.9198131969729}], "distance": 198, "postalCode": "10034", "cc": "US", "city": "New York", "state": "NY", "country": "United States", "formattedAddress": ["525 W 207th St (207th Street between Sherman & Post)", "New York, NY 10034", "United States"]}, "categories": [{"id": "4bf58dd8d48988d1ca941735", "name": "Pizza Place", "pluralName": "Pizza Places", "shortName": "Pizza", "icon": {"prefix": "https://ss3.4sqi.net/img/categories_v2/food/pizza_", "suffix": ".png"}, "primary": true}], "photos": {"count": 0, "groups": []}}, "referralId": "e-0-5111a756e4b0d9f7bdfb845a-11"}, {"reasons": {"count": 0, "items": [{"summary": "This spot is popular", "type": "general", "reasonName": "globalInteractionReason"}]}, "venue": {"id": "56e2fcc5cd1044008960d6e2", "name": "Raices Raicesnyc", "location": {"address": "565 W 207th St", "lat": 40.866422, "lng": -73.920231, "labeledLatLngs": [{"label": "display", "lat": 40.866422, "lng": -73.920231}], "distance": 246, "postalCode": "10034", "cc": "US", "city": "New York", "state": "NY", "country": "United States", "formattedAddress": ["565 W 207th St", "New York, NY 10034", "United States"]}, "categories": [{"id": "4bf58dd8d48988d1c4941735", "name": "Restaurant", "pluralName": "Restaurants", "shortName": "Restaurant", "icon": {"prefix": "https://ss3.4sqi.net/img/categories_v2/food/default_", "suffix": ".png"}, "primary": true}], "photos": {"count": 0, "groups": []}}, "referralId": "e-0-56e2fcc5cd1044008960d6e2-12"}, {"reasons": {"count": 0, "items": [{"summary": "This spot is popular", "type": "general", "reasonName": "globalInteractionReason"}]}, "venue": {"id": "4e7e1c49b6345aca1fd69166", "name": "Floridita Resturant", "location": {"address": "3856 10th Ave", "crossStreet": "206th Street", "lat": 40.86397082388327, "lng": -73.91935389423473, "labeledLatLngs": [{"label": "display", "lat": 40.86397082388327, "lng": -73.91935389423473}], "distance": 240, "postalCode": "10034", "cc": "US", "city": "New York", "state": "NY", "country": "United States", "formattedAddress": ["3856 10th Ave (206th Street)", "New York, NY 10034", "United States"]}, "categories": [{"id": "4bf58dd8d48988d144941735", "name": "Caribbean Restaurant", "pluralName": "Caribbean Restaurants", "shortName": "Caribbean", "icon": {"prefix": "https://ss3.4sqi.net/img/categories_v2/food/caribbean_", "suffix": ".png"}, "primary": true}], "delivery": {"id": "518919", "url": "https://www.seamless.com/menu/floridita-3856-10th-ave-new-york/518919?affiliate=1131&utm_source=foursquare-affiliate-network&utm_medium=affiliate&utm_campaign=1131&utm_content=518919", "provider": {"name": "seamless", "icon": {"prefix": "https://fastly.4sqi.net/img/general/cap/", "sizes": [40, 50], "name": "/delivery_provider_seamless_20180129.png"}}}, "photos": {"count": 0, "groups": []}}, "referralId": "e-0-4e7e1c49b6345aca1fd69166-13"}, {"reasons": {"count": 0, "items": [{"summary": "This spot is popular", "type": "general", "reasonName": "globalInteractionReason"}]}, "venue": {"id": "4c30277566e40f47eb3ac38b", "name": "Vin-Tich Lounge", "location": {"address": "3950 10th Ave", "crossStreet": "btwn 211th & 212th St.", "lat": 40.86727702056419, "lng": -73.91715022344617, "labeledLatLngs": [{"label": "display", "lat": 40.86727702056419, "lng": -73.91715022344617}], "distance": 187, "postalCode": "10034", "cc": "US", "city": "New York", "state": "NY", "country": "United States", "formattedAddress": ["3950 10th Ave (btwn 211th & 212th St.)", "New York, NY 10034", "United States"]}, "categories": [{"id": "4bf58dd8d48988d11f941735", "name": "Nightclub", "pluralName": "Nightclubs", "shortName": "Nightclub", "icon": {"prefix": "https://ss3.4sqi.net/img/categories_v2/nightlife/nightclub_", "suffix": ".png"}, "primary": true}], "photos": {"count": 0, "groups": []}}, "referralId": "e-0-4c30277566e40f47eb3ac38b-14"}, {"reasons": {"count": 0, "items": [{"summary": "This spot is popular", "type": "general", "reasonName": "globalInteractionReason"}]}, "venue": {"id": "4d407236eeef88bf30be0b47", "name": "MTA MaBSTOA Bus Bx12 / +SBS at 207th Street / 10th Avenue", "location": {"address": "10 Avenue A", "crossStreet": "207th Street", "lat": 40.864195248286656, "lng": -73.91817097048349, "labeledLatLngs": [{"label": "display", "lat": 40.864195248286656, "lng": -73.91817097048349}], "distance": 168, "postalCode": "10009", "cc": "US", "city": "New York", "state": "NY", "country": "United States", "formattedAddress": ["10 Avenue A (207th Street)", "New York, NY 10009", "United States"]}, "categories": [{"id": "4bf58dd8d48988d1fe931735", "name": "Bus Station", "pluralName": "Bus Stations", "shortName": "Bus Station", "icon": {"prefix": "https://ss3.4sqi.net/img/categories_v2/travel/busstation_", "suffix": ".png"}, "primary": true}], "photos": {"count": 0, "groups": []}}, "referralId": "e-0-4d407236eeef88bf30be0b47-15"}, {"reasons": {"count": 0, "items": [{"summary": "This spot is popular", "type": "general", "reasonName": "globalInteractionReason"}]}, "venue": {"id": "58103e8738fa8a34203b7c52", "name": "Super Associated Marketplace", "location": {"address": "410 W 207th St,", "lat": 40.86387498350789, "lng": -73.91806710440072, "labeledLatLngs": [{"label": "display", "lat": 40.86387498350789, "lng": -73.91806710440072}], "distance": 199, "postalCode": "10034", "cc": "US", "city": "New York", "state": "NY", "country": "United States", "formattedAddress": ["410 W 207th St,", "New York, NY 10034", "United States"]}, "categories": [{"id": "4bf58dd8d48988d118951735", "name": "Grocery Store", "pluralName": "Grocery Stores", "shortName": "Grocery Store", "icon": {"prefix": "https://ss3.4sqi.net/img/categories_v2/shops/food_grocery_", "suffix": ".png"}, "primary": true}], "photos": {"count": 0, "groups": []}, "venuePage": {"id": "361352951"}}, "referralId": "e-0-58103e8738fa8a34203b7c52-16"}, {"reasons": {"count": 0, "items": [{"summary": "This spot is popular", "type": "general", "reasonName": "globalInteractionReason"}]}, "venue": {"id": "4f4f0023e4b024479458c84d", "name": "El Lindon", "location": {"address": "505B W 211 ST", "lat": 40.867239, "lng": -73.917537, "labeledLatLngs": [{"label": "display", "lat": 40.867239, "lng": -73.917537}], "distance": 180, "postalCode": "10034", "cc": "US", "city": "New York", "state": "NY", "country": "United States", "formattedAddress": ["505B W 211 ST", "New York, NY 10034", "United States"]}, "categories": [{"id": "4bf58dd8d48988d150941735", "name": "Spanish Restaurant", "pluralName": "Spanish Restaurants", "shortName": "Spanish", "icon": {"prefix": "https://ss3.4sqi.net/img/categories_v2/food/spanish_", "suffix": ".png"}, "primary": true}], "photos": {"count": 0, "groups": []}}, "referralId": "e-0-4f4f0023e4b024479458c84d-17"}, {"reasons": {"count": 0, "items": [{"summary": "This spot is popular", "type": "general", "reasonName": "globalInteractionReason"}]}, "venue": {"id": "5205cf9511d2786f1382be25", "name": "El Primero Y El Mejor Chimi Truck", "location": {"lat": 40.863869346550594, "lng": -73.9169426644397, "labeledLatLngs": [{"label": "display", "lat": 40.863869346550594, "lng": -73.9169426644397}], "distance": 200, "cc": "US", "city": "New York", "state": "NY", "country": "United States", "formattedAddress": ["New York, NY", "United States"]}, "categories": [{"id": "4bf58dd8d48988d1cb941735", "name": "Food Truck", "pluralName": "Food Trucks", "shortName": "Food Truck", "icon": {"prefix": "https://ss3.4sqi.net/img/categories_v2/food/streetfood_", "suffix": ".png"}, "primary": true}], "photos": {"count": 0, "groups": []}}, "referralId": "e-0-5205cf9511d2786f1382be25-18"}, {"reasons": {"count": 0, "items": [{"summary": "This spot is popular", "type": "general", "reasonName": "globalInteractionReason"}]}, "venue": {"id": "5a3536685d891b1944cc303f", "name": "Hanuman Health Club", "location": {"lat": 40.864058956707, "lng": -73.91918540961892, "labeledLatLngs": [{"label": "display", "lat": 40.864058956707, "lng": -73.91918540961892}], "distance": 224, "postalCode": "10034", "cc": "US", "city": "New York", "state": "NY", "country": "United States", "formattedAddress": ["New York, NY 10034", "United States"]}, "categories": [{"id": "4bf58dd8d48988d175941735", "name": "Gym / Fitness Center", "pluralName": "Gyms or Fitness Centers", "shortName": "Gym / Fitness", "icon": {"prefix": "https://ss3.4sqi.net/img/categories_v2/building/gym_", "suffix": ".png"}, "primary": true}], "photos": {"count": 0, "groups": []}}, "referralId": "e-0-5a3536685d891b1944cc303f-19"}, {"reasons": {"count": 0, "items": [{"summary": "This spot is popular", "type": "general", "reasonName": "globalInteractionReason"}]}, "venue": {"id": "5296c23511d28a5d3c197554", "name": "Monkey Brothers Lab", "location": {"lat": 40.86766713902402, "lng": -73.91707470986586, "labeledLatLngs": [{"label": "display", "lat": 40.86766713902402, "lng": -73.91707470986586}], "distance": 230, "cc": "US", "city": "Ossining", "state": "NY", "country": "United States", "formattedAddress": ["Ossining, NY", "United States"]}, "categories": [{"id": "4bf58dd8d48988d1cb941735", "name": "Food Truck", "pluralName": "Food Trucks", "shortName": "Food Truck", "icon": {"prefix": "https://ss3.4sqi.net/img/categories_v2/food/streetfood_", "suffix": ".png"}, "primary": true}], "photos": {"count": 0, "groups": []}}, "referralId": "e-0-5296c23511d28a5d3c197554-20"}]}]}}