{"meta": {"code": 200, "requestId": "5d213d6f86bc49002cd762c6"}, "response": {"suggestedFilters": {"header": "Tap to show:", "filters": [{"name": "Open now", "key": "openNow"}]}, "headerLocation": "Mill Basin", "headerFullLocation": "Mill Basin, Brooklyn", "headerLocationGranularity": "neighborhood", "totalResults": 18, "suggestedBounds": {"ne": {"lat": 40.613045002250004, "lng": -73.91454168460038}, "sw": {"lat": 40.60854499775, "lng": -73.92045831539963}}, "groups": [{"type": "Recommended Places", "name": "recommended", "items": [{"reasons": {"count": 0, "items": [{"summary": "This spot is popular", "type": "general", "reasonName": "globalInteractionReason"}]}, "venue": {"id": "5395d3db498ea90b2e653dd4", "name": "Chipotle Mexican Grill", "location": {"address": "5102 Avenue U Ste 2223", "crossStreet": "Flatbush Ave", "lat": 40.610484, "lng": -73.918934, "labeledLatLngs": [{"label": "display", "lat": 40.610484, "lng": -73.918934}], "distance": 126, "postalCode": "11234", "cc": "US", "city": "Brooklyn", "state": "NY", "country": "United States", "formattedAddress": ["5102 Avenue U Ste 2223 (Flatbush Ave)", "Brooklyn, NY 11234", "United States"]}, "categories": [{"id": "4bf58dd8d48988d1c1941735", "name": "Mexican Restaurant", "pluralName": "Mexican Restaurants", "shortName": "Mexican", "icon": {"prefix": "https://ss3.4sqi.net/img/categories_v2/food/mexican_", "suffix": ".png"}, "primary": true}], "photos": {"count": 0, "groups": []}}, "referralId": "e-0-5395d3db498ea90b2e653dd4-0"}, {"reasons": {"count": 0, "items": [{"summary": "This spot is popular", "type": "general", "reasonName": "globalInteractionReason"}]}, "venue": {"id": "4ee3d902a69d89905b82e7e5", "name": "Starbucks", "location": {"address": "5296 Kings Plaza", "crossStreet": "at Macy's", "lat": 40.610795, "lng": -73.919635, "labeledLatLngs": [{"label": "display", "lat": 40.610795, "lng": -73.919635}], "distance": 180, "postalCode": "11234", "cc": "US", "neighborhood": "Mill Basin, Brooklyn, NY", "city": "Brooklyn", "state": "NY", "country": "United States", "formattedAddress": ["5296 Kings Plaza (at Macy's)", "Brooklyn, NY 11234", "United States"]}, "categories": [{"id": "4bf58dd8d48988d1e0931735", "name": "Coffee Shop", "pluralName": "Coffee Shops", "shortName": "Coffee Shop", "icon": {"prefix": "https://ss3.4sqi.net/img/categories_v2/food/coffeeshop_", "suffix": ".png"}, "primary": true}], "photos": {"count": 0, "groups": []}}, "referralId": "e-0-4ee3d902a69d89905b82e7e5-1"}, {"reasons": {"count": 0, "items": [{"summary": "This spot is popular", "type": "general", "reasonName": "globalInteractionReason"}]}, "venue": {"id": "4c72b4d713228cfa92c72b65", "name": "Express", "location": {"address": "5036 Kings Plaza", "lat": 40.609569, "lng": -73.919663, "labeledLatLngs": [{"label": "display", "lat": 40.609569, "lng": -73.919663}], "distance": 228, "postalCode": "11234", "cc": "US", "city": "Brooklyn", "state": "NY", "country": "United States", "formattedAddress": ["5036 Kings Plaza", "Brooklyn, NY 11234", "United States"]}, "categories": [{"id": "4bf58dd8d48988d103951735", "name": "Clothing Store", "pluralName": "Clothing Stores", "shortName": "Apparel", "icon": {"prefix": "https://ss3.4sqi.net/img/categories_v2/shops/apparel_", "suffix": ".png"}, "primary": true}], "photos": {"count": 0, "groups": []}}, "referralId": "e-0-4c72b4d713228cfa92c72b65-2"}, {"reasons": {"count": 0, "items": [{"summary": "This spot is popular", "type": "general", "reasonName": "globalInteractionReason"}]}, "venue": {"id": "4e4e3959bd4101d0d7a5407d", "name": "H\u00e4agen-Dazs", "location": {"address": "5121 Kings Plz", "lat": 40.61058224990611, "lng": -73.91922187073642, "labeledLatLngs": [{"label": "display", "lat": 40.61058224990611, "lng": -73.91922187073642}], "distance": 147, "postalCode": "11234", "cc": "US", "city": "Brooklyn", "state": "NY", "country": "United States", "formattedAddress": ["5121 Kings Plz", "Brooklyn, NY 11234", "United States"]}, "categories": [{"id": "4bf58dd8d48988d1c9941735", "name": "Ice Cream Shop", "pluralName": "Ice Cream Shops", "shortName": "Ice Cream", "icon": {"prefix": "https://ss3.4sqi.net/img/categories_v2/food/icecream_", "suffix": ".png"}, "primary": true}], "photos": {"count": 0, "groups": []}}, "referralId": "e-0-4e4e3959bd4101d0d7a5407d-3"}, {"reasons": {"count": 0, "items": [{"summary": "This spot is popular", "type": "general", "reasonName": "globalInteractionReason"}]}, "venue": {"id": "51658a3ce4b068ba33bbe67b", "name": "Pandora", "location": {"address": "5100 Avenue U # 131", "lat": 40.610975765851855, "lng": -73.9202954422809, "labeledLatLngs": [{"label": "display", "lat": 40.610975765851855, "lng": -73.9202954422809}], "distance": 237, "postalCode": "11234", "cc": "US", "city": "Brooklyn", "state": "NY", "country": "United States", "formattedAddress": ["5100 Avenue U # 131", "Brooklyn, NY 11234", "United States"]}, "categories": [{"id": "4bf58dd8d48988d111951735", "name": "Jewelry Store", "pluralName": "Jewelry Stores", "shortName": "Jewelry", "icon": {"prefix": "https://ss3.4sqi.net/img/categories_v2/shops/jewelry_", "suffix": ".png"}, "primary": true}], "photos": {"count": 0, "groups": []}}, "referralId": "e-0-51658a3ce4b068ba33bbe67b-4"}, {"reasons": {"count": 0, "items": [{"summary": "This spot is popular", "type": "general", "reasonName": "globalInteractionReason"}]}, "venue": {"id": "4e52b12fd22d41fba7a4fd75", "name": "The Children's Place", "location": {"address": "5344 Kings Plz", "crossStreet": "Ave U", "lat": 40.61075311585988, "lng": -73.91930224528193, "labeledLatLngs": [{"label": "display", "lat": 40.61075311585988, "lng": -73.91930224528193}], "distance": 152, "postalCode": "11234", "cc": "US", "city": "Brooklyn", "state": "NY", "country": "United States", "formattedAddress": ["5344 Kings Plz (Ave U)", "Brooklyn, NY 11234", "United States"]}, "categories": [{"id": "4bf58dd8d48988d105951735", "name": "Kids Store", "pluralName": "Kids Stores", "shortName": "Kids Store", "icon": {"prefix": "https://ss3.4sqi.net/img/categories_v2/shops/apparel_kids_", "suffix": ".png"}, "primary": true}], "photos": {"count": 0, "groups": []}}, "referralId": "e-0-4e52b12fd22d41fba7a4fd75-5"}, {"reasons": {"count": 0, "items": [{"summary": "This spot is popular", "type": "general", "reasonName": "globalInteractionReason"}]}, "venue": {"id": "4e67acf0bd41e96a148c2731", "name": "T-Mobile", "location": {"address": "5100 Kings Plz # 2231A", "lat": 40.610160413538964, "lng": -73.91933076830355, "labeledLatLngs": [{"label": "display", "lat": 40.610160413538964, "lng": -73.91933076830355}], "distance": 170, "postalCode": "11234", "cc": "US", "city": "Brooklyn", "state": "NY", "country": "United States", "formattedAddress": ["5100 Kings Plz # 2231A", "Brooklyn, NY 11234", "United States"]}, "categories": [{"id": "4f04afc02fb6e1c99f3db0bc", "name": "Mobile Phone Shop", "pluralName": "Mobile Phone Shops", "shortName": "Mobile Phones", "icon": {"prefix": "https://ss3.4sqi.net/img/categories_v2/shops/mobilephoneshop_", "suffix": ".png"}, "primary": true}], "photos": {"count": 0, "groups": []}}, "referralId": "e-0-4e67acf0bd41e96a148c2731-6"}, {"reasons": {"count": 0, "items": [{"summary": "This spot is popular", "type": "general", "reasonName": "globalInteractionReason"}]}, "venue": {"id": "56aea9ae498eb9680dd32b93", "name": "Vans", "location": {"lat": 40.6108831137582, "lng": -73.92001413266327, "labeledLatLngs": [{"label": "display", "lat": 40.6108831137582, "lng": -73.92001413266327}], "distance": 212, "cc": "US", "city": "Brooklyn", "state": "NY", "country": "United States", "formattedAddress": ["Brooklyn, NY", "United States"]}, "categories": [{"id": "4bf58dd8d48988d107951735", "name": "Shoe Store", "pluralName": "Shoe Stores", "shortName": "Shoes", "icon": {"prefix": "https://ss3.4sqi.net/img/categories_v2/shops/apparel_shoestore_", "suffix": ".png"}, "primary": true}], "photos": {"count": 0, "groups": []}}, "referralId": "e-0-56aea9ae498eb9680dd32b93-7"}, {"reasons": {"count": 0, "items": [{"summary": "This spot is popular", "type": "general", "reasonName": "globalInteractionReason"}]}, "venue": {"id": "5a19da2923472477596579ba", "name": "adidas Store", "location": {"address": "5100 Kings Plz Ste 104", "crossStreet": "Ave U", "lat": 40.610087, "lng": -73.920125, "labeledLatLngs": [{"label": "display", "lat": 40.610087, "lng": -73.920125}], "distance": 235, "postalCode": "11234", "cc": "US", "city": "Brooklyn", "state": "NY", "country": "United States", "formattedAddress": ["5100 Kings Plz Ste 104 (Ave U)", "Brooklyn, NY 11234", "United States"]}, "categories": [{"id": "4bf58dd8d48988d1f2941735", "name": "Sporting Goods Shop", "pluralName": "Sporting Goods Shops", "shortName": "Sporting Goods", "icon": {"prefix": "https://ss3.4sqi.net/img/categories_v2/shops/sports_outdoors_", "suffix": ".png"}, "primary": true}], "photos": {"count": 0, "groups": []}}, "referralId": "e-0-5a19da2923472477596579ba-8"}, {"reasons": {"count": 0, "items": [{"summary": "This spot is popular", "type": "general", "reasonName": "globalInteractionReason"}]}, "venue": {"id": "4c1cc3038b3aa5934d54995f", "name": "Lowe's Home Improvement", "location": {"address": "5602 Avenue U", "lat": 40.6111942, "lng": -73.9185574, "labeledLatLngs": [{"label": "display", "lat": 40.6111942, "lng": -73.9185574}], "distance": 99, "postalCode": "11234", "cc": "US", "city": "Brooklyn", "state": "NY", "country": "United States", "formattedAddress": ["5602 Avenue U", "Brooklyn, NY 11234", "United States"]}, "categories": [{"id": "4bf58dd8d48988d112951735", "name": "Hardware Store", "pluralName": "Hardware Stores", "shortName": "Hardware", "icon": {"prefix": "https://ss3.4sqi.net/img/categories_v2/shops/hardware_", "suffix": ".png"}, "primary": true}], "photos": {"count": 0, "groups": []}}, "referralId": "e-0-4c1cc3038b3aa5934d54995f-9"}, {"reasons": {"count": 0, "items": [{"summary": "This spot is popular", "type": "general", "reasonName": "globalInteractionReason"}]}, "venue": {"id": "4ee36c80a69d89905b094c80", "name": "Finish Line", "location": {"address": "5368 Kings Plz # 161-162", "lat": 40.610263, "lng": -73.9199971, "labeledLatLngs": [{"label": "display", "lat": 40.610263, "lng": -73.9199971}], "distance": 219, "postalCode": "11234", "cc": "US", "city": "Brooklyn", "state": "NY", "country": "United States", "formattedAddress": ["5368 Kings Plz # 161-162", "Brooklyn, NY 11234", "United States"]}, "categories": [{"id": "4bf58dd8d48988d107951735", "name": "Shoe Store", "pluralName": "Shoe Stores", "shortName": "Shoes", "icon": {"prefix": "https://ss3.4sqi.net/img/categories_v2/shops/apparel_shoestore_", "suffix": ".png"}, "primary": true}], "photos": {"count": 0, "groups": []}}, "referralId": "e-0-4ee36c80a69d89905b094c80-10"}, {"reasons": {"count": 0, "items": [{"summary": "This spot is popular", "type": "general", "reasonName": "globalInteractionReason"}]}, "venue": {"id": "4bd20fbe77b29c7402e58d82", "name": "Lids", "location": {"address": "5385 Kings Plz", "lat": 40.610865354537964, "lng": -73.91902506351471, "labeledLatLngs": [{"label": "display", "lat": 40.610865354537964, "lng": -73.91902506351471}], "distance": 129, "postalCode": "11234", "cc": "US", "city": "Brooklyn", "state": "NY", "country": "United States", "formattedAddress": ["5385 Kings Plz", "Brooklyn, NY 11234", "United States"]}, "categories": [{"id": "4bf58dd8d48988d102951735", "name": "Accessories Store", "pluralName": "Accessories Stores", "shortName": "Accessories", "icon": {"prefix": "https://ss3.4sqi.net/img/categories_v2/shops/apparel_accessories_", "suffix": ".png"}, "primary": true}], "photos": {"count": 0, "groups": []}}, "referralId": "e-0-4bd20fbe77b29c7402e58d82-11"}, {"reasons": {"count": 0, "items": [{"summary": "This spot is popular", "type": "general", "reasonName": "globalInteractionReason"}]}, "venue": {"id": "5230b2e67e482ae6bbadf0c6", "name": "Champs Sports", "location": {"address": "5325 Kings Plz", "lat": 40.6097128, "lng": -73.9193976, "labeledLatLngs": [{"label": "display", "lat": 40.6097128, "lng": -73.9193976}], "distance": 200, "postalCode": "11234", "cc": "US", "city": "Brooklyn", "state": "NY", "country": "United States", "formattedAddress": ["5325 Kings Plz", "Brooklyn, NY 11234", "United States"]}, "categories": [{"id": "4bf58dd8d48988d107951735", "name": "Shoe Store", "pluralName": "Shoe Stores", "shortName": "Shoes", "icon": {"prefix": "https://ss3.4sqi.net/img/categories_v2/shops/apparel_shoestore_", "suffix": ".png"}, "primary": true}], "photos": {"count": 0, "groups": []}}, "referralId": "e-0-5230b2e67e482ae6bbadf0c6-12"}, {"reasons": {"count": 0, "items": [{"summary": "This spot is popular", "type": "general", "reasonName": "globalInteractionReason"}]}, "venue": {"id": "5782cf08498e09910300ad9b", "name": "Famous Footwear", "location": {"lat": 40.61076, "lng": -73.919072, "labeledLatLngs": [{"label": "display", "lat": 40.61076, "lng": -73.919072}], "distance": 132, "postalCode": "11234", "cc": "US", "city": "New York", "state": "NY", "country": "United States", "formattedAddress": ["New York, NY 11234", "United States"]}, "categories": [{"id": "4bf58dd8d48988d107951735", "name": "Shoe Store", "pluralName": "Shoe Stores", "shortName": "Shoes", "icon": {"prefix": "https://ss3.4sqi.net/img/categories_v2/shops/apparel_shoestore_", "suffix": ".png"}, "primary": true}], "photos": {"count": 0, "groups": []}}, "referralId": "e-0-5782cf08498e09910300ad9b-13"}, {"reasons": {"count": 0, "items": [{"summary": "This spot is popular", "type": "general", "reasonName": "globalInteractionReason"}]}, "venue": {"id": "4d9a0b786df841bd30a47c2b", "name": "New York & Company", "location": {"address": "5335 Kings Plz", "lat": 40.610466488776176, "lng": -73.91914293138494, "labeledLatLngs": [{"label": "display", "lat": 40.610466488776176, "lng": -73.91914293138494}], "distance": 143, "postalCode": "11234", "cc": "US", "city": "Brooklyn", "state": "NY", "country": "United States", "formattedAddress": ["5335 Kings Plz", "Brooklyn, NY 11234", "United States"]}, "categories": [{"id": "4bf58dd8d48988d108951735", "name": "Women's Store", "pluralName": "Women's Stores", "shortName": "Women's Store", "icon": {"prefix": "https://ss3.4sqi.net/img/categories_v2/shops/apparel_women_", "suffix": ".png"}, "primary": true}], "photos": {"count": 0, "groups": []}}, "referralId": "e-0-4d9a0b786df841bd30a47c2b-14"}, {"reasons": {"count": 0, "items": [{"summary": "This spot is popular", "type": "general", "reasonName": "globalInteractionReason"}]}, "venue": {"id": "51181fbce4b0bae1b23eca67", "name": "Claire's", "location": {"address": "Kings Plaza Mall", "lat": 40.60995347751452, "lng": -73.92017488106605, "labeledLatLngs": [{"label": "display", "lat": 40.60995347751452, "lng": -73.92017488106605}], "distance": 244, "postalCode": "11234", "cc": "US", "city": "Brooklyn", "state": "NY", "country": "United States", "formattedAddress": ["Kings Plaza Mall", "Brooklyn, NY 11234", "United States"]}, "categories": [{"id": "4bf58dd8d48988d111951735", "name": "Jewelry Store", "pluralName": "Jewelry Stores", "shortName": "Jewelry", "icon": {"prefix": "https://ss3.4sqi.net/img/categories_v2/shops/jewelry_", "suffix": ".png"}, "primary": true}], "photos": {"count": 0, "groups": []}}, "referralId": "e-0-51181fbce4b0bae1b23eca67-15"}, {"reasons": {"count": 0, "items": [{"summary": "This spot is popular", "type": "general", "reasonName": "globalInteractionReason"}]}, "venue": {"id": "4dd44b9e22716ea3ce5abd5f", "name": "MAC Cosmetics", "location": {"address": "5100 Kings Plz Spc 226", "crossStreet": "@ 5100 Kings Plaza", "lat": 40.61012261296, "lng": -73.92014283202809, "labeledLatLngs": [{"label": "display", "lat": 40.61012261296, "lng": -73.92014283202809}], "distance": 235, "postalCode": "11234", "cc": "US", "city": "Brooklyn", "state": "NY", "country": "United States", "formattedAddress": ["5100 Kings Plz Spc 226 (@ 5100 Kings Plaza)", "Brooklyn, NY 11234", "United States"]}, "categories": [{"id": "4bf58dd8d48988d10c951735", "name": "Cosmetics Shop", "pluralName": "Cosmetics Shops", "shortName": "Cosmetics", "icon": {"prefix": "https://ss3.4sqi.net/img/categories_v2/shops/beauty_cosmetic_", "suffix": ".png"}, "primary": true}], "photos": {"count": 0, "groups": []}}, "referralId": "e-0-4dd44b9e22716ea3ce5abd5f-16"}, {"reasons": {"count": 0, "items": [{"summary": "This spot is popular", "type": "general", "reasonName": "globalInteractionReason"}]}, "venue": {"id": "4c405c70da3dc928ea2bc7b9", "name": "AT&T", "location": {"address": "5383 Kings Plz", "lat": 40.61061366, "lng": -73.92044471, "labeledLatLngs": [{"label": "display", "lat": 40.61061366, "lng": -73.92044471}], "distance": 249, "postalCode": "11234", "cc": "US", "city": "Brooklyn", "state": "NY", "country": "United States", "formattedAddress": ["5383 Kings Plz", "Brooklyn, NY 11234", "United States"]}, "categories": [{"id": "4f04afc02fb6e1c99f3db0bc", "name": "Mobile Phone Shop", "pluralName": "Mobile Phone Shops", "shortName": "Mobile Phones", "icon": {"prefix": "https://ss3.4sqi.net/img/categories_v2/shops/mobilephoneshop_", "suffix": ".png"}, "primary": true}], "photos": {"count": 0, "groups": []}}, "referralId": "e-0-4c405c70da3dc928ea2bc7b9-17"}]}]}}