{"meta": {"code": 200, "requestId": "5d213e0cbcbf7a00399dc81d"}, "response": {"headerLocation": "Bushwick", "headerFullLocation": "Bushwick, Brooklyn", "headerLocationGranularity": "neighborhood", "totalResults": 4, "suggestedBounds": {"ne": {"lat": 40.69401300225, "lng": -73.91453809274556}, "sw": {"lat": 40.68951299775, "lng": -73.92046190725445}}, "groups": [{"type": "Recommended Places", "name": "recommended", "items": [{"reasons": {"count": 0, "items": [{"summary": "This spot is popular", "type": "general", "reasonName": "globalInteractionReason"}]}, "venue": {"id": "59691375a9e40229599daba6", "name": "Petra", "location": {"address": "523 Evergreen Ave", "crossStreet": "Cornelia St.", "lat": 40.69038090177949, "lng": -73.91549242831925, "labeledLatLngs": [{"label": "display", "lat": 40.69038090177949, "lng": -73.91549242831925}], "distance": 228, "postalCode": "11221", "cc": "US", "city": "Brooklyn", "state": "NY", "country": "United States", "formattedAddress": ["523 Evergreen Ave (Cornelia St.)", "Brooklyn, NY 11221", "United States"]}, "categories": [{"id": "4bf58dd8d48988d1c0941735", "name": "Mediterranean Restaurant", "pluralName": "Mediterranean Restaurants", "shortName": "Mediterranean", "icon": {"prefix": "https://ss3.4sqi.net/img/categories_v2/food/mediterranean_", "suffix": ".png"}, "primary": true}], "photos": {"count": 0, "groups": []}}, "referralId": "e-0-59691375a9e40229599daba6-0"}, {"reasons": {"count": 0, "items": [{"summary": "This spot is popular", "type": "general", "reasonName": "globalInteractionReason"}]}, "venue": {"id": "59f4d1248c812a57e577a062", "name": "The Caffeine Underground", "location": {"address": "447 Central Ave", "crossStreet": "at Putnam Ave", "lat": 40.69217699029326, "lng": -73.9146619108384, "labeledLatLngs": [{"label": "display", "lat": 40.69217699029326, "lng": -73.9146619108384}], "distance": 243, "postalCode": "11221", "cc": "US", "city": "Brooklyn", "state": "NY", "country": "United States", "formattedAddress": ["447 Central Ave (at Putnam Ave)", "Brooklyn, NY 11221", "United States"]}, "categories": [{"id": "4bf58dd8d48988d1e0931735", "name": "Coffee Shop", "pluralName": "Coffee Shops", "shortName": "Coffee Shop", "icon": {"prefix": "https://ss3.4sqi.net/img/categories_v2/food/coffeeshop_", "suffix": ".png"}, "primary": true}], "photos": {"count": 0, "groups": []}}, "referralId": "e-0-59f4d1248c812a57e577a062-1"}, {"reasons": {"count": 0, "items": [{"summary": "This spot is popular", "type": "general", "reasonName": "globalInteractionReason"}]}, "venue": {"id": "4edfe59393ad1adedb5c6c7c", "name": "New Pabsco Bar", "location": {"address": "523 Evergreen Ave.", "crossStreet": "Cornelia", "lat": 40.69046904942376, "lng": -73.91534088887163, "labeledLatLngs": [{"label": "display", "lat": 40.69046904942376, "lng": -73.91534088887163}], "distance": 232, "postalCode": "11221", "cc": "US", "state": "New York", "country": "United States", "formattedAddress": ["523 Evergreen Ave. (Cornelia)", "NY 11221", "United States"]}, "categories": [{"id": "4bf58dd8d48988d118941735", "name": "Dive Bar", "pluralName": "Dive Bars", "shortName": "Dive Bar", "icon": {"prefix": "https://ss3.4sqi.net/img/categories_v2/nightlife/divebar_", "suffix": ".png"}, "primary": true}], "photos": {"count": 0, "groups": []}}, "referralId": "e-0-4edfe59393ad1adedb5c6c7c-2"}, {"reasons": {"count": 0, "items": [{"summary": "This spot is popular", "type": "general", "reasonName": "globalInteractionReason"}]}, "venue": {"id": "4ba147fcf964a520c8a837e3", "name": "Williams Grocery", "location": {"lat": 40.692256, "lng": -73.919194, "labeledLatLngs": [{"label": "display", "lat": 40.692256, "lng": -73.919194}], "distance": 153, "postalCode": "11221", "cc": "US", "city": "Brooklyn", "state": "NY", "country": "United States", "formattedAddress": ["Brooklyn, NY 11221", "United States"]}, "categories": [{"id": "4bf58dd8d48988d146941735", "name": "Deli / Bodega", "pluralName": "Delis / Bodegas", "shortName": "Deli / Bodega", "icon": {"prefix": "https://ss3.4sqi.net/img/categories_v2/food/deli_", "suffix": ".png"}, "primary": true}], "photos": {"count": 0, "groups": []}}, "referralId": "e-0-4ba147fcf964a520c8a837e3-3"}]}]}}