{"meta": {"code": 200, "requestId": "5d213d80342adf00382269e3"}, "response": {"suggestedFilters": {"header": "Tap to show:", "filters": [{"name": "Open now", "key": "openNow"}]}, "headerLocation": "Inwood", "headerFullLocation": "Inwood, New York", "headerLocationGranularity": "neighborhood", "totalResults": 4, "suggestedBounds": {"ne": {"lat": 40.86288643225, "lng": -73.91453055402162}, "sw": {"lat": 40.85838642775, "lng": -73.92046944597838}}, "groups": [{"type": "Recommended Places", "name": "recommended", "items": [{"reasons": {"count": 0, "items": [{"summary": "This spot is popular", "type": "general", "reasonName": "globalInteractionReason"}]}, "venue": {"id": "53dae39c498eb5711af31829", "name": "Cocina Taller", "location": {"address": "416-B W 203rd St,", "lat": 40.86137813138544, "lng": -73.91982682814242, "labeledLatLngs": [{"label": "display", "lat": 40.86137813138544, "lng": -73.91982682814242}], "distance": 212, "postalCode": "10034", "cc": "US", "neighborhood": "Inwood, New York, NY", "city": "New York", "state": "NY", "country": "United States", "formattedAddress": ["416-B W 203rd St,", "New York, NY 10034", "United States"]}, "categories": [{"id": "4bf58dd8d48988d1c0941735", "name": "Mediterranean Restaurant", "pluralName": "Mediterranean Restaurants", "shortName": "Mediterranean", "icon": {"prefix": "https://ss3.4sqi.net/img/categories_v2/food/mediterranean_", "suffix": ".png"}, "primary": true}], "photos": {"count": 0, "groups": []}}, "referralId": "e-0-53dae39c498eb5711af31829-0"}, {"reasons": {"count": 0, "items": [{"summary": "This spot is popular", "type": "general", "reasonName": "globalInteractionReason"}]}, "venue": {"id": "4d3b1917687ca35d476a90c4", "name": "Compare Foods Supermarket", "location": {"address": "3815 9th Ave", "crossStreet": "W. 204th St & W. 205th St.", "lat": 40.861968, "lng": -73.917963, "labeledLatLngs": [{"label": "display", "lat": 40.861968, "lng": -73.917963}], "distance": 153, "postalCode": "10034", "cc": "US", "city": "New York", "state": "NY", "country": "United States", "formattedAddress": ["3815 9th Ave (W. 204th St & W. 205th St.)", "New York, NY 10034", "United States"]}, "categories": [{"id": "4bf58dd8d48988d118951735", "name": "Grocery Store", "pluralName": "Grocery Stores", "shortName": "Grocery Store", "icon": {"prefix": "https://ss3.4sqi.net/img/categories_v2/shops/food_grocery_", "suffix": ".png"}, "primary": true}], "photos": {"count": 0, "groups": []}, "venuePage": {"id": "350678709"}}, "referralId": "e-0-4d3b1917687ca35d476a90c4-1"}, {"reasons": {"count": 0, "items": [{"summary": "This spot is popular", "type": "general", "reasonName": "globalInteractionReason"}]}, "venue": {"id": "52044ce6498e613a1930e231", "name": "Vacca Grill & Lounge", "location": {"address": "416 W 203rd St", "crossStreet": "btwn 9th & 10th Ave", "lat": 40.86135923097131, "lng": -73.92001237239303, "labeledLatLngs": [{"label": "display", "lat": 40.86135923097131, "lng": -73.92001237239303}], "distance": 226, "postalCode": "10034", "cc": "US", "city": "New York", "state": "NY", "country": "United States", "formattedAddress": ["416 W 203rd St (btwn 9th & 10th Ave)", "New York, NY 10034", "United States"]}, "categories": [{"id": "4bf58dd8d48988d1be941735", "name": "Latin American Restaurant", "pluralName": "Latin American Restaurants", "shortName": "Latin American", "icon": {"prefix": "https://ss3.4sqi.net/img/categories_v2/food/latinamerican_", "suffix": ".png"}, "primary": true}], "photos": {"count": 0, "groups": []}, "venuePage": {"id": "106526321"}}, "referralId": "e-0-52044ce6498e613a1930e231-2"}, {"reasons": {"count": 0, "items": [{"summary": "This spot is popular", "type": "general", "reasonName": "globalInteractionReason"}]}, "venue": {"id": "5194e9bb50193eab827ac172", "name": "Opus Lounge", "location": {"address": "417 W 202nd St", "crossStreet": "btwn 9th & 10th Ave", "lat": 40.86103026525583, "lng": -73.92007322265032, "labeledLatLngs": [{"label": "display", "lat": 40.86103026525583, "lng": -73.92007322265032}], "distance": 221, "postalCode": "10034", "cc": "US", "city": "New York", "state": "NY", "country": "United States", "formattedAddress": ["417 W 202nd St (btwn 9th & 10th Ave)", "New York, NY 10034", "United States"]}, "categories": [{"id": "4bf58dd8d48988d121941735", "name": "Lounge", "pluralName": "Lounges", "shortName": "Lounge", "icon": {"prefix": "https://ss3.4sqi.net/img/categories_v2/nightlife/default_", "suffix": ".png"}, "primary": true}], "photos": {"count": 0, "groups": []}}, "referralId": "e-0-5194e9bb50193eab827ac172-3"}]}]}}