{"meta": {"code": 200, "requestId": "5d213e0d9ba3e5002cfaa095"}, "response": {"headerLocation": "Bushwick", "headerFullLocation": "Bushwick, Brooklyn", "headerLocationGranularity": "neighborhood", "totalResults": 4, "suggestedBounds": {"ne": {"lat": 40.69696356509846, "lng": -73.91453796157795}, "sw": {"lat": 40.692463560598455, "lng": -73.92046203842206}}, "groups": [{"type": "Recommended Places", "name": "recommended", "items": [{"reasons": {"count": 0, "items": [{"summary": "This spot is popular", "type": "general", "reasonName": "globalInteractionReason"}]}, "venue": {"id": "4e5915c22271886714ee1825", "name": "CTown Supermarkets", "location": {"address": "346 Central Ave", "lat": 40.6950232540211, "lng": -73.91979987777394, "labeledLatLngs": [{"label": "display", "lat": 40.6950232540211, "lng": -73.91979987777394}], "distance": 197, "postalCode": "11221", "cc": "US", "city": "Brooklyn", "state": "NY", "country": "United States", "formattedAddress": ["346 Central Ave", "Brooklyn, NY 11221", "United States"]}, "categories": [{"id": "52f2ab2ebcbc57f1066b8b46", "name": "Supermarket", "pluralName": "Supermarkets", "shortName": "Supermarket", "icon": {"prefix": "https://ss3.4sqi.net/img/categories_v2/shops/food_grocery_", "suffix": ".png"}, "primary": true}], "photos": {"count": 0, "groups": []}}, "referralId": "e-0-4e5915c22271886714ee1825-0"}, {"reasons": {"count": 0, "items": [{"summary": "This spot is popular", "type": "general", "reasonName": "globalInteractionReason"}]}, "venue": {"id": "4ee0e80e5c5ccf2192712e67", "name": "99 Cent & Up", "location": {"lat": 40.69486194540417, "lng": -73.91973856366357, "labeledLatLngs": [{"label": "display", "lat": 40.69486194540417, "lng": -73.91973856366357}], "distance": 189, "postalCode": "11221", "cc": "US", "state": "New York", "country": "United States", "formattedAddress": ["NY 11221", "United States"]}, "categories": [{"id": "4d954b0ea243a5684a65b473", "name": "Convenience Store", "pluralName": "Convenience Stores", "shortName": "Convenience Store", "icon": {"prefix": "https://ss3.4sqi.net/img/categories_v2/shops/conveniencestore_", "suffix": ".png"}, "primary": true}], "photos": {"count": 0, "groups": []}}, "referralId": "e-0-4ee0e80e5c5ccf2192712e67-1"}, {"reasons": {"count": 0, "items": [{"summary": "This spot is popular", "type": "general", "reasonName": "globalInteractionReason"}]}, "venue": {"id": "4e011f8662843b639cfaa8a2", "name": "Linden & Wilson Deli", "location": {"address": "338 Wilson Ave", "crossStreet": "Linden Street", "lat": 40.6962778, "lng": -73.91745093333334, "labeledLatLngs": [{"label": "display", "lat": 40.6962778, "lng": -73.91745093333334}], "distance": 174, "postalCode": "11221", "cc": "US", "city": "Brooklyn", "state": "NY", "country": "United States", "formattedAddress": ["338 Wilson Ave (Linden Street)", "Brooklyn, NY 11221", "United States"]}, "categories": [{"id": "4bf58dd8d48988d146941735", "name": "Deli / Bodega", "pluralName": "Delis / Bodegas", "shortName": "Deli / Bodega", "icon": {"prefix": "https://ss3.4sqi.net/img/categories_v2/food/deli_", "suffix": ".png"}, "primary": true}], "photos": {"count": 0, "groups": []}}, "referralId": "e-0-4e011f8662843b639cfaa8a2-2"}, {"reasons": {"count": 0, "items": [{"summary": "This spot is popular", "type": "general", "reasonName": "globalInteractionReason"}]}, "venue": {"id": "4f3239d619836c91c7c2937a", "name": "Santana Deli and Grocery", "location": {"address": "338 Central Ave", "lat": 40.695041, "lng": -73.9201, "labeledLatLngs": [{"label": "display", "lat": 40.695041, "lng": -73.9201}], "distance": 222, "postalCode": "11221", "cc": "US", "city": "Brooklyn", "state": "NY", "country": "United States", "formattedAddress": ["338 Central Ave", "Brooklyn, NY 11221", "United States"]}, "categories": [{"id": "4bf58dd8d48988d146941735", "name": "Deli / Bodega", "pluralName": "Delis / Bodegas", "shortName": "Deli / Bodega", "icon": {"prefix": "https://ss3.4sqi.net/img/categories_v2/food/deli_", "suffix": ".png"}, "primary": true}], "photos": {"count": 0, "groups": []}}, "referralId": "e-0-4f3239d619836c91c7c2937a-3"}]}]}}