{"meta": {"code": 200, "requestId": "5d213d7d787dba0038d9976f"}, "response": {"headerLocation": "University Heights", "headerFullLocation": "University Heights, Bronx", "headerLocationGranularity": "neighborhood", "totalResults": 4, "suggestedBounds": {"ne": {"lat": 40.85837717092315, "lng": -73.91453075615485}, "sw": {"lat": 40.853877166423146, "lng": -73.92046924384516}}, "groups": [{"type": "Recommended Places", "name": "recommended", "items": [{"reasons": {"count": 0, "items": [{"summary": "This spot is popular", "type": "general", "reasonName": "globalInteractionReason"}]}, "venue": {"id": "4e19b21062e12640d8812c16", "name": "Roberto Clemente State Park", "location": {"address": "1 W Tremont Ave", "lat": 40.85519200394643, "lng": -73.920156955719, "labeledLatLngs": [{"label": "display", "lat": 40.85519200394643, "lng": -73.920156955719}], "distance": 246, "postalCode": "10453", "cc": "US", "city": "Bronx", "state": "NY", "country": "United States", "formattedAddress": ["1 W Tremont Ave", "Bronx, NY 10453", "United States"]}, "categories": [{"id": "5bae9231bedf3950379f89d0", "name": "State / Provincial Park", "pluralName": "State / Provincial Parks", "shortName": "State / Provincial Park", "icon": {"prefix": "https://ss3.4sqi.net/img/categories_v2/parks_outdoors/default_", "suffix": ".png"}, "primary": true}], "photos": {"count": 0, "groups": []}}, "referralId": "e-0-4e19b21062e12640d8812c16-0"}, {"reasons": {"count": 0, "items": [{"summary": "This spot is popular", "type": "general", "reasonName": "globalInteractionReason"}]}, "venue": {"id": "4c0a6b7ba1b32d7f793b99f0", "name": "Roberto Clemente State Park Baseball Field", "location": {"lat": 40.85534749614971, "lng": -73.91851572151549, "labeledLatLngs": [{"label": "display", "lat": 40.85534749614971, "lng": -73.91851572151549}], "distance": 121, "postalCode": "10453", "cc": "US", "city": "Bronx", "state": "NY", "country": "United States", "formattedAddress": ["Bronx, NY 10453", "United States"]}, "categories": [{"id": "4bf58dd8d48988d1e8941735", "name": "Baseball Field", "pluralName": "Baseball Fields", "shortName": "Baseball Field", "icon": {"prefix": "https://ss3.4sqi.net/img/categories_v2/parks_outdoors/baseballfield_", "suffix": ".png"}, "primary": true}], "photos": {"count": 0, "groups": []}}, "referralId": "e-0-4c0a6b7ba1b32d7f793b99f0-1"}, {"reasons": {"count": 0, "items": [{"summary": "This spot is popular", "type": "general", "reasonName": "globalInteractionReason"}]}, "venue": {"id": "4db3510ff7b121c29f34b32e", "name": "Beanstalk playground", "location": {"address": "Billingsley Terrace", "lat": 40.85504798915161, "lng": -73.91728138948336, "labeledLatLngs": [{"label": "display", "lat": 40.85504798915161, "lng": -73.91728138948336}], "distance": 121, "postalCode": "10453", "cc": "US", "city": "Bronx", "state": "NY", "country": "United States", "formattedAddress": ["Billingsley Terrace", "Bronx, NY 10453", "United States"]}, "categories": [{"id": "4bf58dd8d48988d1e7941735", "name": "Playground", "pluralName": "Playgrounds", "shortName": "Playground", "icon": {"prefix": "https://ss3.4sqi.net/img/categories_v2/parks_outdoors/playground_", "suffix": ".png"}, "primary": true}], "photos": {"count": 0, "groups": []}}, "referralId": "e-0-4db3510ff7b121c29f34b32e-2"}, {"reasons": {"count": 0, "items": [{"summary": "This spot is popular", "type": "general", "reasonName": "globalInteractionReason"}]}, "venue": {"id": "4eca99fc29c22cc60ffd28c9", "name": "River Park Pizza", "location": {"address": "1808 Cedar Ave", "lat": 40.85474223229867, "lng": -73.91794161456804, "labeledLatLngs": [{"label": "display", "lat": 40.85474223229867, "lng": -73.91794161456804}], "distance": 158, "postalCode": "10453", "cc": "US", "city": "Bronx", "state": "NY", "country": "United States", "formattedAddress": ["1808 Cedar Ave", "Bronx, NY 10453", "United States"]}, "categories": [{"id": "4bf58dd8d48988d1ca941735", "name": "Pizza Place", "pluralName": "Pizza Places", "shortName": "Pizza", "icon": {"prefix": "https://ss3.4sqi.net/img/categories_v2/food/pizza_", "suffix": ".png"}, "primary": true}], "photos": {"count": 0, "groups": []}}, "referralId": "e-0-4eca99fc29c22cc60ffd28c9-3"}]}]}}