{"meta": {"code": 200, "requestId": "5d213d71deb495797456fe78"}, "response": {"suggestedFilters": {"header": "Tap to show:", "filters": [{"name": "Open now", "key": "openNow"}]}, "headerLocation": "Bergen Beach", "headerFullLocation": "Bergen Beach, Brooklyn", "headerLocationGranularity": "neighborhood", "totalResults": 25, "suggestedBounds": {"ne": {"lat": 40.628124002250004, "lng": -73.91454101678256}, "sw": {"lat": 40.62362399775, "lng": -73.92045898321744}}, "groups": [{"type": "Recommended Places", "name": "recommended", "items": [{"reasons": {"count": 0, "items": [{"summary": "This spot is popular", "type": "general", "reasonName": "globalInteractionReason"}]}, "venue": {"id": "587cf5f08d8e996e96281fa8", "name": "Fairway Market Georgetown", "location": {"address": "2149 Ralph Avenue", "lat": 40.62615001105922, "lng": -73.9158483070298, "labeledLatLngs": [{"label": "display", "lat": 40.62615001105922, "lng": -73.9158483070298}], "distance": 142, "postalCode": "11234", "cc": "US", "city": "Brooklyn", "state": "NY", "country": "United States", "formattedAddress": ["2149 Ralph Avenue", "Brooklyn, NY 11234", "United States"]}, "categories": [{"id": "52f2ab2ebcbc57f1066b8b46", "name": "Supermarket", "pluralName": "Supermarkets", "shortName": "Supermarket", "icon": {"prefix": "https://ss3.4sqi.net/img/categories_v2/shops/food_grocery_", "suffix": ".png"}, "primary": true}], "photos": {"count": 0, "groups": []}}, "referralId": "e-0-587cf5f08d8e996e96281fa8-0"}, {"reasons": {"count": 0, "items": [{"summary": "This spot is popular", "type": "general", "reasonName": "globalInteractionReason"}]}, "venue": {"id": "57e7f4f6498ed5e39ea07262", "name": "Five Below", "location": {"address": "2183 Ralph Ave", "lat": 40.626177, "lng": -73.917479, "labeledLatLngs": [{"label": "display", "lat": 40.626177, "lng": -73.917479}], "distance": 33, "postalCode": "11234", "cc": "US", "city": "Brooklyn", "state": "NY", "country": "United States", "formattedAddress": ["2183 Ralph Ave", "Brooklyn, NY 11234", "United States"]}, "categories": [{"id": "52dea92d3cf9994f4e043dbb", "name": "Discount Store", "pluralName": "Discount Stores", "shortName": "Discount Store", "icon": {"prefix": "https://ss3.4sqi.net/img/categories_v2/shops/discountstore_", "suffix": ".png"}, "primary": true}], "photos": {"count": 0, "groups": []}}, "referralId": "e-0-57e7f4f6498ed5e39ea07262-1"}, {"reasons": {"count": 0, "items": [{"summary": "This spot is popular", "type": "general", "reasonName": "globalInteractionReason"}]}, "venue": {"id": "5c26849c64c8e1003979056d", "name": "Chipotle Mexican Grill", "location": {"address": "2179 Ralph Ave", "lat": 40.62640516930416, "lng": -73.91697560324246, "labeledLatLngs": [{"label": "display", "lat": 40.62640516930416, "lng": -73.91697560324246}], "distance": 73, "postalCode": "11234", "cc": "US", "city": "Brooklyn", "state": "NY", "country": "United States", "formattedAddress": ["2179 Ralph Ave", "Brooklyn, NY 11234", "United States"]}, "categories": [{"id": "4bf58dd8d48988d1c1941735", "name": "Mexican Restaurant", "pluralName": "Mexican Restaurants", "shortName": "Mexican", "icon": {"prefix": "https://ss3.4sqi.net/img/categories_v2/food/mexican_", "suffix": ".png"}, "primary": true}], "photos": {"count": 0, "groups": []}}, "referralId": "e-0-5c26849c64c8e1003979056d-2"}, {"reasons": {"count": 0, "items": [{"summary": "This spot is popular", "type": "general", "reasonName": "globalInteractionReason"}]}, "venue": {"id": "59e7a81264c8e16a71f8febd", "name": "Five Guys", "location": {"address": "2159 Ralph Ave", "lat": 40.62638781240482, "lng": -73.91645508720195, "labeledLatLngs": [{"label": "display", "lat": 40.62638781240482, "lng": -73.91645508720195}], "distance": 105, "postalCode": "12234", "cc": "US", "city": "Brooklyn", "state": "NY", "country": "United States", "formattedAddress": ["2159 Ralph Ave", "Brooklyn, NY 12234", "United States"]}, "categories": [{"id": "4bf58dd8d48988d16c941735", "name": "Burger Joint", "pluralName": "Burger Joints", "shortName": "Burgers", "icon": {"prefix": "https://ss3.4sqi.net/img/categories_v2/food/burger_", "suffix": ".png"}, "primary": true}], "photos": {"count": 0, "groups": []}}, "referralId": "e-0-59e7a81264c8e16a71f8febd-3"}, {"reasons": {"count": 0, "items": [{"summary": "This spot is popular", "type": "general", "reasonName": "globalInteractionReason"}]}, "venue": {"id": "4f8b3b12e4b04a076046c60c", "name": "Torrid", "location": {"address": "2145 Ralph Ave", "lat": 40.62573, "lng": -73.916073, "labeledLatLngs": [{"label": "display", "lat": 40.62573, "lng": -73.916073}], "distance": 121, "postalCode": "11234", "cc": "US", "city": "Brooklyn", "state": "NY", "country": "United States", "formattedAddress": ["2145 Ralph Ave", "Brooklyn, NY 11234", "United States"]}, "categories": [{"id": "4bf58dd8d48988d103951735", "name": "Clothing Store", "pluralName": "Clothing Stores", "shortName": "Apparel", "icon": {"prefix": "https://ss3.4sqi.net/img/categories_v2/shops/apparel_", "suffix": ".png"}, "primary": true}], "photos": {"count": 0, "groups": []}}, "referralId": "e-0-4f8b3b12e4b04a076046c60c-4"}, {"reasons": {"count": 0, "items": [{"summary": "This spot is popular", "type": "general", "reasonName": "globalInteractionReason"}]}, "venue": {"id": "5c0ae329898bdc002c5d08f9", "name": "Starbucks", "location": {"lat": 40.625874, "lng": -73.91746, "labeledLatLngs": [{"label": "display", "lat": 40.625874, "lng": -73.91746}], "distance": 3, "postalCode": "11234", "cc": "US", "city": "Brooklyn", "state": "NY", "country": "United States", "formattedAddress": ["Brooklyn, NY 11234", "United States"]}, "categories": [{"id": "4bf58dd8d48988d1e0931735", "name": "Coffee Shop", "pluralName": "Coffee Shops", "shortName": "Coffee Shop", "icon": {"prefix": "https://ss3.4sqi.net/img/categories_v2/food/coffeeshop_", "suffix": ".png"}, "primary": true}], "photos": {"count": 0, "groups": []}}, "referralId": "e-0-5c0ae329898bdc002c5d08f9-5"}, {"reasons": {"count": 0, "items": [{"summary": "This spot is popular", "type": "general", "reasonName": "globalInteractionReason"}]}, "venue": {"id": "51b4c234498ecfb072ab5a6b", "name": "TD Bank", "location": {"address": "2063 Ralph Ave", "lat": 40.62702604819837, "lng": -73.91748346768964, "labeledLatLngs": [{"label": "display", "lat": 40.62702604819837, "lng": -73.91748346768964}], "distance": 128, "postalCode": "11234", "cc": "US", "city": "Brooklyn", "state": "NY", "country": "United States", "formattedAddress": ["2063 Ralph Ave", "Brooklyn, NY 11234", "United States"]}, "categories": [{"id": "4bf58dd8d48988d10a951735", "name": "Bank", "pluralName": "Banks", "shortName": "Bank", "icon": {"prefix": "https://ss3.4sqi.net/img/categories_v2/shops/financial_", "suffix": ".png"}, "primary": true}], "photos": {"count": 0, "groups": []}}, "referralId": "e-0-51b4c234498ecfb072ab5a6b-6"}, {"reasons": {"count": 0, "items": [{"summary": "This spot is popular", "type": "general", "reasonName": "globalInteractionReason"}]}, "venue": {"id": "4f6357b6e4b09ff9bb6fcb74", "name": "Chase Bank", "location": {"address": "2110 Ralph Ave", "lat": 40.62601523994495, "lng": -73.91826868057251, "labeledLatLngs": [{"label": "display", "lat": 40.62601523994495, "lng": -73.91826868057251}], "distance": 66, "postalCode": "11234", "cc": "US", "city": "Brooklyn", "state": "NY", "country": "United States", "formattedAddress": ["2110 Ralph Ave", "Brooklyn, NY 11234", "United States"]}, "categories": [{"id": "4bf58dd8d48988d10a951735", "name": "Bank", "pluralName": "Banks", "shortName": "Bank", "icon": {"prefix": "https://ss3.4sqi.net/img/categories_v2/shops/financial_", "suffix": ".png"}, "primary": true}], "photos": {"count": 0, "groups": []}}, "referralId": "e-0-4f6357b6e4b09ff9bb6fcb74-7"}, {"reasons": {"count": 0, "items": [{"summary": "This spot is popular", "type": "general", "reasonName": "globalInteractionReason"}]}, "venue": {"id": "4bfd2804e529c9289f74ba8c", "name": "Capital One Bank", "location": {"address": "2102 Ralph Ave", "crossStreet": "Ave K", "lat": 40.6262099, "lng": -73.9183319, "labeledLatLngs": [{"label": "display", "lat": 40.6262099, "lng": -73.9183319}], "distance": 79, "postalCode": "11234", "cc": "US", "city": "Brooklyn", "state": "NY", "country": "United States", "formattedAddress": ["2102 Ralph Ave (Ave K)", "Brooklyn, NY 11234", "United States"]}, "categories": [{"id": "4bf58dd8d48988d10a951735", "name": "Bank", "pluralName": "Banks", "shortName": "Bank", "icon": {"prefix": "https://ss3.4sqi.net/img/categories_v2/shops/financial_", "suffix": ".png"}, "primary": true}], "photos": {"count": 0, "groups": []}}, "referralId": "e-0-4bfd2804e529c9289f74ba8c-8"}, {"reasons": {"count": 0, "items": [{"summary": "This spot is popular", "type": "general", "reasonName": "globalInteractionReason"}]}, "venue": {"id": "52ab957b11d2430ab2440c3b", "name": "Subways", "location": {"address": "Ralph Avenue", "lat": 40.62653322690518, "lng": -73.9167245022349, "labeledLatLngs": [{"label": "display", "lat": 40.62653322690518, "lng": -73.9167245022349}], "distance": 98, "cc": "US", "city": "Brooklyn", "state": "NY", "country": "United States", "formattedAddress": ["Ralph Avenue", "Brooklyn, NY", "United States"]}, "categories": [{"id": "4bf58dd8d48988d1c5941735", "name": "Sandwich Place", "pluralName": "Sandwich Places", "shortName": "Sandwiches", "icon": {"prefix": "https://ss3.4sqi.net/img/categories_v2/food/deli_", "suffix": ".png"}, "primary": true}], "photos": {"count": 0, "groups": []}}, "referralId": "e-0-52ab957b11d2430ab2440c3b-9"}, {"reasons": {"count": 0, "items": [{"summary": "This spot is popular", "type": "general", "reasonName": "globalInteractionReason"}]}, "venue": {"id": "4c152b83a9c220a151b2589d", "name": "Dress Barn", "location": {"address": "2117 Ralph Avenue", "lat": 40.625221876073205, "lng": -73.91662670867811, "labeledLatLngs": [{"label": "display", "lat": 40.625221876073205, "lng": -73.91662670867811}], "distance": 103, "postalCode": "11234", "cc": "US", "city": "Brooklyn", "state": "NY", "country": "United States", "formattedAddress": ["2117 Ralph Avenue", "Brooklyn, NY 11234", "United States"]}, "categories": [{"id": "4bf58dd8d48988d108951735", "name": "Women's Store", "pluralName": "Women's Stores", "shortName": "Women's Store", "icon": {"prefix": "https://ss3.4sqi.net/img/categories_v2/shops/apparel_women_", "suffix": ".png"}, "primary": true}], "photos": {"count": 0, "groups": []}}, "referralId": "e-0-4c152b83a9c220a151b2589d-10"}, {"reasons": {"count": 0, "items": [{"summary": "This spot is popular", "type": "general", "reasonName": "globalInteractionReason"}]}, "venue": {"id": "4c5f03c66147be9a4d579609", "name": "GNC", "location": {"address": "2155 Ralph Ave", "lat": 40.6264032925452, "lng": -73.91608374293675, "labeledLatLngs": [{"label": "display", "lat": 40.6264032925452, "lng": -73.91608374293675}], "distance": 133, "postalCode": "11234", "cc": "US", "city": "Brooklyn", "state": "NY", "country": "United States", "formattedAddress": ["2155 Ralph Ave", "Brooklyn, NY 11234", "United States"]}, "categories": [{"id": "5744ccdfe4b0c0459246b4cd", "name": "Supplement Shop", "pluralName": "Supplement Shops", "shortName": "Supplement Shop", "icon": {"prefix": "https://ss3.4sqi.net/img/categories_v2/education/lab_", "suffix": ".png"}, "primary": true}], "photos": {"count": 0, "groups": []}}, "referralId": "e-0-4c5f03c66147be9a4d579609-11"}, {"reasons": {"count": 0, "items": [{"summary": "This spot is popular", "type": "general", "reasonName": "globalInteractionReason"}]}, "venue": {"id": "4b6c7760f964a520653c2ce3", "name": "IHOP", "location": {"address": "2101 Ralph Ave", "crossStreet": "at Avenue L", "lat": 40.6262440666268, "lng": -73.91769630569674, "labeledLatLngs": [{"label": "display", "lat": 40.6262440666268, "lng": -73.91769630569674}], "distance": 44, "postalCode": "11234", "cc": "US", "city": "Brooklyn", "state": "NY", "country": "United States", "formattedAddress": ["2101 Ralph Ave (at Avenue L)", "Brooklyn, NY 11234", "United States"]}, "categories": [{"id": "4bf58dd8d48988d143941735", "name": "Breakfast Spot", "pluralName": "Breakfast Spots", "shortName": "Breakfast", "icon": {"prefix": "https://ss3.4sqi.net/img/categories_v2/food/breakfast_", "suffix": ".png"}, "primary": true}], "photos": {"count": 0, "groups": []}}, "referralId": "e-0-4b6c7760f964a520653c2ce3-12"}, {"reasons": {"count": 0, "items": [{"summary": "This spot is popular", "type": "general", "reasonName": "globalInteractionReason"}]}, "venue": {"id": "4c2681fc5c5ca593b95146fe", "name": "Sally's Beauty Supply", "location": {"address": "Ralph Avenue", "lat": 40.6254002495495, "lng": -73.91659389182908, "labeledLatLngs": [{"label": "display", "lat": 40.6254002495495, "lng": -73.91659389182908}], "distance": 92, "postalCode": "11234", "cc": "US", "city": "Brooklyn", "state": "NY", "country": "United States", "formattedAddress": ["Ralph Avenue", "Brooklyn, NY 11234", "United States"]}, "categories": [{"id": "4bf58dd8d48988d10c951735", "name": "Cosmetics Shop", "pluralName": "Cosmetics Shops", "shortName": "Cosmetics", "icon": {"prefix": "https://ss3.4sqi.net/img/categories_v2/shops/beauty_cosmetic_", "suffix": ".png"}, "primary": true}], "photos": {"count": 0, "groups": []}}, "referralId": "e-0-4c2681fc5c5ca593b95146fe-13"}, {"reasons": {"count": 0, "items": [{"summary": "This spot is popular", "type": "general", "reasonName": "globalInteractionReason"}]}, "venue": {"id": "4ca243001ee76dcbed2eefdd", "name": "GameStop", "location": {"address": "2183 Ralph Ave", "crossStreet": "at Ave K", "lat": 40.62644298054101, "lng": -73.91618925301883, "labeledLatLngs": [{"label": "display", "lat": 40.62644298054101, "lng": -73.91618925301883}], "distance": 127, "postalCode": "11234", "cc": "US", "city": "Brooklyn", "state": "NY", "country": "United States", "formattedAddress": ["2183 Ralph Ave (at Ave K)", "Brooklyn, NY 11234", "United States"]}, "categories": [{"id": "4bf58dd8d48988d10b951735", "name": "Video Game Store", "pluralName": "Video Game Stores", "shortName": "Video Games", "icon": {"prefix": "https://ss3.4sqi.net/img/categories_v2/shops/videogames_", "suffix": ".png"}, "primary": true}], "photos": {"count": 0, "groups": []}}, "referralId": "e-0-4ca243001ee76dcbed2eefdd-14"}, {"reasons": {"count": 0, "items": [{"summary": "This spot is popular", "type": "general", "reasonName": "globalInteractionReason"}]}, "venue": {"id": "4ca23bed1ee76dcb07f6eedd", "name": "Georgetown Shopping Center", "location": {"address": "Ralph Ave", "crossStreet": "Ave K", "lat": 40.62628661820448, "lng": -73.91757992632097, "labeledLatLngs": [{"label": "display", "lat": 40.62628661820448, "lng": -73.91757992632097}], "distance": 46, "postalCode": "11234", "cc": "US", "city": "Brooklyn", "state": "NY", "country": "United States", "formattedAddress": ["Ralph Ave (Ave K)", "Brooklyn, NY 11234", "United States"]}, "categories": [{"id": "4bf58dd8d48988d1fd941735", "name": "Shopping Mall", "pluralName": "Shopping Malls", "shortName": "Mall", "icon": {"prefix": "https://ss3.4sqi.net/img/categories_v2/shops/mall_", "suffix": ".png"}, "primary": true}], "photos": {"count": 0, "groups": []}}, "referralId": "e-0-4ca23bed1ee76dcb07f6eedd-15"}, {"reasons": {"count": 0, "items": [{"summary": "This spot is popular", "type": "general", "reasonName": "globalInteractionReason"}]}, "venue": {"id": "4be9aaf99fa3ef3bc20d80c9", "name": "The UPS Store", "location": {"address": "2152 Ralph Ave", "lat": 40.6251698, "lng": -73.9182342, "labeledLatLngs": [{"label": "display", "lat": 40.6251698, "lng": -73.9182342}], "distance": 99, "postalCode": "11234", "cc": "US", "city": "Brooklyn", "state": "NY", "country": "United States", "formattedAddress": ["2152 Ralph Ave", "Brooklyn, NY 11234", "United States"]}, "categories": [{"id": "52f2ab2ebcbc57f1066b8b1f", "name": "Shipping Store", "pluralName": "Shipping Stores", "shortName": "Shipping Store", "icon": {"prefix": "https://ss3.4sqi.net/img/categories_v2/shops/default_", "suffix": ".png"}, "primary": true}], "photos": {"count": 0, "groups": []}}, "referralId": "e-0-4be9aaf99fa3ef3bc20d80c9-16"}, {"reasons": {"count": 0, "items": [{"summary": "This spot is popular", "type": "general", "reasonName": "globalInteractionReason"}]}, "venue": {"id": "5a33bfc48c35dc150625cddf", "name": "Progressive Plumbing Repairs & Drain Services", "location": {"address": "2062 Ralph Ave", "lat": 40.627207, "lng": -73.91843000000001, "labeledLatLngs": [{"label": "display", "lat": 40.627207, "lng": -73.91843000000001}], "distance": 167, "postalCode": "11234", "cc": "US", "city": "Brooklyn", "state": "NY", "country": "United States", "formattedAddress": ["2062 Ralph Ave", "Brooklyn, NY 11234", "United States"]}, "categories": [{"id": "5454144b498ec1f095bff2f2", "name": "Construction & Landscaping", "pluralName": "Construction & Landscaping", "shortName": "Construction", "icon": {"prefix": "https://ss3.4sqi.net/img/categories_v2/shops/realestate_", "suffix": ".png"}, "primary": true}], "photos": {"count": 0, "groups": []}}, "referralId": "e-0-5a33bfc48c35dc150625cddf-17"}, {"reasons": {"count": 0, "items": [{"summary": "This spot is popular", "type": "general", "reasonName": "globalInteractionReason"}]}, "venue": {"id": "58824d51e18e651b1eeefcfc", "name": "Fairway Market", "location": {"lat": 40.626195, "lng": -73.915941, "labeledLatLngs": [{"label": "display", "lat": 40.626195, "lng": -73.915941}], "distance": 136, "cc": "US", "city": "Brooklyn", "state": "NY", "country": "United States", "formattedAddress": ["Brooklyn, NY", "United States"]}, "categories": [{"id": "52f2ab2ebcbc57f1066b8b46", "name": "Supermarket", "pluralName": "Supermarkets", "shortName": "Supermarket", "icon": {"prefix": "https://ss3.4sqi.net/img/categories_v2/shops/food_grocery_", "suffix": ".png"}, "primary": true}], "photos": {"count": 0, "groups": []}}, "referralId": "e-0-58824d51e18e651b1eeefcfc-18"}, {"reasons": {"count": 0, "items": [{"summary": "This spot is popular", "type": "general", "reasonName": "globalInteractionReason"}]}, "venue": {"id": "4c5602e8fe84d13aaddd088e", "name": "Courtney's Rotisserie & Grill", "location": {"address": "2175 Ralph Avenue", "crossStreet": "Avenue K", "lat": 40.626424224762246, "lng": -73.91676619586873, "labeledLatLngs": [{"label": "display", "lat": 40.626424224762246, "lng": -73.91676619586873}], "distance": 87, "postalCode": "11234", "cc": "US", "city": "Brooklyn", "state": "NY", "country": "United States", "formattedAddress": ["2175 Ralph Avenue (Avenue K)", "Brooklyn, NY 11234", "United States"]}, "categories": [{"id": "4bf58dd8d48988d14e941735", "name": "American Restaurant", "pluralName": "American Restaurants", "shortName": "American", "icon": {"prefix": "https://ss3.4sqi.net/img/categories_v2/food/default_", "suffix": ".png"}, "primary": true}], "delivery": {"id": "345502", "url": "https://www.seamless.com/menu/courtneys-rotisserie--grill-2175-ralph-ave-brooklyn/345502?affiliate=1131&utm_source=foursquare-affiliate-network&utm_medium=affiliate&utm_campaign=1131&utm_content=345502", "provider": {"name": "seamless", "icon": {"prefix": "https://fastly.4sqi.net/img/general/cap/", "sizes": [40, 50], "name": "/delivery_provider_seamless_20180129.png"}}}, "photos": {"count": 0, "groups": []}}, "referralId": "e-0-4c5602e8fe84d13aaddd088e-19"}, {"reasons": {"count": 0, "items": [{"summary": "This spot is popular", "type": "general", "reasonName": "globalInteractionReason"}]}, "venue": {"id": "4cdc69c6d5495481267341b2", "name": "S & D Bagels", "location": {"address": "2144 Ralph Ave", "lat": 40.625419523937516, "lng": -73.91822584327024, "labeledLatLngs": [{"label": "display", "lat": 40.625419523937516, "lng": -73.91822584327024}], "distance": 79, "postalCode": "11234", "cc": "US", "city": "Brooklyn", "state": "NY", "country": "United States", "formattedAddress": ["2144 Ralph Ave", "Brooklyn, NY 11234", "United States"]}, "categories": [{"id": "4bf58dd8d48988d179941735", "name": "Bagel Shop", "pluralName": "Bagel Shops", "shortName": "Bagels", "icon": {"prefix": "https://ss3.4sqi.net/img/categories_v2/food/bagels_", "suffix": ".png"}, "primary": true}], "photos": {"count": 0, "groups": []}}, "referralId": "e-0-4cdc69c6d5495481267341b2-20"}, {"reasons": {"count": 0, "items": [{"summary": "This spot is popular", "type": "general", "reasonName": "globalInteractionReason"}]}, "venue": {"id": "4d86582e81fdb1f7712424c0", "name": "China Star Buffet", "location": {"address": "2095 Ralph Ave", "lat": 40.626382551876574, "lng": -73.91696736028977, "labeledLatLngs": [{"label": "display", "lat": 40.626382551876574, "lng": -73.91696736028977}], "distance": 72, "postalCode": "11234", "cc": "US", "city": "Brooklyn", "state": "NY", "country": "United States", "formattedAddress": ["2095 Ralph Ave", "Brooklyn, NY 11234", "United States"]}, "categories": [{"id": "4bf58dd8d48988d145941735", "name": "Chinese Restaurant", "pluralName": "Chinese Restaurants", "shortName": "Chinese", "icon": {"prefix": "https://ss3.4sqi.net/img/categories_v2/food/asian_", "suffix": ".png"}, "primary": true}], "photos": {"count": 0, "groups": []}}, "referralId": "e-0-4d86582e81fdb1f7712424c0-21"}, {"reasons": {"count": 0, "items": [{"summary": "This spot is popular", "type": "general", "reasonName": "globalInteractionReason"}]}, "venue": {"id": "534996d7498e278a722122ef", "name": "Telco", "location": {"address": "1910 Ralph Ave", "crossStreet": "at Flatlands Ave", "lat": 40.62679513562129, "lng": -73.91867647115707, "labeledLatLngs": [{"label": "display", "lat": 40.62679513562129, "lng": -73.91867647115707}], "distance": 142, "postalCode": "11234", "cc": "US", "city": "Brooklyn", "state": "NY", "country": "United States", "formattedAddress": ["1910 Ralph Ave (at Flatlands Ave)", "Brooklyn, NY 11234", "United States"]}, "categories": [{"id": "52dea92d3cf9994f4e043dbb", "name": "Discount Store", "pluralName": "Discount Stores", "shortName": "Discount Store", "icon": {"prefix": "https://ss3.4sqi.net/img/categories_v2/shops/discountstore_", "suffix": ".png"}, "primary": true}], "photos": {"count": 0, "groups": []}}, "referralId": "e-0-534996d7498e278a722122ef-22"}, {"reasons": {"count": 0, "items": [{"summary": "This spot is popular", "type": "general", "reasonName": "globalInteractionReason"}]}, "venue": {"id": "595bab398e886a485c8bb179", "name": "Carters", "location": {"address": "2097 Ralph Avenue", "lat": 40.624968, "lng": -73.917665, "labeledLatLngs": [{"label": "display", "lat": 40.624968, "lng": -73.917665}], "distance": 101, "postalCode": "11234", "cc": "US", "city": "New York", "state": "NY", "country": "United States", "formattedAddress": ["2097 Ralph Avenue", "New York, NY 11234", "United States"]}, "categories": [{"id": "4bf58dd8d48988d105951735", "name": "Kids Store", "pluralName": "Kids Stores", "shortName": "Kids Store", "icon": {"prefix": "https://ss3.4sqi.net/img/categories_v2/shops/apparel_kids_", "suffix": ".png"}, "primary": true}], "photos": {"count": 0, "groups": []}}, "referralId": "e-0-595bab398e886a485c8bb179-23"}, {"reasons": {"count": 0, "items": [{"summary": "This spot is popular", "type": "general", "reasonName": "globalInteractionReason"}]}, "venue": {"id": "4c23852c9a67a5930c29de87", "name": "Pearle Vision", "location": {"address": "2103 Ralph Ave", "lat": 40.625011, "lng": -73.916981, "labeledLatLngs": [{"label": "display", "lat": 40.625011, "lng": -73.916981}], "distance": 105, "postalCode": "11234", "cc": "US", "city": "Brooklyn", "state": "NY", "country": "United States", "formattedAddress": ["2103 Ralph Ave", "Brooklyn, NY 11234", "United States"]}, "categories": [{"id": "4bf58dd8d48988d177941735", "name": "Doctor's Office", "pluralName": "Doctor's Offices", "shortName": "Doctor's Office", "icon": {"prefix": "https://ss3.4sqi.net/img/categories_v2/building/medical_doctorsoffice_", "suffix": ".png"}, "primary": true}], "photos": {"count": 0, "groups": []}}, "referralId": "e-0-4c23852c9a67a5930c29de87-24"}]}]}}